{
    "metadata": {
        "resultset": {
            "offset": 1,
            "count": 3460,
            "limit": 1000
        }
    },
    "results": [
        {
            "elevation": 128,
            "mindate": "1931-01-01",
            "maxdate": "2015-11-01",
            "latitude": 34.1547,
            "name": "PARKER, AZ US",
            "datacoverage": 0.9755,
            "id": "COOP:026250",
            "elevationUnit": "METERS",
            "longitude": -114.2908
        },
        {
            "elevation": 73.2,
            "mindate": "1948-01-01",
            "maxdate": "1974-04-01",
            "latitude": 32.73333,
            "name": "YUMA WEATHER BUREAU CITY, CA US",
            "datacoverage": 0.9906,
            "id": "COOP:029662",
            "elevationUnit": "METERS",
            "longitude": -114.61667
        },
        {
            "elevation": 26.5,
            "mindate": "1994-01-01",
            "maxdate": "2015-11-01",
            "latitude": 38.2177,
            "name": "ACAMPO 5 NE, CA US",
            "datacoverage": 0.9469,
            "id": "COOP:040010",
            "elevationUnit": "METERS",
            "longitude": -121.2013
        },
        {
            "elevation": 863.5,
            "mindate": "1931-01-01",
            "maxdate": "2013-12-01",
            "latitude": 34.4938,
            "name": "ACTON ESCONDIDO CANYON, CA US",
            "datacoverage": 0.8986,
            "id": "COOP:040014",
            "elevationUnit": "METERS",
            "longitude": -118.2713
        },
        {
            "elevation": 869,
            "mindate": "1959-06-01",
            "maxdate": "1977-09-01",
            "latitude": 34.58333,
            "name": "ADELANTO, CA US",
            "datacoverage": 0.9772,
            "id": "COOP:040024",
            "elevationUnit": "METERS",
            "longitude": -117.41667
        },
        {
            "elevation": 1278.6,
            "mindate": "1943-11-01",
            "maxdate": "2015-11-01",
            "latitude": 41.1936,
            "name": "ADIN RANGER STATION, CA US",
            "datacoverage": 0.9931,
            "id": "COOP:040029",
            "elevationUnit": "METERS",
            "longitude": -120.9447
        },
        {
            "elevation": 125,
            "mindate": "1957-10-01",
            "maxdate": "1975-08-01",
            "latitude": 37.86667,
            "name": "ALAMO 1 N, CA US",
            "datacoverage": 0.9256,
            "id": "COOP:040064",
            "elevationUnit": "METERS",
            "longitude": -122.03333
        },
        {
            "elevation": 139.9,
            "mindate": "1940-12-01",
            "maxdate": "1980-06-01",
            "latitude": 40.18333,
            "name": "ALDERPOINT, CA US",
            "datacoverage": 0.9264,
            "id": "COOP:040088",
            "elevationUnit": "METERS",
            "longitude": -123.61667
        },
        {
            "elevation": 721.5,
            "mindate": "1939-09-01",
            "maxdate": "1992-10-30",
            "latitude": 34.31667,
            "name": "ALISO CANYON FC 446, CA US",
            "datacoverage": 0.9711,
            "id": "COOP:040115",
            "elevationUnit": "METERS",
            "longitude": -118.55
        },
        {
            "elevation": 516.6,
            "mindate": "1952-10-01",
            "maxdate": "2015-11-01",
            "latitude": 32.8358,
            "name": "ALPINE, CA US",
            "datacoverage": 0.9644,
            "id": "COOP:040136",
            "elevationUnit": "METERS",
            "longitude": -116.7774
        },
        {
            "elevation": 343.5,
            "mindate": "1931-01-01",
            "maxdate": "2015-11-01",
            "latitude": 34.18211,
            "name": "ALTADENA, CA US",
            "datacoverage": 0.9362,
            "id": "COOP:040144",
            "elevationUnit": "METERS",
            "longitude": -118.13827
        },
        {
            "elevation": 1334.4,
            "mindate": "1931-05-01",
            "maxdate": "2015-11-01",
            "latitude": 41.4901,
            "name": "ALTURAS, CA US",
            "datacoverage": 0.9901,
            "id": "COOP:040161",
            "elevationUnit": "METERS",
            "longitude": -120.5437
        },
        {
            "elevation": 387.7,
            "mindate": "2009-02-01",
            "maxdate": "2010-12-01",
            "latitude": 34.16139,
            "name": "AMBOY ROAD EAST, CA US",
            "datacoverage": 1,
            "id": "COOP:040174",
            "elevationUnit": "METERS",
            "longitude": -115.80444
        },
        {
            "elevation": 197.5,
            "mindate": "1948-01-01",
            "maxdate": "2015-11-01",
            "latitude": 34.5591,
            "name": "AMBOY, CA US",
            "datacoverage": 0.1166,
            "id": "COOP:040176",
            "elevationUnit": "METERS",
            "longitude": -115.7441
        },
        {
            "elevation": 71.6,
            "mindate": "1989-08-01",
            "maxdate": "2015-11-01",
            "latitude": 33.8647,
            "name": "ANAHEIM, CA US",
            "datacoverage": 0.9684,
            "id": "COOP:040192",
            "elevationUnit": "METERS",
            "longitude": -117.8425
        },
        {
            "elevation": 64,
            "mindate": "1931-01-01",
            "maxdate": "1982-03-01",
            "latitude": 35.98333,
            "name": "ANGIOLA, CA US",
            "datacoverage": 0.9643,
            "id": "COOP:040204",
            "elevationUnit": "METERS",
            "longitude": -119.48333
        },
        {
            "elevation": 522.7,
            "mindate": "1939-11-01",
            "maxdate": "2015-11-01",
            "latitude": 38.573,
            "name": "ANGWIN PACIFIC UNION COLLEGE, CA US",
            "datacoverage": 0.9737,
            "id": "COOP:040212",
            "elevationUnit": "METERS",
            "longitude": -122.4405
        },
        {
            "elevation": 8.5,
            "mindate": "1879-01-01",
            "maxdate": "1975-07-01",
            "latitude": 38.01667,
            "name": "ANTIOCH FIBREBRD MIL, CA US",
            "datacoverage": 0.9871,
            "id": "COOP:040227",
            "elevationUnit": "METERS",
            "longitude": -121.76667
        },
        {
            "elevation": 18.3,
            "mindate": "1955-03-01",
            "maxdate": "2015-11-01",
            "latitude": 37.9833,
            "name": "ANTIOCH PUMPING PLANT NUMBER 3, CA US",
            "datacoverage": 0.9643,
            "id": "COOP:040232",
            "elevationUnit": "METERS",
            "longitude": -121.7525
        },
        {
            "elevation": 1193.3,
            "mindate": "1942-10-01",
            "maxdate": "2005-02-01",
            "latitude": 33.5558,
            "name": "ANZA, CA US",
            "datacoverage": 0.9373,
            "id": "COOP:040235",
            "elevationUnit": "METERS",
            "longitude": -116.6738
        },
        {
            "elevation": 894.6,
            "mindate": "1959-06-01",
            "maxdate": "1987-03-01",
            "latitude": 34.51667,
            "name": "APPLE VALLEY, CA US",
            "datacoverage": 0.997,
            "id": "COOP:040244",
            "elevationUnit": "METERS",
            "longitude": -117.21667
        },
        {
            "elevation": 34.1,
            "mindate": "1959-08-01",
            "maxdate": "1977-06-01",
            "latitude": 35.11667,
            "name": "ARROYO GRANDE, CA US",
            "datacoverage": 0.9861,
            "id": "COOP:040320",
            "elevationUnit": "METERS",
            "longitude": -120.56667
        },
        {
            "elevation": 282.5,
            "mindate": "1993-12-01",
            "maxdate": "2014-01-01",
            "latitude": 35.1844,
            "name": "ARROYO GRANDE 11 ENE, CA US",
            "datacoverage": 0.0162,
            "id": "COOP:040321",
            "elevationUnit": "METERS",
            "longitude": -120.398
        },
        {
            "elevation": 286.5,
            "mindate": "1948-12-01",
            "maxdate": "2014-01-01",
            "latitude": 36.2355,
            "name": "ARROYO SECO, CA US",
            "datacoverage": 0.0285,
            "id": "COOP:040322",
            "elevationUnit": "METERS",
            "longitude": -121.48
        },
        {
            "elevation": 371.9,
            "mindate": "1931-01-01",
            "maxdate": "1974-06-01",
            "latitude": 34.21667,
            "name": "ARROYO SECO RANGER STATION FC508, CA US",
            "datacoverage": 0.9962,
            "id": "COOP:040327",
            "elevationUnit": "METERS",
            "longitude": -118.16667
        },
        {
            "elevation": 137.2,
            "mindate": "2008-08-01",
            "maxdate": "2015-11-01",
            "latitude": 35.2111,
            "name": "ARVIN, CA US",
            "datacoverage": 0.9888,
            "id": "COOP:040332",
            "elevationUnit": "METERS",
            "longitude": -118.8336
        },
        {
            "elevation": 520.6,
            "mindate": "1931-01-01",
            "maxdate": "2015-11-01",
            "latitude": 36.4914,
            "name": "ASH MOUNTAIN, CA US",
            "datacoverage": 0.9941,
            "id": "COOP:040343",
            "elevationUnit": "METERS",
            "longitude": -118.8253
        },
        {
            "elevation": 512.1,
            "mindate": "1968-12-01",
            "maxdate": "1998-08-04",
            "latitude": 38.42694,
            "name": "ATLAS ROAD BROWN, CA US",
            "datacoverage": 0.0233,
            "id": "COOP:040368",
            "elevationUnit": "METERS",
            "longitude": -122.24833
        },
        {
            "elevation": 637,
            "mindate": "1931-01-01",
            "maxdate": "2015-11-01",
            "latitude": 37.0919,
            "name": "AUBERRY 2 NW, CA US",
            "datacoverage": 0.9863,
            "id": "COOP:040379",
            "elevationUnit": "METERS",
            "longitude": -119.5128
        },
        {
            "elevation": 393.8,
            "mindate": "1916-11-01",
            "maxdate": "2015-11-01",
            "latitude": 38.9072,
            "name": "AUBURN, CA US",
            "datacoverage": 0.9916,
            "id": "COOP:040383",
            "elevationUnit": "METERS",
            "longitude": -121.0838
        },
        {
            "elevation": 387.1,
            "mindate": "1972-07-01",
            "maxdate": "1984-09-01",
            "latitude": 38.88333,
            "name": "AUBURN DAM PROJECT, CA US",
            "datacoverage": 0.9998,
            "id": "COOP:040385",
            "elevationUnit": "METERS",
            "longitude": -121.06667
        },
        {
            "elevation": 27.4,
            "mindate": "2011-01-01",
            "maxdate": "2011-12-01",
            "latitude": 33.338,
            "name": "AVALON INLAND, CA US",
            "datacoverage": 1,
            "id": "COOP:040392",
            "elevationUnit": "METERS",
            "longitude": -118.3305
        },
        {
            "elevation": 9.1,
            "mindate": "1963-06-01",
            "maxdate": "1971-04-01",
            "latitude": 35.1784,
            "name": "AVILA BEACH, CA US",
            "datacoverage": 1,
            "id": "COOP:040403",
            "elevationUnit": "METERS",
            "longitude": -120.73363
        },
        {
            "elevation": 185.9,
            "mindate": "1931-01-01",
            "maxdate": "1972-10-01",
            "latitude": 34.13333,
            "name": "AZUSA CITY PK FC 143, CA US",
            "datacoverage": 1,
            "id": "COOP:040410",
            "elevationUnit": "METERS",
            "longitude": -117.9
        },
        {
            "elevation": 932.7,
            "mindate": "1948-07-01",
            "maxdate": "2006-12-01",
            "latitude": 36.62861,
            "name": "BADGER, CA US",
            "datacoverage": 0.0283,
            "id": "COOP:040422",
            "elevationUnit": "METERS",
            "longitude": -119.01167
        },
        {
            "elevation": 293.2,
            "mindate": "1953-11-01",
            "maxdate": "2012-12-01",
            "latitude": 35.27611,
            "name": "BAKER, CA US",
            "datacoverage": 0.8292,
            "id": "COOP:040436",
            "elevationUnit": "METERS",
            "longitude": -116.06278
        },
        {
            "elevation": 320,
            "mindate": "1953-11-01",
            "maxdate": "1971-03-01",
            "latitude": 35.38333,
            "name": "BAKER 9 NNW, CA US",
            "datacoverage": 0.9859,
            "id": "COOP:040437",
            "elevationUnit": "METERS",
            "longitude": -116.11667
        },
        {
            "elevation": 149,
            "mindate": "1938-01-01",
            "maxdate": "2015-11-01",
            "latitude": 35.4344,
            "name": "BAKERSFIELD AIRPORT, CA US",
            "datacoverage": 0.9968,
            "id": "COOP:040442",
            "elevationUnit": "METERS",
            "longitude": -119.0542
        },
        {
            "elevation": 143.3,
            "mindate": "1999-01-01",
            "maxdate": "2015-11-01",
            "latitude": 35.4186,
            "name": "BAKERSFIELD 5 NW, CA US",
            "datacoverage": 0.9854,
            "id": "COOP:040444",
            "elevationUnit": "METERS",
            "longitude": -119.0508
        },
        {
            "elevation": 528.8,
            "mindate": "1950-02-01",
            "maxdate": "2015-11-01",
            "latitude": 36.9092,
            "name": "BALCH POWER HOUSE, CA US",
            "datacoverage": 0.9887,
            "id": "COOP:040449",
            "elevationUnit": "METERS",
            "longitude": -119.0883
        },
        {
            "elevation": 494.1,
            "mindate": "1931-01-01",
            "maxdate": "1980-12-01",
            "latitude": 32.68333,
            "name": "BARRETT DAM, CA US",
            "datacoverage": 1,
            "id": "COOP:040514",
            "elevationUnit": "METERS",
            "longitude": -116.66667
        },
        {
            "elevation": 659,
            "mindate": "1939-01-01",
            "maxdate": "1979-12-01",
            "latitude": 34.9,
            "name": "BARSTOW, CA US",
            "datacoverage": 1,
            "id": "COOP:040519",
            "elevationUnit": "METERS",
            "longitude": -117.03333
        },
        {
            "elevation": 676.7,
            "mindate": "1980-01-01",
            "maxdate": "2015-11-01",
            "latitude": 34.8927,
            "name": "BARSTOW, CA US",
            "datacoverage": 0.9768,
            "id": "COOP:040521",
            "elevationUnit": "METERS",
            "longitude": -117.0219
        },
        {
            "elevation": 1663.3,
            "mindate": "2002-03-01",
            "maxdate": "2003-05-01",
            "latitude": 39.6175,
            "name": "BASSETS STATION, CA US",
            "datacoverage": 0.9324,
            "id": "COOP:040539",
            "elevationUnit": "METERS",
            "longitude": -120.59222
        },
        {
            "elevation": 128,
            "mindate": "1971-02-01",
            "maxdate": "2014-01-01",
            "latitude": 40.3983,
            "name": "BATTLE CREEK ADR, CA US",
            "datacoverage": 0.0209,
            "id": "COOP:040546",
            "elevationUnit": "METERS",
            "longitude": -122.1452
        },
        {
            "elevation": 2103.1,
            "mindate": "2002-08-01",
            "maxdate": "2003-10-01",
            "latitude": 38.44056,
            "name": "BEAR VALLEY, CA US",
            "datacoverage": 0.666,
            "id": "COOP:040595",
            "elevationUnit": "METERS",
            "longitude": -120.07611
        },
        {
            "elevation": 796.4,
            "mindate": "1888-01-01",
            "maxdate": "2006-12-01",
            "latitude": 33.9291,
            "name": "BEAUMONT, CA US",
            "datacoverage": 0.9155,
            "id": "COOP:040606",
            "elevationUnit": "METERS",
            "longitude": -116.975
        },
        {
            "elevation": 929.9,
            "mindate": "1911-01-01",
            "maxdate": "1975-12-01",
            "latitude": 33.98333,
            "name": "BEAUMONT PUMP PLANT, CA US",
            "datacoverage": 1,
            "id": "COOP:040607",
            "elevationUnit": "METERS",
            "longitude": -116.96667
        },
        {
            "elevation": 789.7,
            "mindate": "1940-09-01",
            "maxdate": "2001-07-01",
            "latitude": 33.9255,
            "name": "BEAUMONT NUMBER 2, CA US",
            "datacoverage": 0.9891,
            "id": "COOP:040609",
            "elevationUnit": "METERS",
            "longitude": -116.9903
        },
        {
            "elevation": 164.9,
            "mindate": "1931-01-01",
            "maxdate": "1984-03-01",
            "latitude": 34.08333,
            "name": "BEL AIR FC 10A, CA US",
            "datacoverage": 0.995,
            "id": "COOP:040619",
            "elevationUnit": "METERS",
            "longitude": -118.45
        },
        {
            "elevation": 128,
            "mindate": "1972-12-01",
            "maxdate": "2015-11-01",
            "latitude": 37.0855,
            "name": "BEN LOMOND NUMBER 4, CA US",
            "datacoverage": 0.9923,
            "id": "COOP:040673",
            "elevationUnit": "METERS",
            "longitude": -122.0797
        },
        {
            "elevation": 128,
            "mindate": "1967-08-01",
            "maxdate": "1972-12-01",
            "latitude": 37.0855,
            "name": "BEN LOMOND NUMBER 4, CA US",
            "datacoverage": 0.9992,
            "id": "COOP:040677",
            "elevationUnit": "METERS",
            "longitude": -122.0797
        },
        {
            "elevation": 1664.2,
            "mindate": "1964-10-01",
            "maxdate": "2003-03-01",
            "latitude": 37.84278,
            "name": "BENTON INSPECTION STATION, CA US",
            "datacoverage": 0.9979,
            "id": "COOP:040684",
            "elevationUnit": "METERS",
            "longitude": -118.47833
        },
        {
            "elevation": 94.5,
            "mindate": "1919-01-01",
            "maxdate": "2015-11-01",
            "latitude": 37.8744,
            "name": "BERKELEY, CA US",
            "datacoverage": 0.9476,
            "id": "COOP:040693",
            "elevationUnit": "METERS",
            "longitude": -122.2605
        },
        {
            "elevation": 139.9,
            "mindate": "1957-11-01",
            "maxdate": "1970-06-01",
            "latitude": 38.55,
            "name": "BERRYESSA LAKE, CA US",
            "datacoverage": 1,
            "id": "COOP:040705",
            "elevationUnit": "METERS",
            "longitude": -122.23333
        },
        {
            "elevation": 1257.3,
            "mindate": "1948-07-01",
            "maxdate": "2014-01-01",
            "latitude": 41.1208,
            "name": "BIEBER, CA US",
            "datacoverage": 0.0322,
            "id": "COOP:040731",
            "elevationUnit": "METERS",
            "longitude": -121.1347
        },
        {
            "elevation": 381.9,
            "mindate": "1943-11-01",
            "maxdate": "2015-11-01",
            "latitude": 40.7405,
            "name": "BIG BAR 4 E, CA US",
            "datacoverage": 0.9919,
            "id": "COOP:040738",
            "elevationUnit": "METERS",
            "longitude": -123.2077
        },
        {
            "elevation": 2058.3,
            "mindate": "1960-07-01",
            "maxdate": "2015-11-01",
            "latitude": 34.243,
            "name": "BIG BEAR LAKE, CA US",
            "datacoverage": 0.9925,
            "id": "COOP:040741",
            "elevationUnit": "METERS",
            "longitude": -116.917
        },
        {
            "elevation": 2077.2,
            "mindate": "1933-07-01",
            "maxdate": "2014-01-01",
            "latitude": 34.2414,
            "name": "BIG BEAR LAKE DAM, CA US",
            "datacoverage": 0.9391,
            "id": "COOP:040742",
            "elevationUnit": "METERS",
            "longitude": -116.9751
        },
        {
            "elevation": 1751.1,
            "mindate": "1961-01-01",
            "maxdate": "1972-06-01",
            "latitude": 39.3,
            "name": "BIG BEN RANGER STATION, CA US",
            "datacoverage": 0.9855,
            "id": "COOP:040747",
            "elevationUnit": "METERS",
            "longitude": -120.51667
        },
        {
            "elevation": 1486.8,
            "mindate": "1931-01-01",
            "maxdate": "2012-12-01",
            "latitude": 37.2064,
            "name": "BIG CREEK PH 1, CA US",
            "datacoverage": 0.5386,
            "id": "COOP:040755",
            "elevationUnit": "METERS",
            "longitude": -119.2419
        },
        {
            "elevation": 484.9,
            "mindate": "1931-01-01",
            "maxdate": "1980-12-01",
            "latitude": 34.16667,
            "name": "BIG DALTON DAM FC223, CA US",
            "datacoverage": 0.9983,
            "id": "COOP:040758",
            "elevationUnit": "METERS",
            "longitude": -117.81667
        },
        {
            "elevation": 2086.4,
            "mindate": "1931-01-01",
            "maxdate": "1996-11-01",
            "latitude": 34.38333,
            "name": "BIG PINES PARK FC83B, CA US",
            "datacoverage": 0.9886,
            "id": "COOP:040779",
            "elevationUnit": "METERS",
            "longitude": -117.68333
        },
        {
            "elevation": 61,
            "mindate": "1931-01-01",
            "maxdate": "2015-11-01",
            "latitude": 36.2472,
            "name": "BIG SUR STATION, CA US",
            "datacoverage": 0.9804,
            "id": "COOP:040790",
            "elevationUnit": "METERS",
            "longitude": -121.7802
        },
        {
            "elevation": 709,
            "mindate": "1940-01-01",
            "maxdate": "2015-11-01",
            "latitude": 34.29481,
            "name": "BIG TUJUNGA DAM FC46, CA US",
            "datacoverage": 0.9254,
            "id": "COOP:040798",
            "elevationUnit": "METERS",
            "longitude": -118.18849
        },
        {
            "elevation": 220.1,
            "mindate": "1948-07-01",
            "maxdate": "1977-06-01",
            "latitude": 34.18333,
            "name": "BIRMINGHAM GEN HOSPITAL, CA US",
            "datacoverage": 0.0201,
            "id": "COOP:040818",
            "elevationUnit": "METERS",
            "longitude": -118.5
        },
        {
            "elevation": 2485.3,
            "mindate": "1959-10-01",
            "maxdate": "2009-09-01",
            "latitude": 37.248,
            "name": "BISHOP CRK INTAKE 2, CA US",
            "datacoverage": 0.8983,
            "id": "COOP:040819",
            "elevationUnit": "METERS",
            "longitude": -118.5813
        },
        {
            "elevation": 2581.7,
            "mindate": "1931-01-01",
            "maxdate": "2011-12-01",
            "latitude": 37.2321,
            "name": "ASPENDELL, CA US",
            "datacoverage": 0.2078,
            "id": "COOP:040820",
            "elevationUnit": "METERS",
            "longitude": -118.5994
        },
        {
            "elevation": 1250.3,
            "mindate": "1943-09-01",
            "maxdate": "2015-11-01",
            "latitude": 37.3711,
            "name": "BISHOP AIRPORT, CA US",
            "datacoverage": 0.9977,
            "id": "COOP:040822",
            "elevationUnit": "METERS",
            "longitude": -118.358
        },
        {
            "elevation": 1252.1,
            "mindate": "1996-12-01",
            "maxdate": "2005-09-01",
            "latitude": 37.3683,
            "name": "BISHOP FS, CA US",
            "datacoverage": 0.9093,
            "id": "COOP:040823",
            "elevationUnit": "METERS",
            "longitude": -118.3647
        },
        {
            "elevation": 646.2,
            "mindate": "1954-02-01",
            "maxdate": "1995-06-01",
            "latitude": 37.31667,
            "name": "BLACK MOUNTAIN 2 WSW, CA US",
            "datacoverage": 0.9861,
            "id": "COOP:040850",
            "elevationUnit": "METERS",
            "longitude": -122.16667
        },
        {
            "elevation": 217,
            "mindate": "1963-06-01",
            "maxdate": "1975-06-01",
            "latitude": 35.61667,
            "name": "BLACKWELLS CORNER, CA US",
            "datacoverage": 0.8415,
            "id": "COOP:040875",
            "elevationUnit": "METERS",
            "longitude": -119.9
        },
        {
            "elevation": 1345.4,
            "mindate": "1969-10-01",
            "maxdate": "2014-01-01",
            "latitude": 38.9091,
            "name": "BLODGETT EXPER FOREST, CA US",
            "datacoverage": 0.0426,
            "id": "COOP:040883",
            "elevationUnit": "METERS",
            "longitude": -120.6677
        },
        {
            "elevation": 1608.1,
            "mindate": "1940-03-01",
            "maxdate": "2015-11-01",
            "latitude": 39.2774,
            "name": "BLUE CANYON AIRPORT, CA US",
            "datacoverage": 0.8746,
            "id": "COOP:040897",
            "elevationUnit": "METERS",
            "longitude": -120.7102
        },
        {
            "elevation": 81.7,
            "mindate": "1931-01-01",
            "maxdate": "2015-11-01",
            "latitude": 33.6131,
            "name": "BLYTHE, CA US",
            "datacoverage": 0.9804,
            "id": "COOP:040924",
            "elevationUnit": "METERS",
            "longitude": -114.5972
        },
        {
            "elevation": 118.9,
            "mindate": "1953-02-01",
            "maxdate": "1994-12-26",
            "latitude": 33.61667,
            "name": "BLYTHE 7 W, CA US",
            "datacoverage": 0.0067,
            "id": "COOP:040925",
            "elevationUnit": "METERS",
            "longitude": -114.71667
        },
        {
            "elevation": 120.4,
            "mindate": "1940-04-01",
            "maxdate": "2015-11-01",
            "latitude": 33.6186,
            "name": "BLYTHE ASOS, CA US",
            "datacoverage": 0.989,
            "id": "COOP:040927",
            "elevationUnit": "METERS",
            "longitude": -114.7142
        },
        {
            "elevation": 1699.3,
            "mindate": "1936-12-01",
            "maxdate": "2015-11-01",
            "latitude": 39.3886,
            "name": "BOCA, CA US",
            "datacoverage": 0.9694,
            "id": "COOP:040931",
            "elevationUnit": "METERS",
            "longitude": -120.0936
        },
        {
            "elevation": 2551.2,
            "mindate": "1964-09-01",
            "maxdate": "2015-11-01",
            "latitude": 38.2119,
            "name": "BODIE CALIFORNIA STATE HISTORIC PARK, CA US",
            "datacoverage": 0.9838,
            "id": "COOP:040943",
            "elevationUnit": "METERS",
            "longitude": -119.0142
        },
        {
            "elevation": 34.1,
            "mindate": "1931-01-01",
            "maxdate": "1970-12-01",
            "latitude": 32.66667,
            "name": "BONITA, CA US",
            "datacoverage": 0.9771,
            "id": "COOP:040968",
            "elevationUnit": "METERS",
            "longitude": -117.03333
        },
        {
            "elevation": 103.9,
            "mindate": "1959-05-01",
            "maxdate": "1977-06-01",
            "latitude": 39.01667,
            "name": "BOONVILLE HMS, CA US",
            "datacoverage": 0.9999,
            "id": "COOP:040973",
            "elevationUnit": "METERS",
            "longitude": -123.36667
        },
        {
            "elevation": 746.8,
            "mindate": "1959-12-01",
            "maxdate": "2010-09-01",
            "latitude": 35.0042,
            "name": "BORON, CA US",
            "datacoverage": 0.0101,
            "id": "COOP:040979",
            "elevationUnit": "METERS",
            "longitude": -117.6503
        },
        {
            "elevation": 246.9,
            "mindate": "1948-01-01",
            "maxdate": "2015-11-01",
            "latitude": 33.2559,
            "name": "BORREGO DESERT PARK, CA US",
            "datacoverage": 0.9828,
            "id": "COOP:040983",
            "elevationUnit": "METERS",
            "longitude": -116.4036
        },
        {
            "elevation": 662.9,
            "mindate": "1948-07-01",
            "maxdate": "2014-01-01",
            "latitude": 37.1422,
            "name": "BOULDER CR LOCAT RANCH, CA US",
            "datacoverage": 0.0485,
            "id": "COOP:041005",
            "elevationUnit": "METERS",
            "longitude": -122.1963
        },
        {
            "elevation": 1097.3,
            "mindate": "1969-10-01",
            "maxdate": "1994-12-01",
            "latitude": 32.66667,
            "name": "BOULEVARD 2, CA US",
            "datacoverage": 1,
            "id": "COOP:041010",
            "elevationUnit": "METERS",
            "longitude": -116.3
        },
        {
            "elevation": 933,
            "mindate": "1940-07-01",
            "maxdate": "1978-06-01",
            "latitude": 34.58333,
            "name": "BOUQUET CANYON, CA US",
            "datacoverage": 0.9913,
            "id": "COOP:041013",
            "elevationUnit": "METERS",
            "longitude": -118.36667
        },
        {
            "elevation": 1641.3,
            "mindate": "1931-01-01",
            "maxdate": "2015-11-01",
            "latitude": 39.4539,
            "name": "BOWMAN DAM, CA US",
            "datacoverage": 0.9627,
            "id": "COOP:041018",
            "elevationUnit": "METERS",
            "longitude": -120.6556
        },
        {
            "elevation": 164.9,
            "mindate": "1946-11-01",
            "maxdate": "1971-11-01",
            "latitude": 35.86667,
            "name": "BRADLEY, CA US",
            "datacoverage": 0.9137,
            "id": "COOP:041034",
            "elevationUnit": "METERS",
            "longitude": -120.8
        },
        {
            "elevation": 374.9,
            "mindate": "1972-07-01",
            "maxdate": "1982-01-01",
            "latitude": 40.61667,
            "name": "BRANDY CREEL, CA US",
            "datacoverage": 0.0415,
            "id": "COOP:041041",
            "elevationUnit": "METERS",
            "longitude": -122.56667
        },
        {
            "elevation": 9.1,
            "mindate": "1968-01-01",
            "maxdate": "1977-06-01",
            "latitude": 38.11667,
            "name": "BRANNAN ISLAND, CA ",
            "datacoverage": 1,
            "id": "COOP:041043",
            "elevationUnit": "METERS",
            "longitude": -121.7
        },
        {
            "elevation": 445,
            "mindate": "1960-09-01",
            "maxdate": "1977-06-01",
            "latitude": 39.7,
            "name": "BRANSCOMB 3 NNW, CA US",
            "datacoverage": 1,
            "id": "COOP:041046",
            "elevationUnit": "METERS",
            "longitude": -123.65
        },
        {
            "elevation": -30.5,
            "mindate": "1931-01-01",
            "maxdate": "2007-09-01",
            "latitude": 32.9544,
            "name": "BRAWLEY, CA US",
            "datacoverage": 0.9935,
            "id": "COOP:041048",
            "elevationUnit": "METERS",
            "longitude": -115.5581
        },
        {
            "elevation": 116.1,
            "mindate": "1957-06-01",
            "maxdate": "1970-03-01",
            "latitude": 33.93333,
            "name": "BREA CITY SHAFFER TO, CA US",
            "datacoverage": 1,
            "id": "COOP:041056",
            "elevationUnit": "METERS",
            "longitude": -117.9
        },
        {
            "elevation": 83.8,
            "mindate": "1948-07-01",
            "maxdate": "2013-12-19",
            "latitude": 33.8905,
            "name": "BREA DAM, CA US",
            "datacoverage": 0.02,
            "id": "COOP:041057",
            "elevationUnit": "METERS",
            "longitude": -117.9263
        },
        {
            "elevation": 99.1,
            "mindate": "1950-08-01",
            "maxdate": "1986-09-01",
            "latitude": 37.88333,
            "name": "BRENTWOOD 6 SW, CA US",
            "datacoverage": 0.0316,
            "id": "COOP:041060",
            "elevationUnit": "METERS",
            "longitude": -121.76667
        },
        {
            "elevation": 1972.1,
            "mindate": "1948-01-01",
            "maxdate": "2015-11-01",
            "latitude": 38.2575,
            "name": "BRIDGEPORT, CA US",
            "datacoverage": 0.8565,
            "id": "COOP:041072",
            "elevationUnit": "METERS",
            "longitude": -119.2286
        },
        {
            "elevation": 1963.2,
            "mindate": "1950-06-01",
            "maxdate": "2014-01-01",
            "latitude": 38.2505,
            "name": "BRIDGEPORT RANGER STATION, CA US",
            "datacoverage": 0.0139,
            "id": "COOP:041076",
            "elevationUnit": "METERS",
            "longitude": -119.2161
        },
        {
            "elevation": 640.1,
            "mindate": "1954-06-01",
            "maxdate": "2001-01-01",
            "latitude": 40.51944,
            "name": "BRIDGEVILLE 4 NNW, CA US",
            "datacoverage": 0.9856,
            "id": "COOP:041080",
            "elevationUnit": "METERS",
            "longitude": -123.82167
        },
        {
            "elevation": 118,
            "mindate": "1971-01-01",
            "maxdate": "1995-05-01",
            "latitude": 40.48333,
            "name": "BRIDGEVILLE 5 W, CA US",
            "datacoverage": 0.0388,
            "id": "COOP:041084",
            "elevationUnit": "METERS",
            "longitude": -123.88333
        },
        {
            "elevation": 89.6,
            "mindate": "1921-07-01",
            "maxdate": "1985-11-01",
            "latitude": 38.76667,
            "name": "BROOKS FARNHAM RANCH, CA US",
            "datacoverage": 0.9922,
            "id": "COOP:041112",
            "elevationUnit": "METERS",
            "longitude": -122.15
        },
        {
            "elevation": 1085.1,
            "mindate": "1937-12-01",
            "maxdate": "2014-01-01",
            "latitude": 39.6949,
            "name": "BRUSH CREEK RANGER STATION, CA US",
            "datacoverage": 0.9909,
            "id": "COOP:041130",
            "elevationUnit": "METERS",
            "longitude": -121.3452
        },
        {
            "elevation": 281.9,
            "mindate": "1948-07-01",
            "maxdate": "2014-01-01",
            "latitude": 35.7989,
            "name": "BRYSON, CA US",
            "datacoverage": 0.0256,
            "id": "COOP:041142",
            "elevationUnit": "METERS",
            "longitude": -121.0939
        },
        {
            "elevation": 1158.2,
            "mindate": "1948-06-01",
            "maxdate": "2015-11-01",
            "latitude": 40.8669,
            "name": "BUCKHORN, CA US",
            "datacoverage": 0.8963,
            "id": "COOP:041149",
            "elevationUnit": "METERS",
            "longitude": -121.8463
        },
        {
            "elevation": 576.4,
            "mindate": "1959-07-01",
            "maxdate": "2015-11-01",
            "latitude": 39.9372,
            "name": "BUCKS CREEK, CA US",
            "datacoverage": 0.9438,
            "id": "COOP:041159",
            "elevationUnit": "METERS",
            "longitude": -121.3147
        },
        {
            "elevation": 1585.9,
            "mindate": "1948-01-01",
            "maxdate": "1970-12-01",
            "latitude": 39.9,
            "name": "BUCKS LAKE, CA US",
            "datacoverage": 0.192,
            "id": "COOP:041161",
            "elevationUnit": "METERS",
            "longitude": -121.2
        },
        {
            "elevation": 499.9,
            "mindate": "1948-07-01",
            "maxdate": "1973-02-01",
            "latitude": 36.76667,
            "name": "BUENA VISTA, CA US",
            "datacoverage": 0.0293,
            "id": "COOP:041170",
            "elevationUnit": "METERS",
            "longitude": -121.18333
        },
        {
            "elevation": 440.7,
            "mindate": "2009-02-01",
            "maxdate": "2009-03-01",
            "latitude": 34.20056,
            "name": "BULLION MOUNTAIN FTHLLS, CA US",
            "datacoverage": 1,
            "id": "COOP:041185",
            "elevationUnit": "METERS",
            "longitude": -115.87944
        },
        {
            "elevation": 207,
            "mindate": "1931-01-01",
            "maxdate": "1972-10-01",
            "latitude": 34.18333,
            "name": "BURBANK FIRE DEPARTMENT FC226, CA US",
            "datacoverage": 0.992,
            "id": "COOP:041192",
            "elevationUnit": "METERS",
            "longitude": -118.3
        },
        {
            "elevation": 199.6,
            "mindate": "1940-01-01",
            "maxdate": "2015-11-01",
            "latitude": 34.1866,
            "name": "BURBANK VALLEY PUMP PLANT, CA US",
            "datacoverage": 0.9934,
            "id": "COOP:041194",
            "elevationUnit": "METERS",
            "longitude": -118.348
        },
        {
            "elevation": 3,
            "mindate": "1946-03-01",
            "maxdate": "1978-06-01",
            "latitude": 37.58333,
            "name": "BURLINGAME, CA US",
            "datacoverage": 0.9897,
            "id": "COOP:041206",
            "elevationUnit": "METERS",
            "longitude": -122.35
        },
        {
            "elevation": 974.8,
            "mindate": "1943-09-01",
            "maxdate": "2014-12-01",
            "latitude": 40.8802,
            "name": "BURNEY, CA US",
            "datacoverage": 0.9124,
            "id": "COOP:041214",
            "elevationUnit": "METERS",
            "longitude": -121.6547
        },
        {
            "elevation": 655.3,
            "mindate": "1959-11-01",
            "maxdate": "1989-06-01",
            "latitude": 40.8,
            "name": "BURNT RANCH 1 S, CA US",
            "datacoverage": 0.9495,
            "id": "COOP:041215",
            "elevationUnit": "METERS",
            "longitude": -123.46667
        },
        {
            "elevation": 161.8,
            "mindate": "1956-09-01",
            "maxdate": "1974-12-01",
            "latitude": 37.86667,
            "name": "BURTON RANCH, CA US",
            "datacoverage": 0.9955,
            "id": "COOP:041216",
            "elevationUnit": "METERS",
            "longitude": -122.08333
        },
        {
            "elevation": 128,
            "mindate": "1970-01-01",
            "maxdate": "1975-04-01",
            "latitude": 40.76667,
            "name": "BUTLER VALLEY RANCH, CA US",
            "datacoverage": 1,
            "id": "COOP:041233",
            "elevationUnit": "METERS",
            "longitude": -123.9
        },
        {
            "elevation": 68.6,
            "mindate": "1940-01-01",
            "maxdate": "2015-11-01",
            "latitude": 35.4028,
            "name": "BUTTONWILLOW, CA US",
            "datacoverage": 0.9934,
            "id": "COOP:041244",
            "elevationUnit": "METERS",
            "longitude": -119.47
        },
        {
            "elevation": 548.9,
            "mindate": "1939-12-01",
            "maxdate": "1974-03-01",
            "latitude": 33.91667,
            "name": "CABAZON, CA US",
            "datacoverage": 0.9733,
            "id": "COOP:041250",
            "elevationUnit": "METERS",
            "longitude": -116.78333
        },
        {
            "elevation": 242.3,
            "mindate": "1951-10-01",
            "maxdate": "2015-11-01",
            "latitude": 34.5822,
            "name": "CACHUMA LAKE, CA US",
            "datacoverage": 0.9869,
            "id": "COOP:041253",
            "elevationUnit": "METERS",
            "longitude": -119.9817
        },
        {
            "elevation": 1463,
            "mindate": "1948-07-01",
            "maxdate": "2014-01-01",
            "latitude": 34.3899,
            "name": "CAJON WEST SUMMIT, CA US",
            "datacoverage": 0.0111,
            "id": "COOP:041272",
            "elevationUnit": "METERS",
            "longitude": -117.5758
        },
        {
            "elevation": 1431,
            "mindate": "1931-01-01",
            "maxdate": "2015-11-01",
            "latitude": 38.2769,
            "name": "CALAVERAS BIG TREES, CA US",
            "datacoverage": 0.9696,
            "id": "COOP:041277",
            "elevationUnit": "METERS",
            "longitude": -120.3113
        },
        {
            "elevation": 1024.1,
            "mindate": "1948-01-01",
            "maxdate": "1986-06-01",
            "latitude": 38.2,
            "name": "CALAVERAS RANGER STATION, CA US",
            "datacoverage": 0.3079,
            "id": "COOP:041280",
            "elevationUnit": "METERS",
            "longitude": -120.36667
        },
        {
            "elevation": 246.9,
            "mindate": "1959-08-01",
            "maxdate": "1977-06-01",
            "latitude": 37.48333,
            "name": "CALAVERAS RESERVOIR, CA US",
            "datacoverage": 1,
            "id": "COOP:041281",
            "elevationUnit": "METERS",
            "longitude": -121.81667
        },
        {
            "elevation": 3.7,
            "mindate": "1942-02-01",
            "maxdate": "2010-06-01",
            "latitude": 32.6881,
            "name": "CALEXICO, CA US",
            "datacoverage": 0.9989,
            "id": "COOP:041288",
            "elevationUnit": "METERS",
            "longitude": -115.4644
        },
        {
            "elevation": 121.9,
            "mindate": "1873-01-01",
            "maxdate": "2015-11-01",
            "latitude": 38.5961,
            "name": "CALISTOGA, CA US",
            "datacoverage": 0.8479,
            "id": "COOP:041312",
            "elevationUnit": "METERS",
            "longitude": -122.6013
        },
        {
            "elevation": 940.3,
            "mindate": "1943-10-01",
            "maxdate": "2015-11-01",
            "latitude": 41.3378,
            "name": "CALLAHAN, CA US",
            "datacoverage": 0.9942,
            "id": "COOP:041316",
            "elevationUnit": "METERS",
            "longitude": -122.82484
        },
        {
            "elevation": 1758.7,
            "mindate": "1948-07-01",
            "maxdate": "2014-01-01",
            "latitude": 34.1491,
            "name": "CAMP ANGELUS, CA US",
            "datacoverage": 0.0224,
            "id": "COOP:041369",
            "elevationUnit": "METERS",
            "longitude": -116.9802
        },
        {
            "elevation": 1296,
            "mindate": "1969-02-01",
            "maxdate": "1978-12-19",
            "latitude": 34.25,
            "name": "OPIDS CAMP FC 57 B E, CA US",
            "datacoverage": 0.9998,
            "id": "COOP:041404",
            "elevationUnit": "METERS",
            "longitude": -118.1
        },
        {
            "elevation": 801.6,
            "mindate": "1935-01-01",
            "maxdate": "2015-11-01",
            "latitude": 32.6263,
            "name": "CAMPO, CA US",
            "datacoverage": 0.9918,
            "id": "COOP:041424",
            "elevationUnit": "METERS",
            "longitude": -116.4699
        },
        {
            "elevation": 805,
            "mindate": "2015-01-01",
            "maxdate": "2015-11-01",
            "latitude": 32.6261,
            "name": "CAMPO ASOS, CA US",
            "datacoverage": 1,
            "id": "COOP:041426",
            "elevationUnit": "METERS",
            "longitude": -116.4681
        },
        {
            "elevation": 200.6,
            "mindate": "1931-01-01",
            "maxdate": "2015-11-01",
            "latitude": 38.2486,
            "name": "CAMP PARDEE, CA US",
            "datacoverage": 0.9863,
            "id": "COOP:041428",
            "elevationUnit": "METERS",
            "longitude": -120.8433
        },
        {
            "elevation": 762,
            "mindate": "1994-11-01",
            "maxdate": "2014-01-01",
            "latitude": 39.4397,
            "name": "CAMPTONVILLE 1 SW, CA US",
            "datacoverage": 0.0404,
            "id": "COOP:041460",
            "elevationUnit": "METERS",
            "longitude": -121.07115
        },
        {
            "elevation": 839.7,
            "mindate": "1931-01-01",
            "maxdate": "1994-07-01",
            "latitude": 39.45,
            "name": "CAMPTONVILLE R S, CA US",
            "datacoverage": 0.9623,
            "id": "COOP:041462",
            "elevationUnit": "METERS",
            "longitude": -121.05
        },
        {
            "elevation": 1373.1,
            "mindate": "1959-05-01",
            "maxdate": "1971-02-01",
            "latitude": 41.36667,
            "name": "CANBY 11 SW, CA US",
            "datacoverage": 0.9226,
            "id": "COOP:041475",
            "elevationUnit": "METERS",
            "longitude": -121.05
        },
        {
            "elevation": 1313.7,
            "mindate": "1943-09-01",
            "maxdate": "2009-02-01",
            "latitude": 41.4219,
            "name": "CANBY, CA US",
            "datacoverage": 0.9288,
            "id": "COOP:041476",
            "elevationUnit": "METERS",
            "longitude": -120.9016
        },
        {
            "elevation": 240.8,
            "mindate": "1949-07-01",
            "maxdate": "2006-06-01",
            "latitude": 34.1819,
            "name": "WOODLAND HILLS PIERCE COLLEGE, CA US",
            "datacoverage": 0.9986,
            "id": "COOP:041484",
            "elevationUnit": "METERS",
            "longitude": -118.5744
        },
        {
            "elevation": 613,
            "mindate": "1955-03-01",
            "maxdate": "1974-08-01",
            "latitude": 35.3,
            "name": "CANTIL, CA US",
            "datacoverage": 0.9998,
            "id": "COOP:041488",
            "elevationUnit": "METERS",
            "longitude": -117.96667
        },
        {
            "elevation": 1389.9,
            "mindate": "1931-01-01",
            "maxdate": "2015-11-01",
            "latitude": 40.1705,
            "name": "CANYON DAM, CA US",
            "datacoverage": 0.9745,
            "id": "COOP:041497",
            "elevationUnit": "METERS",
            "longitude": -121.0886
        },
        {
            "elevation": 109.7,
            "mindate": "1976-04-01",
            "maxdate": "1994-05-01",
            "latitude": 38.73333,
            "name": "CAPAY 5 WNW, CA US",
            "datacoverage": 0.0116,
            "id": "COOP:041507",
            "elevationUnit": "METERS",
            "longitude": -122.13333
        },
        {
            "elevation": 121.9,
            "mindate": "1972-09-01",
            "maxdate": "1977-07-01",
            "latitude": 33.91667,
            "name": "CARBON CANYON DAM, CA US",
            "datacoverage": 0.0221,
            "id": "COOP:041517",
            "elevationUnit": "METERS",
            "longitude": -117.83333
        },
        {
            "elevation": 492.6,
            "mindate": "1955-06-01",
            "maxdate": "2013-12-22",
            "latitude": 33.923,
            "name": "CARBON CANYON GILMAN, CA US",
            "datacoverage": 0.0171,
            "id": "COOP:041518",
            "elevationUnit": "METERS",
            "longitude": -117.7777
        },
        {
            "elevation": 359.7,
            "mindate": "1949-09-01",
            "maxdate": "2001-07-01",
            "latitude": 33.95806,
            "name": "CARBON CANYON WORKMA, CA US",
            "datacoverage": 0.0204,
            "id": "COOP:041520",
            "elevationUnit": "METERS",
            "longitude": -117.77917
        },
        {
            "elevation": 912,
            "mindate": "1959-06-01",
            "maxdate": "1977-06-01",
            "latitude": 40.08333,
            "name": "CARIBOU PH, CA US",
            "datacoverage": 1,
            "id": "COOP:041522",
            "elevationUnit": "METERS",
            "longitude": -121.15
        },
        {
            "elevation": 146.3,
            "mindate": "1959-01-01",
            "maxdate": "2015-11-01",
            "latitude": 36.4805,
            "name": "CARMEL VALLEY, CA US",
            "datacoverage": 0.5857,
            "id": "COOP:041534",
            "elevationUnit": "METERS",
            "longitude": -121.7244
        },
        {
            "elevation": 117.3,
            "mindate": "1968-11-01",
            "maxdate": "2013-01-01",
            "latitude": 34.4063,
            "name": "CARPINTERIA RESERVOI, CA US",
            "datacoverage": 0.0133,
            "id": "COOP:041540",
            "elevationUnit": "METERS",
            "longitude": -119.485
        },
        {
            "elevation": 171,
            "mindate": "1970-01-01",
            "maxdate": "1977-06-01",
            "latitude": 37.63333,
            "name": "CASTLE ROCK RAD LAB, CA US",
            "datacoverage": 1,
            "id": "COOP:041583",
            "elevationUnit": "METERS",
            "longitude": -121.5
        },
        {
            "elevation": 435.9,
            "mindate": "1948-01-01",
            "maxdate": "1977-09-01",
            "latitude": 37.4,
            "name": "CATHEYS VALLEY BULL RUN RANCH, CA US",
            "datacoverage": 0.8824,
            "id": "COOP:041588",
            "elevationUnit": "METERS",
            "longitude": -120.05
        },
        {
            "elevation": 305.1,
            "mindate": "1978-09-01",
            "maxdate": "1980-12-01",
            "latitude": 37.4,
            "name": "CATHEYS VALLEY WYRE, CA US",
            "datacoverage": 0.9991,
            "id": "COOP:041590",
            "elevationUnit": "METERS",
            "longitude": -120.11667
        },
        {
            "elevation": 323.1,
            "mindate": "1939-12-01",
            "maxdate": "1971-08-01",
            "latitude": 38.53333,
            "name": "CAZADERO, CA US",
            "datacoverage": 0.9895,
            "id": "COOP:041602",
            "elevationUnit": "METERS",
            "longitude": -123.13333
        },
        {
            "elevation": 432.8,
            "mindate": "1971-09-01",
            "maxdate": "2008-08-01",
            "latitude": 38.5641,
            "name": "CAZADERO 5 NW, CA US",
            "datacoverage": 0.4797,
            "id": "COOP:041603",
            "elevationUnit": "METERS",
            "longitude": -123.1616
        },
        {
            "elevation": 704.1,
            "mindate": "1954-10-01",
            "maxdate": "2003-03-01",
            "latitude": 41.14167,
            "name": "CECILVILLE, CA US",
            "datacoverage": 0.9365,
            "id": "COOP:041606",
            "elevationUnit": "METERS",
            "longitude": -123.13917
        },
        {
            "elevation": 1428.9,
            "mindate": "1931-01-01",
            "maxdate": "2015-11-01",
            "latitude": 41.5301,
            "name": "CEDARVILLE, CA US",
            "datacoverage": 0.9863,
            "id": "COOP:041614",
            "elevationUnit": "METERS",
            "longitude": -120.1791
        },
        {
            "elevation": 159.1,
            "mindate": "1931-01-01",
            "maxdate": "1971-06-01",
            "latitude": 39.78333,
            "name": "CENTERVILLE PH, CA US",
            "datacoverage": 1,
            "id": "COOP:041624",
            "elevationUnit": "METERS",
            "longitude": -121.66667
        },
        {
            "elevation": 783.3,
            "mindate": "1937-12-01",
            "maxdate": "1994-04-01",
            "latitude": 39.48333,
            "name": "CHALLENGE R S, CA US",
            "datacoverage": 0.9941,
            "id": "COOP:041653",
            "elevationUnit": "METERS",
            "longitude": -121.21667
        },
        {
            "elevation": 289.6,
            "mindate": "1931-01-01",
            "maxdate": "1988-11-01",
            "latitude": 34.25,
            "name": "CHATSWORTH FC 24 F, CA US",
            "datacoverage": 0.9755,
            "id": "COOP:041680",
            "elevationUnit": "METERS",
            "longitude": -118.6
        },
        {
            "elevation": 277.4,
            "mindate": "1948-07-01",
            "maxdate": "2012-12-01",
            "latitude": 34.2263,
            "name": "CHATSWORTH RESERVOIR, CA US",
            "datacoverage": 0.0233,
            "id": "COOP:041682",
            "elevationUnit": "METERS",
            "longitude": -118.6169
        },
        {
            "elevation": 1452.4,
            "mindate": "1955-10-01",
            "maxdate": "2015-11-01",
            "latitude": 37.9747,
            "name": "CHERRY VALLEY DAM, CA US",
            "datacoverage": 0.9667,
            "id": "COOP:041697",
            "elevationUnit": "METERS",
            "longitude": -119.9161
        },
        {
            "elevation": 1380.7,
            "mindate": "1931-01-01",
            "maxdate": "2015-11-01",
            "latitude": 40.3033,
            "name": "CHESTER, CA US",
            "datacoverage": 0.9912,
            "id": "COOP:041700",
            "elevationUnit": "METERS",
            "longitude": -121.2422
        },
        {
            "elevation": 56.4,
            "mindate": "1931-01-01",
            "maxdate": "2015-11-01",
            "latitude": 39.6911,
            "name": "CHICO UNIVERSITY FARM, CA US",
            "datacoverage": 0.9843,
            "id": "COOP:041715",
            "elevationUnit": "METERS",
            "longitude": -121.8211
        },
        {
            "elevation": 679.7,
            "mindate": "1978-07-01",
            "maxdate": "2011-08-01",
            "latitude": 35.6875,
            "name": "CHINA LAKE NAF, CA US",
            "datacoverage": 0.9541,
            "id": "COOP:041733",
            "elevationUnit": "METERS",
            "longitude": -117.6931
        },
        {
            "elevation": 520,
            "mindate": "2008-03-01",
            "maxdate": "2015-11-01",
            "latitude": 33.6617,
            "name": "CHIRIACO SUMMIT, CA US",
            "datacoverage": 0.9999,
            "id": "COOP:041738",
            "elevationUnit": "METERS",
            "longitude": -115.7206
        },
        {
            "elevation": 25,
            "mindate": "1945-12-01",
            "maxdate": "1982-03-01",
            "latitude": 36.90028,
            "name": "CHITTENDEN PASS, CA US",
            "datacoverage": 0.8785,
            "id": "COOP:041739",
            "elevationUnit": "METERS",
            "longitude": -121.59667
        },
        {
            "elevation": 534,
            "mindate": "1948-07-01",
            "maxdate": "1985-07-01",
            "latitude": 35.71667,
            "name": "CHOLAME ALLEY RANCH, CA US",
            "datacoverage": 0.0196,
            "id": "COOP:041743",
            "elevationUnit": "METERS",
            "longitude": -120.25
        },
        {
            "elevation": 1603.2,
            "mindate": "1948-07-01",
            "maxdate": "2010-02-01",
            "latitude": 34.80778,
            "name": "CHUCHUPATE RANGER STATION, CA US",
            "datacoverage": 0.0159,
            "id": "COOP:041754",
            "elevationUnit": "METERS",
            "longitude": -119.01139
        },
        {
            "elevation": 17.1,
            "mindate": "1931-01-01",
            "maxdate": "2015-11-01",
            "latitude": 32.64,
            "name": "CHULA VISTA, CA US",
            "datacoverage": 0.9902,
            "id": "COOP:041758",
            "elevationUnit": "METERS",
            "longitude": -117.0858
        },
        {
            "elevation": 43,
            "mindate": "1960-06-01",
            "maxdate": "1975-12-01",
            "latitude": 38.7,
            "name": "CITRUS HEIGHTS, CA US",
            "datacoverage": 1,
            "id": "COOP:041773",
            "elevationUnit": "METERS",
            "longitude": -121.3
        },
        {
            "elevation": 366.1,
            "mindate": "1931-01-01",
            "maxdate": "1980-12-01",
            "latitude": 34.1,
            "name": "CLAREMONT POMONA COL, CA US",
            "datacoverage": 1,
            "id": "COOP:041779",
            "elevationUnit": "METERS",
            "longitude": -117.71667
        },
        {
            "elevation": 3,
            "mindate": "1935-01-01",
            "maxdate": "1974-12-01",
            "latitude": 38.41667,
            "name": "CLARKSBURG, CA US",
            "datacoverage": 1,
            "id": "COOP:041784",
            "elevationUnit": "METERS",
            "longitude": -121.53333
        },
        {
            "elevation": 125,
            "mindate": "1962-05-01",
            "maxdate": "1977-06-01",
            "latitude": 39.55,
            "name": "CLARKS VALLEY MUDD R, CA US",
            "datacoverage": 0.9999,
            "id": "COOP:041785",
            "elevationUnit": "METERS",
            "longitude": -122.4
        },
        {
            "elevation": 299,
            "mindate": "1960-09-01",
            "maxdate": "1977-10-01",
            "latitude": 41.71667,
            "name": "CLEAR CREEK, CA US",
            "datacoverage": 0.9804,
            "id": "COOP:041799",
            "elevationUnit": "METERS",
            "longitude": -123.45
        },
        {
            "elevation": 411.2,
            "mindate": "1954-10-01",
            "maxdate": "2015-11-01",
            "latitude": 38.9238,
            "name": "CLEARLAKE 4 SE, CA US",
            "datacoverage": 0.9455,
            "id": "COOP:041806",
            "elevationUnit": "METERS",
            "longitude": -122.5672
        },
        {
            "elevation": 121.9,
            "mindate": "1955-11-01",
            "maxdate": "2015-11-01",
            "latitude": 38.79296,
            "name": "CLOVERDALE, CA US",
            "datacoverage": 0.957,
            "id": "COOP:041838",
            "elevationUnit": "METERS",
            "longitude": -123.0263
        },
        {
            "elevation": 97.5,
            "mindate": "1973-02-01",
            "maxdate": "2006-06-01",
            "latitude": 38.78833,
            "name": "CLOVERDALE 1 S, CA US",
            "datacoverage": 0.0284,
            "id": "COOP:041839",
            "elevationUnit": "METERS",
            "longitude": -123.01806
        },
        {
            "elevation": 555,
            "mindate": "1948-07-01",
            "maxdate": "1973-02-01",
            "latitude": 38.76667,
            "name": "CLOVERDALE 11 W, CA US",
            "datacoverage": 0.0752,
            "id": "COOP:041840",
            "elevationUnit": "METERS",
            "longitude": -123.21667
        },
        {
            "elevation": 204.2,
            "mindate": "1940-12-01",
            "maxdate": "2015-11-01",
            "latitude": 36.1356,
            "name": "COALINGA, CA US",
            "datacoverage": 0.9834,
            "id": "COOP:041864",
            "elevationUnit": "METERS",
            "longitude": -120.3606
        },
        {
            "elevation": 200.9,
            "mindate": "1948-07-01",
            "maxdate": "1979-05-01",
            "latitude": 36.13333,
            "name": "COALINGA 1 SE, CA US",
            "datacoverage": 0.0176,
            "id": "COOP:041867",
            "elevationUnit": "METERS",
            "longitude": -120.35
        },
        {
            "elevation": 499.9,
            "mindate": "1950-01-01",
            "maxdate": "1973-06-01",
            "latitude": 36.23333,
            "name": "COALINGA 14 WNW, CA US",
            "datacoverage": 0.9929,
            "id": "COOP:041869",
            "elevationUnit": "METERS",
            "longitude": -120.56667
        },
        {
            "elevation": 679.7,
            "mindate": "1977-08-01",
            "maxdate": "2007-12-01",
            "latitude": 37.25028,
            "name": "COARSEGOLD 1 SW, CA US",
            "datacoverage": 0.9589,
            "id": "COOP:041878",
            "elevationUnit": "METERS",
            "longitude": -119.70528
        },
        {
            "elevation": 762.9,
            "mindate": "1960-11-01",
            "maxdate": "2014-01-01",
            "latitude": 41.0894,
            "name": "COFFEE CREEK RANGER STATION, CA US",
            "datacoverage": 0.985,
            "id": "COOP:041886",
            "elevationUnit": "METERS",
            "longitude": -122.7086
        },
        {
            "elevation": 972.9,
            "mindate": "1962-01-01",
            "maxdate": "1977-06-01",
            "latitude": 39.93333,
            "name": "COHASSET 1 NNE, CA US",
            "datacoverage": 1,
            "id": "COOP:041891",
            "elevationUnit": "METERS",
            "longitude": -121.71667
        },
        {
            "elevation": 1122,
            "mindate": "1955-01-01",
            "maxdate": "1978-12-01",
            "latitude": 34.3,
            "name": "COLBYS FC 53D, CA US",
            "datacoverage": 1,
            "id": "COOP:041896",
            "elevationUnit": "METERS",
            "longitude": -118.11667
        },
        {
            "elevation": 128,
            "mindate": "1943-11-01",
            "maxdate": "2015-11-01",
            "latitude": 40.4,
            "name": "COLEMAN FISHERIES STATION, CA US",
            "datacoverage": 0.9873,
            "id": "COOP:041907",
            "elevationUnit": "METERS",
            "longitude": -122.1433
        },
        {
            "elevation": 725.4,
            "mindate": "1931-01-01",
            "maxdate": "2015-11-01",
            "latitude": 39.0911,
            "name": "COLFAX, CA US",
            "datacoverage": 0.9843,
            "id": "COOP:041912",
            "elevationUnit": "METERS",
            "longitude": -120.948
        },
        {
            "elevation": 181.4,
            "mindate": "1931-01-01",
            "maxdate": "2015-11-01",
            "latitude": 39.3308,
            "name": "COLGATE POWERHOUSE, CA US",
            "datacoverage": 0.9892,
            "id": "COOP:041916",
            "elevationUnit": "METERS",
            "longitude": -121.1922
        },
        {
            "elevation": 15.2,
            "mindate": "1948-10-01",
            "maxdate": "2015-11-01",
            "latitude": 39.1875,
            "name": "COLUSA 2 SSW, CA US",
            "datacoverage": 0.9628,
            "id": "COOP:041948",
            "elevationUnit": "METERS",
            "longitude": -122.0269
        },
        {
            "elevation": 59.4,
            "mindate": "1956-04-01",
            "maxdate": "1974-12-01",
            "latitude": 37.96667,
            "name": "CONCORD 3 E, CA US",
            "datacoverage": 0.9999,
            "id": "COOP:041962",
            "elevationUnit": "METERS",
            "longitude": -121.98333
        },
        {
            "elevation": 5.5,
            "mindate": "2000-09-01",
            "maxdate": "2015-11-01",
            "latitude": 37.9917,
            "name": "CONCORD BUCHANAN FIELD, CA US",
            "datacoverage": 1,
            "id": "COOP:041964",
            "elevationUnit": "METERS",
            "longitude": -122.055
        },
        {
            "elevation": 12.2,
            "mindate": "1991-09-01",
            "maxdate": "2015-11-01",
            "latitude": 37.9833,
            "name": "CONCORD WASTEWATER PLANT, CA US",
            "datacoverage": 0.9932,
            "id": "COOP:041967",
            "elevationUnit": "METERS",
            "longitude": -122.0692
        },
        {
            "elevation": 467,
            "mindate": "1960-10-01",
            "maxdate": "1977-06-01",
            "latitude": 38.88333,
            "name": "COOL, CA US",
            "datacoverage": 1,
            "id": "COOP:041985",
            "elevationUnit": "METERS",
            "longitude": -121.01667
        },
        {
            "elevation": 823.9,
            "mindate": "1959-05-01",
            "maxdate": "2015-11-01",
            "latitude": 41.9797,
            "name": "COPCO NUMBER 1 DAM, CA US",
            "datacoverage": 1,
            "id": "COOP:041990",
            "elevationUnit": "METERS",
            "longitude": -122.3378
        },
        {
            "elevation": 61,
            "mindate": "1945-01-01",
            "maxdate": "2015-11-01",
            "latitude": 36.0975,
            "name": "CORCORAN IRRIGATION DIST., CA US",
            "datacoverage": 0.9942,
            "id": "COOP:042012",
            "elevationUnit": "METERS",
            "longitude": -119.5817
        },
        {
            "elevation": 148.4,
            "mindate": "1948-05-01",
            "maxdate": "1984-05-01",
            "latitude": 39.9,
            "name": "CORNING HOUGHTON RANCH, CA US",
            "datacoverage": 0.9699,
            "id": "COOP:042027",
            "elevationUnit": "METERS",
            "longitude": -122.35
        },
        {
            "elevation": 185.9,
            "mindate": "1931-01-01",
            "maxdate": "1988-07-01",
            "latitude": 33.88333,
            "name": "CORONA, CA US",
            "datacoverage": 1,
            "id": "COOP:042031",
            "elevationUnit": "METERS",
            "longitude": -117.55
        },
        {
            "elevation": 82.3,
            "mindate": "1958-04-01",
            "maxdate": "2014-01-01",
            "latitude": 36.9897,
            "name": "CORRALITOS, CA US",
            "datacoverage": 0.0198,
            "id": "COOP:042048",
            "elevationUnit": "METERS",
            "longitude": -121.805
        },
        {
            "elevation": 430.7,
            "mindate": "1935-09-01",
            "maxdate": "2014-12-01",
            "latitude": 39.8158,
            "name": "COVELO, CA US",
            "datacoverage": 0.9359,
            "id": "COOP:042081",
            "elevationUnit": "METERS",
            "longitude": -123.2444
        },
        {
            "elevation": 462.4,
            "mindate": "1948-07-01",
            "maxdate": "2014-01-01",
            "latitude": 39.8261,
            "name": "COVELO EEL RIVER RANGER STATION, CA US",
            "datacoverage": 0.0458,
            "id": "COOP:042084",
            "elevationUnit": "METERS",
            "longitude": -123.085
        },
        {
            "elevation": 185,
            "mindate": "1931-01-01",
            "maxdate": "2015-11-01",
            "latitude": 34.0918,
            "name": "COVINA CITY YARD FC387B, CA US",
            "datacoverage": 0.897,
            "id": "COOP:042090",
            "elevationUnit": "METERS",
            "longitude": -117.88012
        },
        {
            "elevation": 75.9,
            "mindate": "1947-01-01",
            "maxdate": "1970-02-01",
            "latitude": 32.73333,
            "name": "COYOTE WELLS, CA US",
            "datacoverage": 0.9426,
            "id": "COOP:042111",
            "elevationUnit": "METERS",
            "longitude": -115.96667
        },
        {
            "elevation": 458.1,
            "mindate": "1948-07-01",
            "maxdate": "1985-08-01",
            "latitude": 32.88333,
            "name": "CRAWFORD RANCH, CA US",
            "datacoverage": 0.01,
            "id": "COOP:042139",
            "elevationUnit": "METERS",
            "longitude": -116.28333
        },
        {
            "elevation": 13.1,
            "mindate": "1946-02-01",
            "maxdate": "2012-12-01",
            "latitude": 41.7958,
            "name": "CRESCENT CITY, CA US",
            "datacoverage": 1,
            "id": "COOP:042147",
            "elevationUnit": "METERS",
            "longitude": -124.2147
        },
        {
            "elevation": 36.6,
            "mindate": "1931-01-01",
            "maxdate": "2002-05-01",
            "latitude": 41.79417,
            "name": "CRESCENT CITY 7 ENE, CA US",
            "datacoverage": 0.8519,
            "id": "COOP:042148",
            "elevationUnit": "METERS",
            "longitude": -124.085
        },
        {
            "elevation": 14.9,
            "mindate": "1948-07-01",
            "maxdate": "1984-01-01",
            "latitude": 41.76667,
            "name": "CRESCENT CITY MNTC S, CA US",
            "datacoverage": 0.0885,
            "id": "COOP:042150",
            "elevationUnit": "METERS",
            "longitude": -124.2
        },
        {
            "elevation": 1484.4,
            "mindate": "1966-04-01",
            "maxdate": "2014-01-01",
            "latitude": 34.2393,
            "name": "CRESTLINE, CA US",
            "datacoverage": 0.0197,
            "id": "COOP:042164",
            "elevationUnit": "METERS",
            "longitude": -117.2988
        },
        {
            "elevation": 3,
            "mindate": "1918-01-01",
            "maxdate": "1977-02-01",
            "latitude": 38.03333,
            "name": "CROCKETT, CA US",
            "datacoverage": 1,
            "id": "COOP:042177",
            "elevationUnit": "METERS",
            "longitude": -122.21667
        },
        {
            "elevation": 1629.2,
            "mindate": "1959-11-01",
            "maxdate": "2013-12-01",
            "latitude": 34.3175,
            "name": "CRYSTAL LAKE FC238C, CA US",
            "datacoverage": 0.8584,
            "id": "COOP:042198",
            "elevationUnit": "METERS",
            "longitude": -117.8419
        },
        {
            "elevation": 28,
            "mindate": "1935-01-01",
            "maxdate": "2015-11-01",
            "latitude": 34.005,
            "name": "CULVER CITY, CA US",
            "datacoverage": 0.9702,
            "id": "COOP:042214",
            "elevationUnit": "METERS",
            "longitude": -118.4139
        },
        {
            "elevation": 392.9,
            "mindate": "1931-01-01",
            "maxdate": "1981-06-01",
            "latitude": 39.83333,
            "name": "CUMMINGS, CA US",
            "datacoverage": 0.9753,
            "id": "COOP:042218",
            "elevationUnit": "METERS",
            "longitude": -123.63333
        },
        {
            "elevation": 688.8,
            "mindate": "1944-11-01",
            "maxdate": "1973-12-01",
            "latitude": 34.93333,
            "name": "CUYAMA, CA US",
            "datacoverage": 0.9715,
            "id": "COOP:042236",
            "elevationUnit": "METERS",
            "longitude": -119.61667
        },
        {
            "elevation": 1414.3,
            "mindate": "1887-07-01",
            "maxdate": "2015-11-01",
            "latitude": 32.9897,
            "name": "CUYAMACA, CA US",
            "datacoverage": 0.9961,
            "id": "COOP:042239",
            "elevationUnit": "METERS",
            "longitude": -116.5872
        },
        {
            "elevation": 662,
            "mindate": "1948-07-01",
            "maxdate": "1970-06-01",
            "latitude": 34.98333,
            "name": "CUYAMA RANCH, CA US",
            "datacoverage": 0.0103,
            "id": "COOP:042248",
            "elevationUnit": "METERS",
            "longitude": -119.66667
        },
        {
            "elevation": 600.5,
            "mindate": "1953-03-01",
            "maxdate": "2010-02-01",
            "latitude": 34.86111,
            "name": "DAGGETT POWER PLANT, CA US",
            "datacoverage": 0.0059,
            "id": "COOP:042255",
            "elevationUnit": "METERS",
            "longitude": -116.85556
        },
        {
            "elevation": 584.3,
            "mindate": "1943-12-01",
            "maxdate": "2015-11-01",
            "latitude": 34.8536,
            "name": "BARSTOW DAGGETT AIRPORT, CA US",
            "datacoverage": 0.9907,
            "id": "COOP:042257",
            "elevationUnit": "METERS",
            "longitude": -116.7858
        },
        {
            "elevation": 1012.9,
            "mindate": "1959-05-01",
            "maxdate": "1976-09-01",
            "latitude": 41.1,
            "name": "DANA 2 SE, CA US",
            "datacoverage": 0.9806,
            "id": "COOP:042269",
            "elevationUnit": "METERS",
            "longitude": -121.51667
        },
        {
            "elevation": 85,
            "mindate": "1960-09-01",
            "maxdate": "1977-06-01",
            "latitude": 37.01667,
            "name": "DAVENPORT, CA US",
            "datacoverage": 1,
            "id": "COOP:042290",
            "elevationUnit": "METERS",
            "longitude": -122.2
        },
        {
            "elevation": 18.3,
            "mindate": "1908-06-01",
            "maxdate": "2015-11-01",
            "latitude": 38.5349,
            "name": "DAVIS 2 WSW EXPERIMENTAL FARM, CA US",
            "datacoverage": 0.9837,
            "id": "COOP:042294",
            "elevationUnit": "METERS",
            "longitude": -121.7761
        },
        {
            "elevation": 1112.5,
            "mindate": "1948-07-01",
            "maxdate": "2014-01-01",
            "latitude": 41.2122,
            "name": "DAY, CA US",
            "datacoverage": 0.0449,
            "id": "COOP:042306",
            "elevationUnit": "METERS",
            "longitude": -121.3741
        },
        {
            "elevation": -59.1,
            "mindate": "1961-04-01",
            "maxdate": "2015-11-01",
            "latitude": 36.4622,
            "name": "DEATH VALLEY NATIONAL PARK, CA US",
            "datacoverage": 0.9924,
            "id": "COOP:042319",
            "elevationUnit": "METERS",
            "longitude": -116.8669
        },
        {
            "elevation": 365.8,
            "mindate": "1963-01-01",
            "maxdate": "2015-11-01",
            "latitude": 33.6513,
            "name": "DEEP CANYON LAB, CA US",
            "datacoverage": 0.9717,
            "id": "COOP:042327",
            "elevationUnit": "METERS",
            "longitude": -116.3763
        },
        {
            "elevation": 1592.6,
            "mindate": "1948-05-01",
            "maxdate": "2007-05-01",
            "latitude": 37.3738,
            "name": "DEEP SPRINGS COLLEGE, CA US",
            "datacoverage": 0.8872,
            "id": "COOP:042331",
            "elevationUnit": "METERS",
            "longitude": -117.9802
        },
        {
            "elevation": 1357.9,
            "mindate": "1970-01-01",
            "maxdate": "1994-05-01",
            "latitude": 39.3,
            "name": "DEER CREEK FOREBAY, CA US",
            "datacoverage": 0.9762,
            "id": "COOP:042338",
            "elevationUnit": "METERS",
            "longitude": -120.83333
        },
        {
            "elevation": 92,
            "mindate": "1940-11-01",
            "maxdate": "2015-11-01",
            "latitude": 35.7683,
            "name": "DELANO, CA US",
            "datacoverage": 0.9767,
            "id": "COOP:042346",
            "elevationUnit": "METERS",
            "longitude": -119.26
        },
        {
            "elevation": 13.7,
            "mindate": "1948-07-01",
            "maxdate": "1995-07-01",
            "latitude": 36.6,
            "name": "DEL MONTE, CA US",
            "datacoverage": 0.0208,
            "id": "COOP:042362",
            "elevationUnit": "METERS",
            "longitude": -121.86667
        },
        {
            "elevation": 366.1,
            "mindate": "1959-11-01",
            "maxdate": "1977-06-01",
            "latitude": 37.41667,
            "name": "DEL PUERTO ROAD CAMP, CA US",
            "datacoverage": 0.9765,
            "id": "COOP:042369",
            "elevationUnit": "METERS",
            "longitude": -121.38333
        },
        {
            "elevation": 356.9,
            "mindate": "1975-11-01",
            "maxdate": "1978-04-01",
            "latitude": 40.95,
            "name": "DELTA, CA US",
            "datacoverage": 1,
            "id": "COOP:042379",
            "elevationUnit": "METERS",
            "longitude": -122.41667
        },
        {
            "elevation": 43,
            "mindate": "1931-01-01",
            "maxdate": "1984-06-01",
            "latitude": 37.56667,
            "name": "DENAIR 3 NNE, CA US",
            "datacoverage": 0.9938,
            "id": "COOP:042389",
            "elevationUnit": "METERS",
            "longitude": -120.78333
        },
        {
            "elevation": 826,
            "mindate": "1931-01-01",
            "maxdate": "2015-11-01",
            "latitude": 39.8716,
            "name": "DE SABLA, CA US",
            "datacoverage": 0.9824,
            "id": "COOP:042402",
            "elevationUnit": "METERS",
            "longitude": -121.6108
        },
        {
            "elevation": 1066.8,
            "mindate": "1932-07-01",
            "maxdate": "1998-03-01",
            "latitude": 32.85,
            "name": "DESCANSO RANGER STATION, CA US",
            "datacoverage": 0.9975,
            "id": "COOP:042406",
            "elevationUnit": "METERS",
            "longitude": -116.61667
        },
        {
            "elevation": 227.7,
            "mindate": "2004-02-01",
            "maxdate": "2015-11-01",
            "latitude": 33.7377,
            "name": "DESERT CENTER 2 NNE, CA US",
            "datacoverage": 0.9439,
            "id": "COOP:042410",
            "elevationUnit": "METERS",
            "longitude": -115.3925
        },
        {
            "elevation": 268.2,
            "mindate": "1948-07-01",
            "maxdate": "1985-12-01",
            "latitude": 34,
            "name": "DIAMOND BAR, CA US",
            "datacoverage": 0.0197,
            "id": "COOP:042432",
            "elevationUnit": "METERS",
            "longitude": -117.8
        },
        {
            "elevation": 499.9,
            "mindate": "1970-06-01",
            "maxdate": "2009-03-01",
            "latitude": 39.3575,
            "name": "DOBBINS 1 S, CA US",
            "datacoverage": 0.8777,
            "id": "COOP:042456",
            "elevationUnit": "METERS",
            "longitude": -121.2011
        },
        {
            "elevation": 473,
            "mindate": "1931-01-01",
            "maxdate": "1970-05-01",
            "latitude": 39.33333,
            "name": "DOBBINS COLGATE FORE, CA US",
            "datacoverage": 1,
            "id": "COOP:042458",
            "elevationUnit": "METERS",
            "longitude": -121.2
        },
        {
            "elevation": 1809.6,
            "mindate": "1953-10-01",
            "maxdate": "2015-11-01",
            "latitude": 39.3239,
            "name": "DONNER MEMORIAL ST PARK, CA US",
            "datacoverage": 0.9839,
            "id": "COOP:042467",
            "elevationUnit": "METERS",
            "longitude": -120.2331
        },
        {
            "elevation": 33.5,
            "mindate": "1931-01-01",
            "maxdate": "2012-12-01",
            "latitude": 33.9297,
            "name": "DOWNEY FIRE STATION FC107C, CA US",
            "datacoverage": 0.9096,
            "id": "COOP:042494",
            "elevationUnit": "METERS",
            "longitude": -118.1455
        },
        {
            "elevation": 888.5,
            "mindate": "1939-09-01",
            "maxdate": "2015-11-01",
            "latitude": 39.5633,
            "name": "DOWNIEVILLE, CA US",
            "datacoverage": 0.9377,
            "id": "COOP:042500",
            "elevationUnit": "METERS",
            "longitude": -120.8238
        },
        {
            "elevation": 1308.5,
            "mindate": "1931-01-01",
            "maxdate": "2015-11-01",
            "latitude": 40.0267,
            "name": "DOYLE, CA US",
            "datacoverage": 0.9402,
            "id": "COOP:042504",
            "elevationUnit": "METERS",
            "longitude": -120.1055
        },
        {
            "elevation": 1338.1,
            "mindate": "1956-07-01",
            "maxdate": "2015-11-01",
            "latitude": 39.9717,
            "name": "DOYLE 4 SSE, CA US",
            "datacoverage": 0.9972,
            "id": "COOP:042506",
            "elevationUnit": "METERS",
            "longitude": -120.0828
        },
        {
            "elevation": 443.5,
            "mindate": "1931-01-01",
            "maxdate": "1990-01-01",
            "latitude": 34.48333,
            "name": "DRY CANYON RESERVOIR, CA US",
            "datacoverage": 0.9887,
            "id": "COOP:042516",
            "elevationUnit": "METERS",
            "longitude": -118.53333
        },
        {
            "elevation": 915,
            "mindate": "1931-01-01",
            "maxdate": "1976-06-01",
            "latitude": 37.75,
            "name": "DUDLEYS, CA US",
            "datacoverage": 0.9506,
            "id": "COOP:042539",
            "elevationUnit": "METERS",
            "longitude": -120.1
        },
        {
            "elevation": 14.9,
            "mindate": "1939-01-01",
            "maxdate": "1978-12-01",
            "latitude": 38.88333,
            "name": "DUNNIGAN, CA US",
            "datacoverage": 0.9917,
            "id": "COOP:042568",
            "elevationUnit": "METERS",
            "longitude": -121.96667
        },
        {
            "elevation": 491,
            "mindate": "1959-08-01",
            "maxdate": "1971-08-01",
            "latitude": 35.05,
            "name": "DUNN SIDING, CA US",
            "datacoverage": 0.9999,
            "id": "COOP:042570",
            "elevationUnit": "METERS",
            "longitude": -116.43333
        },
        {
            "elevation": 737.9,
            "mindate": "1939-01-01",
            "maxdate": "1978-06-01",
            "latitude": 41.21667,
            "name": "DUNSMUIR RANGER STATION, CA US",
            "datacoverage": 1,
            "id": "COOP:042572",
            "elevationUnit": "METERS",
            "longitude": -122.26667
        },
        {
            "elevation": 661.1,
            "mindate": "1978-07-01",
            "maxdate": "2015-11-01",
            "latitude": 41.1831,
            "name": "DUNSMUIR TREATMENT PLANT, CA US",
            "datacoverage": 1,
            "id": "COOP:042574",
            "elevationUnit": "METERS",
            "longitude": -122.28167
        },
        {
            "elevation": 6.1,
            "mindate": "1955-11-01",
            "maxdate": "1977-06-01",
            "latitude": 38.2,
            "name": "DUTTONS LANDING, CA US",
            "datacoverage": 1,
            "id": "COOP:042580",
            "elevationUnit": "METERS",
            "longitude": -122.3
        },
        {
            "elevation": 296.6,
            "mindate": "1933-09-01",
            "maxdate": "2015-11-01",
            "latitude": 33.8089,
            "name": "EAGLE MOUNTAIN, CA US",
            "datacoverage": 0.997,
            "id": "COOP:042598",
            "elevationUnit": "METERS",
            "longitude": -115.4508
        },
        {
            "elevation": 367.3,
            "mindate": "1931-01-01",
            "maxdate": "2003-08-01",
            "latitude": 39.35917,
            "name": "EAST PARK RESERVOIR, CA US",
            "datacoverage": 0.9977,
            "id": "COOP:042640",
            "elevationUnit": "METERS",
            "longitude": -122.51778
        },
        {
            "elevation": 2240.3,
            "mindate": "1944-11-01",
            "maxdate": "1994-03-01",
            "latitude": 38.78333,
            "name": "ECHO SUMT SIER TAHOE, CA US",
            "datacoverage": 0.3761,
            "id": "COOP:042671",
            "elevationUnit": "METERS",
            "longitude": -120.03333
        },
        {
            "elevation": 150.9,
            "mindate": "1979-09-01",
            "maxdate": "2015-11-01",
            "latitude": 32.8005,
            "name": "EL CAJON, CA US",
            "datacoverage": 0.9242,
            "id": "COOP:042706",
            "elevationUnit": "METERS",
            "longitude": -116.928
        },
        {
            "elevation": 182.9,
            "mindate": "1935-09-01",
            "maxdate": "2015-11-01",
            "latitude": 32.8856,
            "name": "EL CAPITAN DAM, CA US",
            "datacoverage": 0.9533,
            "id": "COOP:042709",
            "elevationUnit": "METERS",
            "longitude": -116.8149
        },
        {
            "elevation": -9.1,
            "mindate": "1932-03-01",
            "maxdate": "2015-11-01",
            "latitude": 32.7669,
            "name": "EL CENTRO 2 SSW, CA US",
            "datacoverage": 0.992,
            "id": "COOP:042713",
            "elevationUnit": "METERS",
            "longitude": -115.5617
        },
        {
            "elevation": 217.9,
            "mindate": "1931-01-01",
            "maxdate": "1997-07-01",
            "latitude": 38.33056,
            "name": "ELECTRA P H, CA US",
            "datacoverage": 0.9775,
            "id": "COOP:042728",
            "elevationUnit": "METERS",
            "longitude": -120.67056
        },
        {
            "elevation": 634,
            "mindate": "1955-01-01",
            "maxdate": "1972-10-01",
            "latitude": 34.6,
            "name": "ELIZABETH LAKE CN FC, CA US",
            "datacoverage": 0.9999,
            "id": "COOP:042735",
            "elevationUnit": "METERS",
            "longitude": -118.56667
        },
        {
            "elevation": 520.6,
            "mindate": "1938-01-01",
            "maxdate": "2014-01-01",
            "latitude": 41.988,
            "name": "ELK VALLEY, CA US",
            "datacoverage": 0.9825,
            "id": "COOP:042749",
            "elevationUnit": "METERS",
            "longitude": -123.7183
        },
        {
            "elevation": 2939.8,
            "mindate": "1931-01-01",
            "maxdate": "2009-09-01",
            "latitude": 37.9355,
            "name": "ELLERY LAKE, CA US",
            "datacoverage": 0.8635,
            "id": "COOP:042756",
            "elevationUnit": "METERS",
            "longitude": -119.2305
        },
        {
            "elevation": 26.5,
            "mindate": "1926-07-01",
            "maxdate": "1993-10-01",
            "latitude": 38.2177,
            "name": "ACAMPO 5 NE, CA US",
            "datacoverage": 0.9851,
            "id": "COOP:042760",
            "elevationUnit": "METERS",
            "longitude": -121.2013
        },
        {
            "elevation": 899.2,
            "mindate": "1971-05-01",
            "maxdate": "2010-10-01",
            "latitude": 34.5891,
            "name": "EL MIRAGE, CA US",
            "datacoverage": 0.9682,
            "id": "COOP:042771",
            "elevationUnit": "METERS",
            "longitude": -117.6302
        },
        {
            "elevation": 139.9,
            "mindate": "1948-07-01",
            "maxdate": "1977-10-01",
            "latitude": 33.8,
            "name": "EL MODENA, CA US",
            "datacoverage": 0.0216,
            "id": "COOP:042775",
            "elevationUnit": "METERS",
            "longitude": -117.78333
        },
        {
            "elevation": 386.5,
            "mindate": "1931-01-01",
            "maxdate": "2015-11-01",
            "latitude": 33.686,
            "name": "ELSINORE, CA US",
            "datacoverage": 0.9667,
            "id": "COOP:042805",
            "elevationUnit": "METERS",
            "longitude": -117.3458
        },
        {
            "elevation": 1600.2,
            "mindate": "2000-09-01",
            "maxdate": "2001-02-01",
            "latitude": 39.30333,
            "name": "EMIGRANT GAP, CA US",
            "datacoverage": 0.8408,
            "id": "COOP:042831",
            "elevationUnit": "METERS",
            "longitude": -120.65083
        },
        {
            "elevation": 200.9,
            "mindate": "1931-01-01",
            "maxdate": "1979-06-01",
            "latitude": 33.11667,
            "name": "ESCONDIDO, CA US",
            "datacoverage": 0.9949,
            "id": "COOP:042862",
            "elevationUnit": "METERS",
            "longitude": -117.08333
        },
        {
            "elevation": 182.9,
            "mindate": "1964-11-01",
            "maxdate": "2015-11-01",
            "latitude": 33.121,
            "name": "ESCONDIDO NUMBER 2, CA US",
            "datacoverage": 0.9043,
            "id": "COOP:042863",
            "elevationUnit": "METERS",
            "longitude": -117.09
        },
        {
            "elevation": 423.7,
            "mindate": "1948-07-01",
            "maxdate": "2001-06-01",
            "latitude": 34.13167,
            "name": "ETIWANDA, CA US",
            "datacoverage": 0.0241,
            "id": "COOP:042895",
            "elevationUnit": "METERS",
            "longitude": -117.52389
        },
        {
            "elevation": 902.2,
            "mindate": "1948-07-01",
            "maxdate": "2014-01-01",
            "latitude": 41.45738,
            "name": "ETNA, CA US",
            "datacoverage": 0.0464,
            "id": "COOP:042899",
            "elevationUnit": "METERS",
            "longitude": -122.89941
        },
        {
            "elevation": 6.1,
            "mindate": "1931-01-01",
            "maxdate": "2015-11-01",
            "latitude": 40.8097,
            "name": "EUREKA WEATHER FORECAST OFFICE WOODLEY ISLAND, CA US",
            "datacoverage": 0.9765,
            "id": "COOP:042910",
            "elevationUnit": "METERS",
            "longitude": -124.1602
        },
        {
            "elevation": 134.7,
            "mindate": "1950-12-01",
            "maxdate": "2015-11-01",
            "latitude": 37.585,
            "name": "EXCHEQUER DAM, CA US",
            "datacoverage": 0.9577,
            "id": "COOP:042920",
            "elevationUnit": "METERS",
            "longitude": -120.2672
        },
        {
            "elevation": 133.8,
            "mindate": "1948-07-01",
            "maxdate": "1988-09-01",
            "latitude": 36.35,
            "name": "EXETER FAUVER RANCH, CA US",
            "datacoverage": 0.0256,
            "id": "COOP:042922",
            "elevationUnit": "METERS",
            "longitude": -119.06667
        },
        {
            "elevation": 6.1,
            "mindate": "1948-07-01",
            "maxdate": "1972-02-01",
            "latitude": 38.25,
            "name": "FAIRFIELD, CA US",
            "datacoverage": 0.039,
            "id": "COOP:042933",
            "elevationUnit": "METERS",
            "longitude": -122.05
        },
        {
            "elevation": 12.2,
            "mindate": "1950-12-01",
            "maxdate": "2015-11-01",
            "latitude": 38.2736,
            "name": "FAIRFIELD, CA US",
            "datacoverage": 0.9987,
            "id": "COOP:042934",
            "elevationUnit": "METERS",
            "longitude": -122.0677
        },
        {
            "elevation": 33.5,
            "mindate": "1972-01-01",
            "maxdate": "2014-01-01",
            "latitude": 38.288,
            "name": "FAIRFIELD 3 NNE, CA US",
            "datacoverage": 0.0196,
            "id": "COOP:042935",
            "elevationUnit": "METERS",
            "longitude": -122.0344
        },
        {
            "elevation": 932.7,
            "mindate": "1931-01-01",
            "maxdate": "2015-11-01",
            "latitude": 34.705,
            "name": "FAIRMONT, CA US",
            "datacoverage": 0.9716,
            "id": "COOP:042941",
            "elevationUnit": "METERS",
            "longitude": -118.4297
        },
        {
            "elevation": 201.2,
            "mindate": "1948-07-01",
            "maxdate": "1992-11-01",
            "latitude": 33.35,
            "name": "FALLBROOK, CA US",
            "datacoverage": 0.0174,
            "id": "COOP:042958",
            "elevationUnit": "METERS",
            "longitude": -117.25
        },
        {
            "elevation": 1005.8,
            "mindate": "1931-01-01",
            "maxdate": "2015-11-01",
            "latitude": 41.008,
            "name": "FALL RIVER MILLS, CA US",
            "datacoverage": 0.5967,
            "id": "COOP:042964",
            "elevationUnit": "METERS",
            "longitude": -121.435
        },
        {
            "elevation": 905.9,
            "mindate": "1958-01-01",
            "maxdate": "1975-06-01",
            "latitude": 39.6,
            "name": "FEATHER FALLS, CA US",
            "datacoverage": 0.048,
            "id": "COOP:042994",
            "elevationUnit": "METERS",
            "longitude": -121.26667
        },
        {
            "elevation": 121.9,
            "mindate": "2000-09-01",
            "maxdate": "2008-08-01",
            "latitude": 37.05056,
            "name": "FELTON, CA US",
            "datacoverage": 0.9583,
            "id": "COOP:043004",
            "elevationUnit": "METERS",
            "longitude": -122.075
        },
        {
            "elevation": 244.1,
            "mindate": "1967-07-01",
            "maxdate": "1987-02-01",
            "latitude": 40.35,
            "name": "FERGUSON RANCH, CA US",
            "datacoverage": 0.0231,
            "id": "COOP:043020",
            "elevationUnit": "METERS",
            "longitude": -122.45
        },
        {
            "elevation": 442,
            "mindate": "1959-12-01",
            "maxdate": "1971-12-01",
            "latitude": 40.5,
            "name": "FERNDALE 8 SSW, CA US",
            "datacoverage": 0.9171,
            "id": "COOP:043025",
            "elevationUnit": "METERS",
            "longitude": -124.33333
        },
        {
            "elevation": 3,
            "mindate": "1963-03-01",
            "maxdate": "1973-12-01",
            "latitude": 40.6,
            "name": "FERNDALE 2 NW, CA US",
            "datacoverage": 0.9995,
            "id": "COOP:043030",
            "elevationUnit": "METERS",
            "longitude": -124.28333
        },
        {
            "elevation": 658.4,
            "mindate": "1937-12-01",
            "maxdate": "2015-11-01",
            "latitude": 38.5236,
            "name": "FIDDLETOWN DEXTER RANCH, CA US",
            "datacoverage": 0.9754,
            "id": "COOP:043038",
            "elevationUnit": "METERS",
            "longitude": -120.7061
        },
        {
            "elevation": 960.7,
            "mindate": "1948-07-01",
            "maxdate": "2013-01-01",
            "latitude": 34.7344,
            "name": "FIGUEROA MOUNTAIN, CA US",
            "datacoverage": 0.017,
            "id": "COOP:043048",
            "elevationUnit": "METERS",
            "longitude": -120.0069
        },
        {
            "elevation": 134.1,
            "mindate": "1959-06-01",
            "maxdate": "1977-06-01",
            "latitude": 34.4,
            "name": "FILLMORE 1 WNW, CA US",
            "datacoverage": 1,
            "id": "COOP:043050",
            "elevationUnit": "METERS",
            "longitude": -118.93333
        },
        {
            "elevation": 1562.1,
            "mindate": "1971-01-01",
            "maxdate": "1971-12-01",
            "latitude": 37.48333,
            "name": "FISH CAMP, CA US",
            "datacoverage": 1,
            "id": "COOP:043069",
            "elevationUnit": "METERS",
            "longitude": -119.63333
        },
        {
            "elevation": 86.9,
            "mindate": "1948-12-01",
            "maxdate": "2015-11-01",
            "latitude": 36.3642,
            "name": "FIVE POINTS 5 SSW, CA US",
            "datacoverage": 0.959,
            "id": "COOP:043083",
            "elevationUnit": "METERS",
            "longitude": -120.1561
        },
        {
            "elevation": 1220.1,
            "mindate": "1959-06-01",
            "maxdate": "1977-06-01",
            "latitude": 40.36667,
            "name": "FLEMING FISH AND GAME, CA US",
            "datacoverage": 1,
            "id": "COOP:043087",
            "elevationUnit": "METERS",
            "longitude": -120.31667
        },
        {
            "elevation": 2232.7,
            "mindate": "1948-07-01",
            "maxdate": "2010-07-01",
            "latitude": 37.27389,
            "name": "FLORENCE LAKE, CA US",
            "datacoverage": 0.0254,
            "id": "COOP:043093",
            "elevationUnit": "METERS",
            "longitude": -118.97333
        },
        {
            "elevation": 106.7,
            "mindate": "1955-10-01",
            "maxdate": "1993-04-01",
            "latitude": 38.7,
            "name": "FOLSOM DAM, CA US",
            "datacoverage": 0.9889,
            "id": "COOP:043113",
            "elevationUnit": "METERS",
            "longitude": -121.16667
        },
        {
            "elevation": 601.1,
            "mindate": "1953-04-01",
            "maxdate": "1984-09-01",
            "latitude": 34.18333,
            "name": "FONTANA 5 N, CA US",
            "datacoverage": 0.9999,
            "id": "COOP:043118",
            "elevationUnit": "METERS",
            "longitude": -117.45
        },
        {
            "elevation": 335.9,
            "mindate": "1951-03-01",
            "maxdate": "1984-08-01",
            "latitude": 34.08333,
            "name": "FONTANA KAISER, CA US",
            "datacoverage": 0.9998,
            "id": "COOP:043120",
            "elevationUnit": "METERS",
            "longitude": -117.51667
        },
        {
            "elevation": 712.9,
            "mindate": "1931-01-01",
            "maxdate": "1985-07-01",
            "latitude": 40.38333,
            "name": "FOREST GLEN, CA US",
            "datacoverage": 0.9023,
            "id": "COOP:043130",
            "elevationUnit": "METERS",
            "longitude": -123.33333
        },
        {
            "elevation": 919,
            "mindate": "1937-12-01",
            "maxdate": "2015-11-01",
            "latitude": 39.01,
            "name": "FORESTHILL RANGER STATION, CA US",
            "datacoverage": 0.9445,
            "id": "COOP:043134",
            "elevationUnit": "METERS",
            "longitude": -120.8455
        },
        {
            "elevation": 378,
            "mindate": "1960-09-01",
            "maxdate": "1972-07-01",
            "latitude": 41.26667,
            "name": "FORKS OF SALMON, CA US",
            "datacoverage": 0.7414,
            "id": "COOP:043151",
            "elevationUnit": "METERS",
            "longitude": -123.31667
        },