{
    "metadata": {
        "resultset": {
            "offset": 1,
            "count": 4344,
            "limit": 1000
        }
    },
    "results": [
        {
            "elevation": 52.1,
            "mindate": "1948-01-01",
            "maxdate": "1949-08-01",
            "latitude": 32.88333,
            "name": "IMPERIAL DAM, CA US",
            "datacoverage": 0.9996,
            "id": "COOP:024299",
            "elevationUnit": "METERS",
            "longitude": -114.46667
        },
        {
            "elevation": 128,
            "mindate": "1931-01-01",
            "maxdate": "2015-11-01",
            "latitude": 34.1547,
            "name": "PARKER, AZ US",
            "datacoverage": 0.9755,
            "id": "COOP:026250",
            "elevationUnit": "METERS",
            "longitude": -114.2908
        },
        {
            "elevation": 73.2,
            "mindate": "1948-01-01",
            "maxdate": "1974-04-01",
            "latitude": 32.73333,
            "name": "YUMA WEATHER BUREAU CITY, CA US",
            "datacoverage": 0.9906,
            "id": "COOP:029662",
            "elevationUnit": "METERS",
            "longitude": -114.61667
        },
        {
            "elevation": 601.1,
            "mindate": "1960-08-01",
            "maxdate": "1962-12-01",
            "latitude": 39.03333,
            "name": "ABBOTT MINE, CA US",
            "datacoverage": 0.8618,
            "id": "COOP:040006",
            "elevationUnit": "METERS",
            "longitude": -122.43333
        },
        {
            "elevation": 26.5,
            "mindate": "1994-01-01",
            "maxdate": "2015-11-01",
            "latitude": 38.2177,
            "name": "ACAMPO 5 NE, CA US",
            "datacoverage": 0.9469,
            "id": "COOP:040010",
            "elevationUnit": "METERS",
            "longitude": -121.2013
        },
        {
            "elevation": 863.5,
            "mindate": "1931-01-01",
            "maxdate": "2013-12-01",
            "latitude": 34.4938,
            "name": "ACTON ESCONDIDO CANYON, CA US",
            "datacoverage": 0.8986,
            "id": "COOP:040014",
            "elevationUnit": "METERS",
            "longitude": -118.2713
        },
        {
            "elevation": 869,
            "mindate": "1959-06-01",
            "maxdate": "1977-09-01",
            "latitude": 34.58333,
            "name": "ADELANTO, CA US",
            "datacoverage": 0.9772,
            "id": "COOP:040024",
            "elevationUnit": "METERS",
            "longitude": -117.41667
        },
        {
            "elevation": 1278.6,
            "mindate": "1943-11-01",
            "maxdate": "2015-11-01",
            "latitude": 41.1936,
            "name": "ADIN RANGER STATION, CA US",
            "datacoverage": 0.9931,
            "id": "COOP:040029",
            "elevationUnit": "METERS",
            "longitude": -120.9447
        },
        {
            "elevation": 946.1,
            "mindate": "1931-01-01",
            "maxdate": "1948-10-01",
            "latitude": 33.41667,
            "name": "AGUANGA BERGMAN RANCH, CA US",
            "datacoverage": 0.9999,
            "id": "COOP:040046",
            "elevationUnit": "METERS",
            "longitude": -116.91667
        },
        {
            "elevation": 125,
            "mindate": "1957-10-01",
            "maxdate": "1975-08-01",
            "latitude": 37.86667,
            "name": "ALAMO 1 N, CA US",
            "datacoverage": 0.9256,
            "id": "COOP:040064",
            "elevationUnit": "METERS",
            "longitude": -122.03333
        },
        {
            "elevation": 139.9,
            "mindate": "1940-12-01",
            "maxdate": "1980-06-01",
            "latitude": 40.18333,
            "name": "ALDERPOINT, CA US",
            "datacoverage": 0.9264,
            "id": "COOP:040088",
            "elevationUnit": "METERS",
            "longitude": -123.61667
        },
        {
            "elevation": 721.5,
            "mindate": "1939-09-01",
            "maxdate": "1992-10-30",
            "latitude": 34.31667,
            "name": "ALISO CANYON FC 446, CA US",
            "datacoverage": 0.9711,
            "id": "COOP:040115",
            "elevationUnit": "METERS",
            "longitude": -118.55
        },
        {
            "elevation": 167.9,
            "mindate": "1948-01-01",
            "maxdate": "1950-01-01",
            "latitude": 37.18333,
            "name": "ALMA, CA US",
            "datacoverage": 0.9587,
            "id": "COOP:040120",
            "elevationUnit": "METERS",
            "longitude": -121.98333
        },
        {
            "elevation": 153,
            "mindate": "1948-01-01",
            "maxdate": "1949-09-01",
            "latitude": 37.16667,
            "name": "ALMADEN, CA US",
            "datacoverage": 0.9527,
            "id": "COOP:040124",
            "elevationUnit": "METERS",
            "longitude": -121.81667
        },
        {
            "elevation": 580,
            "mindate": "1935-02-01",
            "maxdate": "1945-12-01",
            "latitude": 32.83333,
            "name": "ALPINE, CA US",
            "datacoverage": 1,
            "id": "COOP:040133",
            "elevationUnit": "METERS",
            "longitude": -116.76667
        },
        {
            "elevation": 516.6,
            "mindate": "1951-11-01",
            "maxdate": "1952-09-01",
            "latitude": 32.8358,
            "name": "ALPINE, CA US",
            "datacoverage": 0.9994,
            "id": "COOP:040134",
            "elevationUnit": "METERS",
            "longitude": -116.7774
        },
        {
            "elevation": 516.6,
            "mindate": "1952-10-01",
            "maxdate": "2015-11-01",
            "latitude": 32.8358,
            "name": "ALPINE, CA US",
            "datacoverage": 0.9644,
            "id": "COOP:040136",
            "elevationUnit": "METERS",
            "longitude": -116.7774
        },
        {
            "elevation": 343.5,
            "mindate": "1931-01-01",
            "maxdate": "2015-11-01",
            "latitude": 34.18211,
            "name": "ALTADENA, CA US",
            "datacoverage": 0.9362,
            "id": "COOP:040144",
            "elevationUnit": "METERS",
            "longitude": -118.13827
        },
        {
            "elevation": 1334.4,
            "mindate": "1931-05-01",
            "maxdate": "2015-11-01",
            "latitude": 41.4901,
            "name": "ALTURAS, CA US",
            "datacoverage": 0.9901,
            "id": "COOP:040161",
            "elevationUnit": "METERS",
            "longitude": -120.5437
        },
        {
            "elevation": 3,
            "mindate": "1931-01-01",
            "maxdate": "1942-04-01",
            "latitude": 37.6,
            "name": "ALVARADO, CA US",
            "datacoverage": 1,
            "id": "COOP:040163",
            "elevationUnit": "METERS",
            "longitude": -122.11667
        },
        {
            "elevation": 830,
            "mindate": "1931-01-01",
            "maxdate": "1944-04-01",
            "latitude": 33.28333,
            "name": "AMAGO, CA US",
            "datacoverage": 1,
            "id": "COOP:040170",
            "elevationUnit": "METERS",
            "longitude": -116.86667
        },
        {
            "elevation": 387.7,
            "mindate": "2009-02-01",
            "maxdate": "2010-12-01",
            "latitude": 34.16139,
            "name": "AMBOY ROAD EAST, CA US",
            "datacoverage": 1,
            "id": "COOP:040174",
            "elevationUnit": "METERS",
            "longitude": -115.80444
        },
        {
            "elevation": 197.5,
            "mindate": "1948-01-01",
            "maxdate": "2015-11-01",
            "latitude": 34.5591,
            "name": "AMBOY, CA US",
            "datacoverage": 0.1166,
            "id": "COOP:040176",
            "elevationUnit": "METERS",
            "longitude": -115.7441
        },
        {
            "elevation": 43,
            "mindate": "1946-08-01",
            "maxdate": "1954-06-01",
            "latitude": 34.01667,
            "name": "ANACAPA ISLAND, CA ",
            "datacoverage": 1,
            "id": "COOP:040188",
            "elevationUnit": "METERS",
            "longitude": -119.36667
        },
        {
            "elevation": 71.6,
            "mindate": "1989-08-01",
            "maxdate": "2015-11-01",
            "latitude": 33.8647,
            "name": "ANAHEIM, CA US",
            "datacoverage": 0.9684,
            "id": "COOP:040192",
            "elevationUnit": "METERS",
            "longitude": -117.8425
        },
        {
            "elevation": 64,
            "mindate": "1931-01-01",
            "maxdate": "1982-03-01",
            "latitude": 35.98333,
            "name": "ANGIOLA, CA US",
            "datacoverage": 0.9643,
            "id": "COOP:040204",
            "elevationUnit": "METERS",
            "longitude": -119.48333
        },
        {
            "elevation": 522.7,
            "mindate": "1939-11-01",
            "maxdate": "2015-11-01",
            "latitude": 38.573,
            "name": "ANGWIN PACIFIC UNION COLLEGE, CA US",
            "datacoverage": 0.9737,
            "id": "COOP:040212",
            "elevationUnit": "METERS",
            "longitude": -122.4405
        },
        {
            "elevation": 369.1,
            "mindate": "1931-01-01",
            "maxdate": "1942-05-01",
            "latitude": 35.71667,
            "name": "ANTELOPE VALLEY, CA US",
            "datacoverage": 1,
            "id": "COOP:040220",
            "elevationUnit": "METERS",
            "longitude": -120.16667
        },
        {
            "elevation": 8.5,
            "mindate": "1879-01-01",
            "maxdate": "1975-07-01",
            "latitude": 38.01667,
            "name": "ANTIOCH FIBREBRD MIL, CA US",
            "datacoverage": 0.9871,
            "id": "COOP:040227",
            "elevationUnit": "METERS",
            "longitude": -121.76667
        },
        {
            "elevation": 125,
            "mindate": "1948-01-01",
            "maxdate": "1950-08-08",
            "latitude": 37.95,
            "name": "ANTIOCH 5 S, CA US",
            "datacoverage": 0.7511,
            "id": "COOP:040230",
            "elevationUnit": "METERS",
            "longitude": -121.8
        },
        {
            "elevation": 18.3,
            "mindate": "1955-03-01",
            "maxdate": "2015-11-01",
            "latitude": 37.9833,
            "name": "ANTIOCH PUMPING PLANT NUMBER 3, CA US",
            "datacoverage": 0.9643,
            "id": "COOP:040232",
            "elevationUnit": "METERS",
            "longitude": -121.7525
        },
        {
            "elevation": 1193.3,
            "mindate": "1942-10-01",
            "maxdate": "2005-02-01",
            "latitude": 33.5558,
            "name": "ANZA, CA US",
            "datacoverage": 0.9373,
            "id": "COOP:040235",
            "elevationUnit": "METERS",
            "longitude": -116.6738
        },
        {
            "elevation": 1516.1,
            "mindate": "1948-01-01",
            "maxdate": "1971-12-01",
            "latitude": 34.86667,
            "name": "APACHE CAMP, CA US",
            "datacoverage": 0.9783,
            "id": "COOP:040239",
            "elevationUnit": "METERS",
            "longitude": -119.33333
        },
        {
            "elevation": 894.6,
            "mindate": "1959-06-01",
            "maxdate": "1987-03-01",
            "latitude": 34.51667,
            "name": "APPLE VALLEY, CA US",
            "datacoverage": 0.997,
            "id": "COOP:040244",
            "elevationUnit": "METERS",
            "longitude": -117.21667
        },
        {
            "elevation": 34.1,
            "mindate": "1959-08-01",
            "maxdate": "1977-06-01",
            "latitude": 35.11667,
            "name": "ARROYO GRANDE, CA US",
            "datacoverage": 0.9861,
            "id": "COOP:040320",
            "elevationUnit": "METERS",
            "longitude": -120.56667
        },
        {
            "elevation": 282.5,
            "mindate": "1993-12-01",
            "maxdate": "2014-01-01",
            "latitude": 35.1844,
            "name": "ARROYO GRANDE 11 ENE, CA US",
            "datacoverage": 0.0162,
            "id": "COOP:040321",
            "elevationUnit": "METERS",
            "longitude": -120.398
        },
        {
            "elevation": 286.5,
            "mindate": "1931-01-01",
            "maxdate": "2014-01-01",
            "latitude": 36.2355,
            "name": "ARROYO SECO, CA US",
            "datacoverage": 0.6869,
            "id": "COOP:040322",
            "elevationUnit": "METERS",
            "longitude": -121.48
        },
        {
            "elevation": 214,
            "mindate": "1949-02-01",
            "maxdate": "1952-02-01",
            "latitude": 36.25,
            "name": "ARROYO SECO MILLERS, CA US",
            "datacoverage": 1,
            "id": "COOP:040325",
            "elevationUnit": "METERS",
            "longitude": -121.41667
        },
        {
            "elevation": 371.9,
            "mindate": "1931-01-01",
            "maxdate": "1974-06-01",
            "latitude": 34.21667,
            "name": "ARROYO SECO RANGER STATION FC508, CA US",
            "datacoverage": 0.9962,
            "id": "COOP:040327",
            "elevationUnit": "METERS",
            "longitude": -118.16667
        },
        {
            "elevation": 137.2,
            "mindate": "2008-08-01",
            "maxdate": "2015-11-01",
            "latitude": 35.2111,
            "name": "ARVIN, CA US",
            "datacoverage": 0.9888,
            "id": "COOP:040332",
            "elevationUnit": "METERS",
            "longitude": -118.8336
        },
        {
            "elevation": 520.6,
            "mindate": "1931-01-01",
            "maxdate": "2015-11-01",
            "latitude": 36.4914,
            "name": "ASH MOUNTAIN, CA US",
            "datacoverage": 0.9941,
            "id": "COOP:040343",
            "elevationUnit": "METERS",
            "longitude": -118.8253
        },
        {
            "elevation": 103.9,
            "mindate": "1941-11-01",
            "maxdate": "1966-05-01",
            "latitude": 33.9,
            "name": "ASSOC OIL ANAHEIM 1, CA US",
            "datacoverage": 1,
            "id": "COOP:040355",
            "elevationUnit": "METERS",
            "longitude": -117.88333
        },
        {
            "elevation": 512.1,
            "mindate": "1968-12-01",
            "maxdate": "1998-08-04",
            "latitude": 38.42694,
            "name": "ATLAS ROAD BROWN, CA US",
            "datacoverage": 0.0233,
            "id": "COOP:040368",
            "elevationUnit": "METERS",
            "longitude": -122.24833
        },
        {
            "elevation": 512.1,
            "mindate": "1948-01-01",
            "maxdate": "1969-04-24",
            "latitude": 38.42694,
            "name": "ATLAS ROAD BROWN, CA US",
            "datacoverage": 1,
            "id": "COOP:040372",
            "elevationUnit": "METERS",
            "longitude": -122.24833
        },
        {
            "elevation": 637,
            "mindate": "1931-01-01",
            "maxdate": "2015-11-01",
            "latitude": 37.0919,
            "name": "AUBERRY 2 NW, CA US",
            "datacoverage": 0.9863,
            "id": "COOP:040379",
            "elevationUnit": "METERS",
            "longitude": -119.5128
        },
        {
            "elevation": 393.8,
            "mindate": "1916-11-01",
            "maxdate": "2015-11-01",
            "latitude": 38.9072,
            "name": "AUBURN, CA US",
            "datacoverage": 0.9916,
            "id": "COOP:040383",
            "elevationUnit": "METERS",
            "longitude": -121.0838
        },
        {
            "elevation": 387.1,
            "mindate": "1972-07-01",
            "maxdate": "1984-09-01",
            "latitude": 38.88333,
            "name": "AUBURN DAM PROJECT, CA US",
            "datacoverage": 0.9998,
            "id": "COOP:040385",
            "elevationUnit": "METERS",
            "longitude": -121.06667
        },
        {
            "elevation": 466.6,
            "mindate": "1943-01-01",
            "maxdate": "1948-04-01",
            "latitude": 38.95472,
            "name": "AUBURN MUNICIPAL AIRPORT, CA US",
            "datacoverage": 1,
            "id": "COOP:040389",
            "elevationUnit": "METERS",
            "longitude": -121.08194
        },
        {
            "elevation": 27.4,
            "mindate": "2011-01-01",
            "maxdate": "2011-12-01",
            "latitude": 33.338,
            "name": "AVALON INLAND, CA US",
            "datacoverage": 1,
            "id": "COOP:040392",
            "elevationUnit": "METERS",
            "longitude": -118.3305
        },
        {
            "elevation": 7.6,
            "mindate": "1931-01-01",
            "maxdate": "1988-12-01",
            "latitude": 33.35,
            "name": "AVALON PLEASURE PIER, CA US",
            "datacoverage": 0.9842,
            "id": "COOP:040395",
            "elevationUnit": "METERS",
            "longitude": -118.31667
        },
        {
            "elevation": 159.1,
            "mindate": "1955-02-01",
            "maxdate": "1961-07-01",
            "latitude": 35.9,
            "name": "AVENAL 9 SSE, CA US",
            "datacoverage": 1,
            "id": "COOP:040398",
            "elevationUnit": "METERS",
            "longitude": -120.05
        },
        {
            "elevation": 9.1,
            "mindate": "1963-06-01",
            "maxdate": "1971-04-01",
            "latitude": 35.1784,
            "name": "AVILA BEACH, CA US",
            "datacoverage": 1,
            "id": "COOP:040403",
            "elevationUnit": "METERS",
            "longitude": -120.73363
        },
        {
            "elevation": 185.9,
            "mindate": "1931-01-01",
            "maxdate": "1972-10-01",
            "latitude": 34.13333,
            "name": "AZUSA CITY PK FC 143, CA US",
            "datacoverage": 1,
            "id": "COOP:040410",
            "elevationUnit": "METERS",
            "longitude": -117.9
        },
        {
            "elevation": 808,
            "mindate": "1936-06-01",
            "maxdate": "1962-12-01",
            "latitude": 34.95,
            "name": "BACKUS RANCH, CA US",
            "datacoverage": 1,
            "id": "COOP:040418",
            "elevationUnit": "METERS",
            "longitude": -118.18333
        },
        {
            "elevation": 932.7,
            "mindate": "1948-01-01",
            "maxdate": "2006-12-01",
            "latitude": 36.62861,
            "name": "BADGER, CA US",
            "datacoverage": 0.956,
            "id": "COOP:040422",
            "elevationUnit": "METERS",
            "longitude": -119.01167
        },
        {
            "elevation": 293.2,
            "mindate": "1953-11-01",
            "maxdate": "2012-12-01",
            "latitude": 35.27611,
            "name": "BAKER, CA US",
            "datacoverage": 0.8292,
            "id": "COOP:040436",
            "elevationUnit": "METERS",
            "longitude": -116.06278
        },
        {
            "elevation": 320,
            "mindate": "1953-11-01",
            "maxdate": "1971-03-01",
            "latitude": 35.38333,
            "name": "BAKER 9 NNW, CA US",
            "datacoverage": 0.9859,
            "id": "COOP:040437",
            "elevationUnit": "METERS",
            "longitude": -116.11667
        },
        {
            "elevation": 121.9,
            "mindate": "1931-01-01",
            "maxdate": "1937-09-01",
            "latitude": 35.38333,
            "name": "BAKERSFIELD, CA US",
            "datacoverage": 1,
            "id": "COOP:040439",
            "elevationUnit": "METERS",
            "longitude": -119.01667
        },
        {
            "elevation": 149,
            "mindate": "1938-01-01",
            "maxdate": "2015-11-01",
            "latitude": 35.4344,
            "name": "BAKERSFIELD AIRPORT, CA US",
            "datacoverage": 0.9968,
            "id": "COOP:040442",
            "elevationUnit": "METERS",
            "longitude": -119.0542
        },
        {
            "elevation": 143.3,
            "mindate": "1999-01-01",
            "maxdate": "2015-11-01",
            "latitude": 35.4186,
            "name": "BAKERSFIELD 5 NW, CA US",
            "datacoverage": 0.9854,
            "id": "COOP:040444",
            "elevationUnit": "METERS",
            "longitude": -119.0508
        },
        {
            "elevation": 528.8,
            "mindate": "1950-02-01",
            "maxdate": "2015-11-01",
            "latitude": 36.9092,
            "name": "BALCH POWER HOUSE, CA US",
            "datacoverage": 0.9887,
            "id": "COOP:040449",
            "elevationUnit": "METERS",
            "longitude": -119.0883
        },
        {
            "elevation": 676,
            "mindate": "1933-06-01",
            "maxdate": "1944-10-01",
            "latitude": 33.91667,
            "name": "BANNING MUNICIPAL, CA US",
            "datacoverage": 0.9997,
            "id": "COOP:040489",
            "elevationUnit": "METERS",
            "longitude": -116.86667
        },
        {
            "elevation": 177.1,
            "mindate": "1941-11-01",
            "maxdate": "1966-04-01",
            "latitude": 33.93333,
            "name": "BARNESON PARK, CA US",
            "datacoverage": 0.9526,
            "id": "COOP:040509",
            "elevationUnit": "METERS",
            "longitude": -117.85
        },
        {
            "elevation": 473,
            "mindate": "1956-01-01",
            "maxdate": "1956-08-01",
            "latitude": 38.93333,
            "name": "PITTS RANCH, CA US",
            "datacoverage": 0.8732,
            "id": "COOP:040510",
            "elevationUnit": "METERS",
            "longitude": -122.86667
        },
        {
            "elevation": 494.1,
            "mindate": "1931-01-01",
            "maxdate": "1980-12-01",
            "latitude": 32.68333,
            "name": "BARRETT DAM, CA US",
            "datacoverage": 1,
            "id": "COOP:040514",
            "elevationUnit": "METERS",
            "longitude": -116.66667
        },
        {
            "elevation": 659,
            "mindate": "1939-01-01",
            "maxdate": "1979-12-01",
            "latitude": 34.9,
            "name": "BARSTOW, CA US",
            "datacoverage": 1,
            "id": "COOP:040519",
            "elevationUnit": "METERS",
            "longitude": -117.03333
        },
        {
            "elevation": 676.7,
            "mindate": "1980-01-01",
            "maxdate": "2015-11-01",
            "latitude": 34.8927,
            "name": "BARSTOW, CA US",
            "datacoverage": 0.9768,
            "id": "COOP:040521",
            "elevationUnit": "METERS",
            "longitude": -117.0219
        },
        {
            "elevation": 793.1,
            "mindate": "1942-11-01",
            "maxdate": "1948-01-01",
            "latitude": 39.18333,
            "name": "BARTLETT SPRINGS, CA US",
            "datacoverage": 0.9998,
            "id": "COOP:040527",
            "elevationUnit": "METERS",
            "longitude": -122.7
        },
        {
            "elevation": 1663.3,
            "mindate": "2002-03-01",
            "maxdate": "2003-05-01",
            "latitude": 39.6175,
            "name": "BASSETS STATION, CA US",
            "datacoverage": 0.9324,
            "id": "COOP:040539",
            "elevationUnit": "METERS",
            "longitude": -120.59222
        },
        {
            "elevation": 1577,
            "mindate": "1948-07-01",
            "maxdate": "1949-09-02",
            "latitude": 34.91667,
            "name": "BATES RIDGE, CA US",
            "datacoverage": 0.9925,
            "id": "COOP:040543",
            "elevationUnit": "METERS",
            "longitude": -119.91667
        },
        {
            "elevation": 128,
            "mindate": "1971-02-01",
            "maxdate": "2014-01-01",
            "latitude": 40.3983,
            "name": "BATTLE CREEK ADR, CA US",
            "datacoverage": 0.0209,
            "id": "COOP:040546",
            "elevationUnit": "METERS",
            "longitude": -122.1452
        },
        {
            "elevation": 38.1,
            "mindate": "1962-01-01",
            "maxdate": "1964-02-01",
            "latitude": 39.13333,
            "name": "BEALE AFB, CA US",
            "datacoverage": 1,
            "id": "COOP:040584",
            "elevationUnit": "METERS",
            "longitude": -121.43333
        },
        {
            "elevation": 2103.1,
            "mindate": "2002-08-01",
            "maxdate": "2003-10-01",
            "latitude": 38.44056,
            "name": "BEAR VALLEY, CA US",
            "datacoverage": 0.666,
            "id": "COOP:040595",
            "elevationUnit": "METERS",
            "longitude": -120.07611
        },
        {
            "elevation": 796.4,
            "mindate": "1888-01-01",
            "maxdate": "2006-12-01",
            "latitude": 33.9291,
            "name": "BEAUMONT, CA US",
            "datacoverage": 0.9155,
            "id": "COOP:040606",
            "elevationUnit": "METERS",
            "longitude": -116.975
        },
        {
            "elevation": 929.9,
            "mindate": "1911-01-01",
            "maxdate": "1975-12-01",
            "latitude": 33.98333,
            "name": "BEAUMONT PUMP PLANT, CA US",
            "datacoverage": 1,
            "id": "COOP:040607",
            "elevationUnit": "METERS",
            "longitude": -116.96667
        },
        {
            "elevation": 789.7,
            "mindate": "1940-09-01",
            "maxdate": "2001-07-01",
            "latitude": 33.9255,
            "name": "BEAUMONT NUMBER 2, CA US",
            "datacoverage": 0.9891,
            "id": "COOP:040609",
            "elevationUnit": "METERS",
            "longitude": -116.9903
        },
        {
            "elevation": 392.9,
            "mindate": "1937-11-01",
            "maxdate": "1954-12-01",
            "latitude": 40.35,
            "name": "BEEGUM, CA US",
            "datacoverage": 0.8738,
            "id": "COOP:040615",
            "elevationUnit": "METERS",
            "longitude": -122.86667
        },
        {
            "elevation": 164.9,
            "mindate": "1931-01-01",
            "maxdate": "1984-03-01",
            "latitude": 34.08333,
            "name": "BEL AIR FC 10A, CA US",
            "datacoverage": 0.995,
            "id": "COOP:040619",
            "elevationUnit": "METERS",
            "longitude": -118.45
        },
        {
            "elevation": 281,
            "mindate": "1948-01-01",
            "maxdate": "1956-08-01",
            "latitude": 34.2,
            "name": "BELL CANYON PLATT RA, CA US",
            "datacoverage": 1,
            "id": "COOP:040625",
            "elevationUnit": "METERS",
            "longitude": -118.65
        },
        {
            "elevation": 128,
            "mindate": "1972-12-01",
            "maxdate": "2015-11-01",
            "latitude": 37.0855,
            "name": "BEN LOMOND NUMBER 4, CA US",
            "datacoverage": 0.9923,
            "id": "COOP:040673",
            "elevationUnit": "METERS",
            "longitude": -122.0797
        },
        {
            "elevation": 128,
            "mindate": "1937-02-01",
            "maxdate": "1965-12-01",
            "latitude": 37.0855,
            "name": "BEN LOMOND NUMBER 4, CA US",
            "datacoverage": 1,
            "id": "COOP:040674",
            "elevationUnit": "METERS",
            "longitude": -122.0797
        },
        {
            "elevation": 128,
            "mindate": "1965-12-01",
            "maxdate": "1967-07-01",
            "latitude": 37.0855,
            "name": "BEN LOMOND NUMBER 4, CA US",
            "datacoverage": 1,
            "id": "COOP:040676",
            "elevationUnit": "METERS",
            "longitude": -122.0797
        },
        {
            "elevation": 128,
            "mindate": "1967-08-01",
            "maxdate": "1972-12-01",
            "latitude": 37.0855,
            "name": "BEN LOMOND NUMBER 4, CA US",
            "datacoverage": 0.9992,
            "id": "COOP:040677",
            "elevationUnit": "METERS",
            "longitude": -122.0797
        },
        {
            "elevation": 563.9,
            "mindate": "1931-01-01",
            "maxdate": "1953-03-01",
            "latitude": 34.16667,
            "name": "BENNETT RANCH, CA US",
            "datacoverage": 0.9962,
            "id": "COOP:040678",
            "elevationUnit": "METERS",
            "longitude": -117.45
        },
        {
            "elevation": 6.1,
            "mindate": "1913-01-01",
            "maxdate": "1958-12-01",
            "latitude": 38.25,
            "name": "BENSONS FERRY, CA US",
            "datacoverage": 1,
            "id": "COOP:040682",
            "elevationUnit": "METERS",
            "longitude": -121.43333
        },
        {
            "elevation": 1664.2,
            "mindate": "1964-10-01",
            "maxdate": "2003-03-01",
            "latitude": 37.84278,
            "name": "BENTON INSPECTION STATION, CA US",
            "datacoverage": 0.9979,
            "id": "COOP:040684",
            "elevationUnit": "METERS",
            "longitude": -118.47833
        },
        {
            "elevation": 548.9,
            "mindate": "1933-07-01",
            "maxdate": "1937-11-01",
            "latitude": 33.83333,
            "name": "BERDOO CAMP, CA US",
            "datacoverage": 0.9995,
            "id": "COOP:040687",
            "elevationUnit": "METERS",
            "longitude": -116.15
        },
        {
            "elevation": 94.5,
            "mindate": "1919-01-01",
            "maxdate": "2015-11-01",
            "latitude": 37.8744,
            "name": "BERKELEY, CA US",
            "datacoverage": 0.9476,
            "id": "COOP:040693",
            "elevationUnit": "METERS",
            "longitude": -122.2605
        },
        {
            "elevation": 139.9,
            "mindate": "1957-11-01",
            "maxdate": "1970-06-01",
            "latitude": 38.55,
            "name": "BERRYESSA LAKE, CA US",
            "datacoverage": 1,
            "id": "COOP:040705",
            "elevationUnit": "METERS",
            "longitude": -122.23333
        },
        {
            "elevation": 49.1,
            "mindate": "1931-01-01",
            "maxdate": "1943-04-01",
            "latitude": 34.91667,
            "name": "BETTERAVIA, CA US",
            "datacoverage": 1,
            "id": "COOP:040719",
            "elevationUnit": "METERS",
            "longitude": -120.35
        },
        {
            "elevation": 808,
            "mindate": "1943-10-01",
            "maxdate": "1950-01-01",
            "latitude": 41.81667,
            "name": "BETTS RANCH, CA US",
            "datacoverage": 0.9729,
            "id": "COOP:040721",
            "elevationUnit": "METERS",
            "longitude": -122.5
        },
        {
            "elevation": 1257.3,
            "mindate": "1948-01-01",
            "maxdate": "2014-01-01",
            "latitude": 41.1208,
            "name": "BIEBER, CA US",
            "datacoverage": 0.9783,
            "id": "COOP:040731",
            "elevationUnit": "METERS",
            "longitude": -121.1347
        },
        {
            "elevation": 381.9,
            "mindate": "1943-11-01",
            "maxdate": "2015-11-01",
            "latitude": 40.7405,
            "name": "BIG BAR 4 E, CA US",
            "datacoverage": 0.9919,
            "id": "COOP:040738",
            "elevationUnit": "METERS",
            "longitude": -123.2077
        },
        {
            "elevation": 2058.3,
            "mindate": "1960-07-01",
            "maxdate": "2015-11-01",
            "latitude": 34.243,
            "name": "BIG BEAR LAKE, CA US",
            "datacoverage": 0.9925,
            "id": "COOP:040741",
            "elevationUnit": "METERS",
            "longitude": -116.917
        },
        {
            "elevation": 2077.2,
            "mindate": "1933-07-01",
            "maxdate": "2014-01-01",
            "latitude": 34.2414,
            "name": "BIG BEAR LAKE DAM, CA US",
            "datacoverage": 0.9391,
            "id": "COOP:040742",
            "elevationUnit": "METERS",
            "longitude": -116.9751
        },
        {
            "elevation": 1751.1,
            "mindate": "1961-01-01",
            "maxdate": "1972-06-01",
            "latitude": 39.3,
            "name": "BIG BEN RANGER STATION, CA US",
            "datacoverage": 0.9855,
            "id": "COOP:040747",
            "elevationUnit": "METERS",
            "longitude": -120.51667
        },
        {
            "elevation": 259.1,
            "mindate": "1934-07-01",
            "maxdate": "1942-10-01",
            "latitude": 38.61667,
            "name": "BIG CANYON MINE, CA US",
            "datacoverage": 0.9996,
            "id": "COOP:040752",
            "elevationUnit": "METERS",
            "longitude": -120.9
        },
        {
            "elevation": 1486.8,
            "mindate": "1931-01-01",
            "maxdate": "2012-12-01",
            "latitude": 37.2064,
            "name": "BIG CREEK PH 1, CA US",
            "datacoverage": 0.5386,
            "id": "COOP:040755",
            "elevationUnit": "METERS",
            "longitude": -119.2419
        },
        {
            "elevation": 484.9,
            "mindate": "1931-01-01",
            "maxdate": "1980-12-01",
            "latitude": 34.16667,
            "name": "BIG DALTON DAM FC223, CA US",
            "datacoverage": 0.9983,
            "id": "COOP:040758",
            "elevationUnit": "METERS",
            "longitude": -117.81667
        },
        {
            "elevation": 2086.4,
            "mindate": "1931-01-01",
            "maxdate": "1996-11-01",
            "latitude": 34.38333,
            "name": "BIG PINES PARK FC83B, CA US",
            "datacoverage": 0.9886,
            "id": "COOP:040779",
            "elevationUnit": "METERS",
            "longitude": -117.68333
        },
        {
            "elevation": 61,
            "mindate": "1931-01-01",
            "maxdate": "2015-11-01",
            "latitude": 36.2472,
            "name": "BIG SUR STATION, CA US",
            "datacoverage": 0.9804,
            "id": "COOP:040790",
            "elevationUnit": "METERS",
            "longitude": -121.7802
        },
        {
            "elevation": 709,
            "mindate": "1940-01-01",
            "maxdate": "2015-11-01",
            "latitude": 34.29481,
            "name": "BIG TUJUNGA DAM FC46, CA US",
            "datacoverage": 0.9254,
            "id": "COOP:040798",
            "elevationUnit": "METERS",
            "longitude": -118.18849
        },
        {
            "elevation": 220.1,
            "mindate": "1948-01-01",
            "maxdate": "1977-06-01",
            "latitude": 34.18333,
            "name": "BIRMINGHAM GEN HOSPITAL, CA US",
            "datacoverage": 0.9775,
            "id": "COOP:040818",
            "elevationUnit": "METERS",
            "longitude": -118.5
        },
        {
            "elevation": 2485.3,
            "mindate": "1959-10-01",
            "maxdate": "2009-09-01",
            "latitude": 37.248,
            "name": "BISHOP CRK INTAKE 2, CA US",
            "datacoverage": 0.8983,
            "id": "COOP:040819",
            "elevationUnit": "METERS",
            "longitude": -118.5813
        },
        {
            "elevation": 2581.7,
            "mindate": "1931-01-01",
            "maxdate": "2011-12-01",
            "latitude": 37.2321,
            "name": "ASPENDELL, CA US",
            "datacoverage": 0.2078,
            "id": "COOP:040820",
            "elevationUnit": "METERS",
            "longitude": -118.5994
        },
        {
            "elevation": 1250.3,
            "mindate": "1943-09-01",
            "maxdate": "2015-11-01",
            "latitude": 37.3711,
            "name": "BISHOP AIRPORT, CA US",
            "datacoverage": 0.9977,
            "id": "COOP:040822",
            "elevationUnit": "METERS",
            "longitude": -118.358
        },
        {
            "elevation": 1252.1,
            "mindate": "1996-12-01",
            "maxdate": "2005-09-01",
            "latitude": 37.3683,
            "name": "BISHOP FS, CA US",
            "datacoverage": 0.9093,
            "id": "COOP:040823",
            "elevationUnit": "METERS",
            "longitude": -118.3647
        },
        {
            "elevation": 2863.9,
            "mindate": "1957-05-01",
            "maxdate": "1969-12-01",
            "latitude": 37.36667,
            "name": "BISHOP UNION CARBIDE, CA US",
            "datacoverage": 0.9865,
            "id": "COOP:040824",
            "elevationUnit": "METERS",
            "longitude": -118.71667
        },
        {
            "elevation": 646.2,
            "mindate": "1954-02-01",
            "maxdate": "1995-06-01",
            "latitude": 37.31667,
            "name": "BLACK MOUNTAIN 2 WSW, CA US",
            "datacoverage": 0.9861,
            "id": "COOP:040850",
            "elevationUnit": "METERS",
            "longitude": -122.16667
        },
        {
            "elevation": 646.2,
            "mindate": "1943-12-01",
            "maxdate": "1953-10-01",
            "latitude": 37.31667,
            "name": "BLACK MOUNTAIN 2 WSW, CA US",
            "datacoverage": 0.9997,
            "id": "COOP:040855",
            "elevationUnit": "METERS",
            "longitude": -122.16667
        },
        {
            "elevation": 1708.1,
            "mindate": "1940-01-01",
            "maxdate": "1960-07-01",
            "latitude": 40.73333,
            "name": "BLACKS MOUNTAIN RANC, CA US",
            "datacoverage": 0.8988,
            "id": "COOP:040870",
            "elevationUnit": "METERS",
            "longitude": -121.25
        },
        {
            "elevation": 217,
            "mindate": "1963-06-01",
            "maxdate": "1975-06-01",
            "latitude": 35.61667,
            "name": "BLACKWELLS CORNER, CA US",
            "datacoverage": 0.8415,
            "id": "COOP:040875",
            "elevationUnit": "METERS",
            "longitude": -119.9
        },
        {
            "elevation": 1345.4,
            "mindate": "1969-10-01",
            "maxdate": "2014-01-01",
            "latitude": 38.9091,
            "name": "BLODGETT EXPER FOREST, CA US",
            "datacoverage": 0.0426,
            "id": "COOP:040883",
            "elevationUnit": "METERS",
            "longitude": -120.6677
        },
        {
            "elevation": 1449,
            "mindate": "1931-01-01",
            "maxdate": "1944-06-01",
            "latitude": 39.25,
            "name": "BLUE CANYON, CA US",
            "datacoverage": 1,
            "id": "COOP:040893",
            "elevationUnit": "METERS",
            "longitude": -120.7
        },
        {
            "elevation": 1608.1,
            "mindate": "1940-03-01",
            "maxdate": "2015-11-01",
            "latitude": 39.2774,
            "name": "BLUE CANYON AIRPORT, CA US",
            "datacoverage": 0.8746,
            "id": "COOP:040897",
            "elevationUnit": "METERS",
            "longitude": -120.7102
        },
        {
            "elevation": 299,
            "mindate": "1956-02-01",
            "maxdate": "1965-10-01",
            "latitude": 40.91667,
            "name": "BLUE LAKE REDWOOD CR, CA US",
            "datacoverage": 0.7522,
            "id": "COOP:040903",
            "elevationUnit": "METERS",
            "longitude": -123.81667
        },
        {
            "elevation": 81.7,
            "mindate": "1931-01-01",
            "maxdate": "2015-11-01",
            "latitude": 33.6131,
            "name": "BLYTHE, CA US",
            "datacoverage": 0.9804,
            "id": "COOP:040924",
            "elevationUnit": "METERS",
            "longitude": -114.5972
        },
        {
            "elevation": 118.9,
            "mindate": "1953-02-01",
            "maxdate": "1994-12-26",
            "latitude": 33.61667,
            "name": "BLYTHE 7 W, CA US",
            "datacoverage": 0.0067,
            "id": "COOP:040925",
            "elevationUnit": "METERS",
            "longitude": -114.71667
        },
        {
            "elevation": 120.4,
            "mindate": "1940-04-01",
            "maxdate": "2015-11-01",
            "latitude": 33.6186,
            "name": "BLYTHE ASOS, CA US",
            "datacoverage": 0.989,
            "id": "COOP:040927",
            "elevationUnit": "METERS",
            "longitude": -114.7142
        },
        {
            "elevation": 1699.3,
            "mindate": "1936-12-01",
            "maxdate": "2015-11-01",
            "latitude": 39.3886,
            "name": "BOCA, CA US",
            "datacoverage": 0.9694,
            "id": "COOP:040931",
            "elevationUnit": "METERS",
            "longitude": -120.0936
        },
        {
            "elevation": 2551.2,
            "mindate": "1964-09-01",
            "maxdate": "2015-11-01",
            "latitude": 38.2119,
            "name": "BODIE CALIFORNIA STATE HISTORIC PARK, CA US",
            "datacoverage": 0.9838,
            "id": "COOP:040943",
            "elevationUnit": "METERS",
            "longitude": -119.0142
        },
        {
            "elevation": 34.1,
            "mindate": "1931-01-01",
            "maxdate": "1970-12-01",
            "latitude": 32.66667,
            "name": "BONITA, CA US",
            "datacoverage": 0.9771,
            "id": "COOP:040968",
            "elevationUnit": "METERS",
            "longitude": -117.03333
        },
        {
            "elevation": 103.9,
            "mindate": "1959-05-01",
            "maxdate": "1977-06-01",
            "latitude": 39.01667,
            "name": "BOONVILLE HMS, CA US",
            "datacoverage": 0.9999,
            "id": "COOP:040973",
            "elevationUnit": "METERS",
            "longitude": -123.36667
        },
        {
            "elevation": 746.8,
            "mindate": "1959-12-01",
            "maxdate": "2010-09-01",
            "latitude": 35.0042,
            "name": "BORON, CA US",
            "datacoverage": 0.0101,
            "id": "COOP:040979",
            "elevationUnit": "METERS",
            "longitude": -117.6503
        },
        {
            "elevation": 246.9,
            "mindate": "1948-01-01",
            "maxdate": "2015-11-01",
            "latitude": 33.2559,
            "name": "BORREGO DESERT PARK, CA US",
            "datacoverage": 0.9828,
            "id": "COOP:040983",
            "elevationUnit": "METERS",
            "longitude": -116.4036
        },
        {
            "elevation": 192,
            "mindate": "1944-12-01",
            "maxdate": "1967-08-01",
            "latitude": 33.28333,
            "name": "BORREGO SPRINGS 3 NN, CA US",
            "datacoverage": 0.9268,
            "id": "COOP:040986",
            "elevationUnit": "METERS",
            "longitude": -116.35
        },
        {
            "elevation": 662.9,
            "mindate": "1948-07-01",
            "maxdate": "2014-01-01",
            "latitude": 37.1422,
            "name": "BOULDER CR LOCAT RANCH, CA US",
            "datacoverage": 0.9542,
            "id": "COOP:041005",
            "elevationUnit": "METERS",
            "longitude": -122.1963
        },
        {
            "elevation": 1097.3,
            "mindate": "1931-01-01",
            "maxdate": "1967-12-01",
            "latitude": 32.66667,
            "name": "BOULEVARD 2, CA US",
            "datacoverage": 0.9302,
            "id": "COOP:041009",
            "elevationUnit": "METERS",
            "longitude": -116.3
        },
        {
            "elevation": 1097.3,
            "mindate": "1969-10-01",
            "maxdate": "1994-12-01",
            "latitude": 32.66667,
            "name": "BOULEVARD 2, CA US",
            "datacoverage": 1,
            "id": "COOP:041010",
            "elevationUnit": "METERS",
            "longitude": -116.3
        },
        {
            "elevation": 933,
            "mindate": "1940-07-01",
            "maxdate": "1978-06-01",
            "latitude": 34.58333,
            "name": "BOUQUET CANYON, CA US",
            "datacoverage": 0.9913,
            "id": "COOP:041013",
            "elevationUnit": "METERS",
            "longitude": -118.36667
        },
        {
            "elevation": 1641.3,
            "mindate": "1931-01-01",
            "maxdate": "2015-11-01",
            "latitude": 39.4539,
            "name": "BOWMAN DAM, CA US",
            "datacoverage": 0.9627,
            "id": "COOP:041018",
            "elevationUnit": "METERS",
            "longitude": -120.6556
        },
        {
            "elevation": 1022,
            "mindate": "1958-12-01",
            "maxdate": "1963-04-01",
            "latitude": 33.48333,
            "name": "BRADFORD RANCH, CA US",
            "datacoverage": 1,
            "id": "COOP:041031",
            "elevationUnit": "METERS",
            "longitude": -116.8
        },
        {
            "elevation": 164.9,
            "mindate": "1946-11-01",
            "maxdate": "1971-11-01",
            "latitude": 35.86667,
            "name": "BRADLEY, CA US",
            "datacoverage": 0.9137,
            "id": "COOP:041034",
            "elevationUnit": "METERS",
            "longitude": -120.8
        },
        {
            "elevation": 374.9,
            "mindate": "1972-07-01",
            "maxdate": "1982-01-01",
            "latitude": 40.61667,
            "name": "BRANDY CREEL, CA US",
            "datacoverage": 0.0415,
            "id": "COOP:041041",
            "elevationUnit": "METERS",
            "longitude": -122.56667
        },
        {
            "elevation": 9.1,
            "mindate": "1968-01-01",
            "maxdate": "1977-06-01",
            "latitude": 38.11667,
            "name": "BRANNAN ISLAND, CA ",
            "datacoverage": 1,
            "id": "COOP:041043",
            "elevationUnit": "METERS",
            "longitude": -121.7
        },
        {
            "elevation": 445,
            "mindate": "1960-09-01",
            "maxdate": "1977-06-01",
            "latitude": 39.7,
            "name": "BRANSCOMB 3 NNW, CA US",
            "datacoverage": 1,
            "id": "COOP:041046",
            "elevationUnit": "METERS",
            "longitude": -123.65
        },
        {
            "elevation": -30.5,
            "mindate": "1931-01-01",
            "maxdate": "2007-09-01",
            "latitude": 32.9544,
            "name": "BRAWLEY, CA US",
            "datacoverage": 0.9935,
            "id": "COOP:041048",
            "elevationUnit": "METERS",
            "longitude": -115.5581
        },
        {
            "elevation": 107,
            "mindate": "1942-10-01",
            "maxdate": "1959-05-01",
            "latitude": 33.91667,
            "name": "BREA BERRY AND IMPER, CA US",
            "datacoverage": 1,
            "id": "COOP:041054",
            "elevationUnit": "METERS",
            "longitude": -117.9
        },
        {
            "elevation": 116.1,
            "mindate": "1957-06-01",
            "maxdate": "1970-03-01",
            "latitude": 33.93333,
            "name": "BREA CITY SHAFFER TO, CA US",
            "datacoverage": 1,
            "id": "COOP:041056",
            "elevationUnit": "METERS",
            "longitude": -117.9
        },
        {
            "elevation": 83.8,
            "mindate": "1941-11-01",
            "maxdate": "2013-12-19",
            "latitude": 33.8905,
            "name": "BREA DAM, CA US",
            "datacoverage": 1,
            "id": "COOP:041057",
            "elevationUnit": "METERS",
            "longitude": -117.9263
        },
        {
            "elevation": 99.1,
            "mindate": "1950-08-01",
            "maxdate": "1986-09-01",
            "latitude": 37.88333,
            "name": "BRENTWOOD 6 SW, CA US",
            "datacoverage": 1,
            "id": "COOP:041060",
            "elevationUnit": "METERS",
            "longitude": -121.76667
        },
        {
            "elevation": 1972.1,
            "mindate": "1948-01-01",
            "maxdate": "2015-11-01",
            "latitude": 38.2575,
            "name": "BRIDGEPORT, CA US",
            "datacoverage": 0.8565,
            "id": "COOP:041072",
            "elevationUnit": "METERS",
            "longitude": -119.2286
        },
        {
            "elevation": 1958,
            "mindate": "1931-02-01",
            "maxdate": "1957-06-01",
            "latitude": 38.31667,
            "name": "BRIDGEPORT DAM, CA US",
            "datacoverage": 1,
            "id": "COOP:041075",
            "elevationUnit": "METERS",
            "longitude": -119.21667
        },
        {
            "elevation": 1963.2,
            "mindate": "1950-06-01",
            "maxdate": "2014-01-01",
            "latitude": 38.2505,
            "name": "BRIDGEPORT RANGER STATION, CA US",
            "datacoverage": 0.9324,
            "id": "COOP:041076",
            "elevationUnit": "METERS",
            "longitude": -119.2161
        },
        {
            "elevation": 640.1,
            "mindate": "1954-06-01",
            "maxdate": "2001-01-01",
            "latitude": 40.51944,
            "name": "BRIDGEVILLE 4 NNW, CA US",
            "datacoverage": 0.9856,
            "id": "COOP:041080",
            "elevationUnit": "METERS",
            "longitude": -123.82167
        },
        {
            "elevation": 793.1,
            "mindate": "1939-01-01",
            "maxdate": "1952-10-01",
            "latitude": 40.55,
            "name": "BRIDGEVILLE HANSON R, CA US",
            "datacoverage": 0.9999,
            "id": "COOP:041082",
            "elevationUnit": "METERS",
            "longitude": -123.81667
        },
        {
            "elevation": 118,
            "mindate": "1971-01-01",
            "maxdate": "1995-05-01",
            "latitude": 40.48333,
            "name": "BRIDGEVILLE 5 W, CA US",
            "datacoverage": 0.0388,
            "id": "COOP:041084",
            "elevationUnit": "METERS",
            "longitude": -123.88333
        },
        {
            "elevation": 107,
            "mindate": "1948-01-01",
            "maxdate": "1949-02-20",
            "latitude": 38.73333,
            "name": "BROOKS, CA US",
            "datacoverage": 0.8594,
            "id": "COOP:041109",
            "elevationUnit": "METERS",
            "longitude": -122.15
        },
        {
            "elevation": 89.6,
            "mindate": "1921-07-01",
            "maxdate": "1985-11-01",
            "latitude": 38.76667,
            "name": "BROOKS FARNHAM RANCH, CA US",
            "datacoverage": 0.9922,
            "id": "COOP:041112",
            "elevationUnit": "METERS",
            "longitude": -122.15
        },
        {
            "elevation": 1085.1,
            "mindate": "1937-12-01",
            "maxdate": "2014-01-01",
            "latitude": 39.6949,
            "name": "BRUSH CREEK RANGER STATION, CA US",
            "datacoverage": 0.9909,
            "id": "COOP:041130",
            "elevationUnit": "METERS",
            "longitude": -121.3452
        },
        {
            "elevation": 281.9,
            "mindate": "1948-01-01",
            "maxdate": "2014-01-01",
            "latitude": 35.7989,
            "name": "BRYSON, CA US",
            "datacoverage": 1,
            "id": "COOP:041142",
            "elevationUnit": "METERS",
            "longitude": -121.0939
        },
        {
            "elevation": 1158.2,
            "mindate": "1948-06-01",
            "maxdate": "2015-11-01",
            "latitude": 40.8669,
            "name": "BUCKHORN, CA US",
            "datacoverage": 0.8963,
            "id": "COOP:041149",
            "elevationUnit": "METERS",
            "longitude": -121.8463
        },
        {
            "elevation": 576.4,
            "mindate": "1959-07-01",
            "maxdate": "2015-11-01",
            "latitude": 39.9372,
            "name": "BUCKS CREEK, CA US",
            "datacoverage": 0.9438,
            "id": "COOP:041159",
            "elevationUnit": "METERS",
            "longitude": -121.3147
        },
        {
            "elevation": 1585.9,
            "mindate": "1948-01-01",
            "maxdate": "1970-12-01",
            "latitude": 39.9,
            "name": "BUCKS LAKE, CA US",
            "datacoverage": 0.192,
            "id": "COOP:041161",
            "elevationUnit": "METERS",
            "longitude": -121.2
        },
        {
            "elevation": 499.9,
            "mindate": "1948-01-01",
            "maxdate": "1973-02-01",
            "latitude": 36.76667,
            "name": "BUENA VISTA, CA US",
            "datacoverage": 0.9116,
            "id": "COOP:041170",
            "elevationUnit": "METERS",
            "longitude": -121.18333
        },
        {
            "elevation": 542.8,
            "mindate": "1941-01-01",
            "maxdate": "1968-07-01",
            "latitude": 39.41667,
            "name": "BULLARDS BAR PH, CA US",
            "datacoverage": 1,
            "id": "COOP:041180",
            "elevationUnit": "METERS",
            "longitude": -121.15
        },
        {
            "elevation": 440.7,
            "mindate": "2009-02-01",
            "maxdate": "2009-03-01",
            "latitude": 34.20056,
            "name": "BULLION MOUNTAIN FTHLLS, CA US",
            "datacoverage": 1,
            "id": "COOP:041185",
            "elevationUnit": "METERS",
            "longitude": -115.87944
        },
        {
            "elevation": 1756.9,
            "mindate": "1964-02-01",
            "maxdate": "1964-12-01",
            "latitude": 38.2,
            "name": "BUMBLEBEE TRAILER PA, CA US",
            "datacoverage": 0.0358,
            "id": "COOP:041187",
            "elevationUnit": "METERS",
            "longitude": -120
        },
        {
            "elevation": 207,
            "mindate": "1931-01-01",
            "maxdate": "1972-10-01",
            "latitude": 34.18333,
            "name": "BURBANK FIRE DEPARTMENT FC226, CA US",
            "datacoverage": 0.992,
            "id": "COOP:041192",
            "elevationUnit": "METERS",
            "longitude": -118.3
        },
        {
            "elevation": 199.6,
            "mindate": "1940-01-01",
            "maxdate": "2015-11-01",
            "latitude": 34.1866,
            "name": "BURBANK VALLEY PUMP PLANT, CA US",
            "datacoverage": 0.9934,
            "id": "COOP:041194",
            "elevationUnit": "METERS",
            "longitude": -118.348
        },
        {
            "elevation": 3,
            "mindate": "1946-03-01",
            "maxdate": "1978-06-01",
            "latitude": 37.58333,
            "name": "BURLINGAME, CA US",
            "datacoverage": 0.9897,
            "id": "COOP:041206",
            "elevationUnit": "METERS",
            "longitude": -122.35
        },
        {
            "elevation": 974.8,
            "mindate": "1943-09-01",
            "maxdate": "2014-12-01",
            "latitude": 40.8802,
            "name": "BURNEY, CA US",
            "datacoverage": 0.9124,
            "id": "COOP:041214",
            "elevationUnit": "METERS",
            "longitude": -121.6547
        },
        {
            "elevation": 655.3,
            "mindate": "1959-11-01",
            "maxdate": "1989-06-01",
            "latitude": 40.8,
            "name": "BURNT RANCH 1 S, CA US",
            "datacoverage": 0.9495,
            "id": "COOP:041215",
            "elevationUnit": "METERS",
            "longitude": -123.46667
        },
        {
            "elevation": 161.8,
            "mindate": "1956-09-01",
            "maxdate": "1974-12-01",
            "latitude": 37.86667,
            "name": "BURTON RANCH, CA US",
            "datacoverage": 0.9955,
            "id": "COOP:041216",
            "elevationUnit": "METERS",
            "longitude": -122.08333
        },
        {
            "elevation": 128,
            "mindate": "1970-01-01",
            "maxdate": "1975-04-01",
            "latitude": 40.76667,
            "name": "BUTLER VALLEY RANCH, CA US",
            "datacoverage": 1,
            "id": "COOP:041233",
            "elevationUnit": "METERS",
            "longitude": -123.9
        },
        {
            "elevation": 1357,
            "mindate": "1942-02-01",
            "maxdate": "1947-02-01",
            "latitude": 40.08333,
            "name": "BUTTE MEADOWS, CA US",
            "datacoverage": 0.6731,
            "id": "COOP:041240",
            "elevationUnit": "METERS",
            "longitude": -121.53333
        },
        {
            "elevation": 68.6,
            "mindate": "1940-01-01",
            "maxdate": "2015-11-01",
            "latitude": 35.4028,
            "name": "BUTTONWILLOW, CA US",
            "datacoverage": 0.9934,
            "id": "COOP:041244",
            "elevationUnit": "METERS",
            "longitude": -119.47
        },
        {
            "elevation": 548.9,
            "mindate": "1939-12-01",
            "maxdate": "1974-03-01",
            "latitude": 33.91667,
            "name": "CABAZON, CA US",
            "datacoverage": 0.9733,
            "id": "COOP:041250",
            "elevationUnit": "METERS",
            "longitude": -116.78333
        },
        {
            "elevation": 125,
            "mindate": "1952-11-01",
            "maxdate": "1968-02-01",
            "latitude": 32.674444,
            "name": "CABRILLO NATIONAL MONUMENT, CA US",
            "datacoverage": 1,
            "id": "COOP:041252",
            "elevationUnit": "METERS",
            "longitude": -117.239444
        },
        {
            "elevation": 242.3,
            "mindate": "1951-10-01",
            "maxdate": "2015-11-01",
            "latitude": 34.5822,
            "name": "CACHUMA LAKE, CA US",
            "datacoverage": 0.9869,
            "id": "COOP:041253",
            "elevationUnit": "METERS",
            "longitude": -119.9817
        },
        {
            "elevation": 1463,
            "mindate": "1948-01-01",
            "maxdate": "2014-01-01",
            "latitude": 34.3899,
            "name": "CAJON WEST SUMMIT, CA US",
            "datacoverage": 0.9783,
            "id": "COOP:041272",
            "elevationUnit": "METERS",
            "longitude": -117.5758
        },
        {
            "elevation": 1431,
            "mindate": "1931-01-01",
            "maxdate": "2015-11-01",
            "latitude": 38.2769,
            "name": "CALAVERAS BIG TREES, CA US",
            "datacoverage": 0.9696,
            "id": "COOP:041277",
            "elevationUnit": "METERS",
            "longitude": -120.3113
        },
        {
            "elevation": 1024.1,
            "mindate": "1948-01-01",
            "maxdate": "1986-06-01",
            "latitude": 38.2,
            "name": "CALAVERAS RANGER STATION, CA US",
            "datacoverage": 0.3079,
            "id": "COOP:041280",
            "elevationUnit": "METERS",
            "longitude": -120.36667
        },
        {
            "elevation": 246.9,
            "mindate": "1959-08-01",
            "maxdate": "1977-06-01",
            "latitude": 37.48333,
            "name": "CALAVERAS RESERVOIR, CA US",
            "datacoverage": 1,
            "id": "COOP:041281",
            "elevationUnit": "METERS",
            "longitude": -121.81667
        },
        {
            "elevation": 3.7,
            "mindate": "1942-02-01",
            "maxdate": "2010-06-01",
            "latitude": 32.6881,
            "name": "CALEXICO, CA US",
            "datacoverage": 0.9989,
            "id": "COOP:041288",
            "elevationUnit": "METERS",
            "longitude": -115.4644
        },
        {
            "elevation": 900.1,
            "mindate": "1931-01-01",
            "maxdate": "1965-04-01",
            "latitude": 35.88333,
            "name": "CALIF HOT SPRINGS, CA US",
            "datacoverage": 0.9015,
            "id": "COOP:041300",
            "elevationUnit": "METERS",
            "longitude": -118.68333
        },
        {
            "elevation": 121.9,
            "mindate": "1873-01-01",
            "maxdate": "2015-11-01",
            "latitude": 38.5961,
            "name": "CALISTOGA, CA US",
            "datacoverage": 0.8479,
            "id": "COOP:041312",
            "elevationUnit": "METERS",
            "longitude": -122.6013
        },
        {
            "elevation": 940.3,
            "mindate": "1943-10-01",
            "maxdate": "2015-11-01",
            "latitude": 41.3378,
            "name": "CALLAHAN, CA US",
            "datacoverage": 0.9942,
            "id": "COOP:041316",
            "elevationUnit": "METERS",
            "longitude": -122.82484
        },
        {
            "elevation": 36.9,
            "mindate": "1956-01-01",
            "maxdate": "1958-06-01",
            "latitude": 34.2,
            "name": "CAMARILLO 2 SE, CA US",
            "datacoverage": 0.0286,
            "id": "COOP:041336",
            "elevationUnit": "METERS",
            "longitude": -119.01667
        },
        {
            "elevation": 107,
            "mindate": "1956-01-01",
            "maxdate": "1958-06-01",
            "latitude": 34.26667,
            "name": "CAMARILLO 4 NNW, CA US",
            "datacoverage": 0.0219,
            "id": "COOP:041338",
            "elevationUnit": "METERS",
            "longitude": -119.08333
        },
        {
            "elevation": 1758.7,
            "mindate": "1948-01-01",
            "maxdate": "2014-01-01",
            "latitude": 34.1491,
            "name": "CAMP ANGELUS, CA US",
            "datacoverage": 0.9116,
            "id": "COOP:041369",
            "elevationUnit": "METERS",
            "longitude": -116.9802
        },
        {
            "elevation": 1304.8,
            "mindate": "1931-01-01",
            "maxdate": "1958-06-01",
            "latitude": 34.23333,
            "name": "MOUNT BALDY FC 85 G, CA US",
            "datacoverage": 1,
            "id": "COOP:041373",
            "elevationUnit": "METERS",
            "longitude": -117.65
        },
        {
            "elevation": 1296,
            "mindate": "1969-02-01",
            "maxdate": "1978-12-19",
            "latitude": 34.25,
            "name": "OPIDS CAMP FC 57 B E, CA US",
            "datacoverage": 0.9998,
            "id": "COOP:041404",
            "elevationUnit": "METERS",
            "longitude": -118.1
        },
        {
            "elevation": 1311.9,
            "mindate": "1948-11-01",
            "maxdate": "1949-11-17",
            "latitude": 40.1,
            "name": "CAMP LASSEN, CA US",
            "datacoverage": 0.2502,
            "id": "COOP:041420",
            "elevationUnit": "METERS",
            "longitude": -121.53333
        },
        {
            "elevation": 801.6,
            "mindate": "1935-01-01",
            "maxdate": "2015-11-01",
            "latitude": 32.6263,
            "name": "CAMPO, CA US",
            "datacoverage": 0.9918,
            "id": "COOP:041424",
            "elevationUnit": "METERS",
            "longitude": -116.4699
        },
        {
            "elevation": 805,
            "mindate": "2015-01-01",
            "maxdate": "2015-11-01",
            "latitude": 32.6261,
            "name": "CAMPO ASOS, CA US",
            "datacoverage": 1,
            "id": "COOP:041426",
            "elevationUnit": "METERS",
            "longitude": -116.4681
        },
        {
            "elevation": 200.6,
            "mindate": "1931-01-01",
            "maxdate": "2015-11-01",
            "latitude": 38.2486,
            "name": "CAMP PARDEE, CA US",
            "datacoverage": 0.9863,
            "id": "COOP:041428",
            "elevationUnit": "METERS",
            "longitude": -120.8433
        },
        {
            "elevation": 189,
            "mindate": "1942-12-01",
            "maxdate": "1967-06-01",
            "latitude": 35.33333,
            "name": "CAMP SAN LUIS OBISPO, CA US",
            "datacoverage": 0.9967,
            "id": "COOP:041444",
            "elevationUnit": "METERS",
            "longitude": -120.68333
        },
        {
            "elevation": 762,
            "mindate": "1994-11-01",
            "maxdate": "2014-01-01",
            "latitude": 39.4397,
            "name": "CAMPTONVILLE 1 SW, CA US",
            "datacoverage": 0.0404,
            "id": "COOP:041460",
            "elevationUnit": "METERS",
            "longitude": -121.07115
        },
        {
            "elevation": 839.7,
            "mindate": "1931-01-01",
            "maxdate": "1994-07-01",
            "latitude": 39.45,
            "name": "CAMPTONVILLE R S, CA US",
            "datacoverage": 0.9623,
            "id": "COOP:041462",
            "elevationUnit": "METERS",
            "longitude": -121.05
        },
        {
            "elevation": 1158.8,
            "mindate": "1948-01-01",
            "maxdate": "1961-01-01",
            "latitude": 36.18333,
            "name": "CAMP WISHON, CA US",
            "datacoverage": 0.9338,
            "id": "COOP:041470",
            "elevationUnit": "METERS",
            "longitude": -118.66667
        },
        {
            "elevation": 1373.1,
            "mindate": "1959-05-01",
            "maxdate": "1971-02-01",
            "latitude": 41.36667,
            "name": "CANBY 11 SW, CA US",
            "datacoverage": 0.9226,
            "id": "COOP:041475",
            "elevationUnit": "METERS",
            "longitude": -121.05
        },
        {
            "elevation": 1313.7,
            "mindate": "1943-09-01",
            "maxdate": "2009-02-01",
            "latitude": 41.4219,
            "name": "CANBY, CA US",
            "datacoverage": 0.9288,
            "id": "COOP:041476",
            "elevationUnit": "METERS",
            "longitude": -120.9016
        },
        {
            "elevation": 240.8,
            "mindate": "1949-07-01",
            "maxdate": "2006-06-01",
            "latitude": 34.1819,
            "name": "WOODLAND HILLS PIERCE COLLEGE, CA US",
            "datacoverage": 0.9986,
            "id": "COOP:041484",
            "elevationUnit": "METERS",
            "longitude": -118.5744
        },
        {
            "elevation": 613,
            "mindate": "1955-03-01",
            "maxdate": "1974-08-01",
            "latitude": 35.3,
            "name": "CANTIL, CA US",
            "datacoverage": 0.9998,
            "id": "COOP:041488",
            "elevationUnit": "METERS",
            "longitude": -117.96667
        },
        {
            "elevation": 1389.9,
            "mindate": "1931-01-01",
            "maxdate": "2015-11-01",
            "latitude": 40.1705,
            "name": "CANYON DAM, CA US",
            "datacoverage": 0.9745,
            "id": "COOP:041497",
            "elevationUnit": "METERS",
            "longitude": -121.0886
        },
        {
            "elevation": 109.7,
            "mindate": "1976-04-01",
            "maxdate": "1994-05-01",
            "latitude": 38.73333,
            "name": "CAPAY 5 WNW, CA US",
            "datacoverage": 0.0116,
            "id": "COOP:041507",
            "elevationUnit": "METERS",
            "longitude": -122.13333
        },
        {
            "elevation": 121.9,
            "mindate": "1972-09-01",
            "maxdate": "1977-07-01",
            "latitude": 33.91667,
            "name": "CARBON CANYON DAM, CA US",
            "datacoverage": 0.0221,
            "id": "COOP:041517",
            "elevationUnit": "METERS",
            "longitude": -117.83333
        },
        {
            "elevation": 492.6,
            "mindate": "1955-06-01",
            "maxdate": "2013-12-22",
            "latitude": 33.923,
            "name": "CARBON CANYON GILMAN, CA US",
            "datacoverage": 0.0171,
            "id": "COOP:041518",
            "elevationUnit": "METERS",
            "longitude": -117.7777
        },
        {
            "elevation": 359.7,
            "mindate": "1949-08-01",
            "maxdate": "2001-07-01",
            "latitude": 33.95806,
            "name": "CARBON CANYON WORKMA, CA US",
            "datacoverage": 0.9235,
            "id": "COOP:041520",
            "elevationUnit": "METERS",
            "longitude": -117.77917
        },
        {
            "elevation": 912,
            "mindate": "1959-06-01",
            "maxdate": "1977-06-01",
            "latitude": 40.08333,
            "name": "CARIBOU PH, CA US",
            "datacoverage": 1,
            "id": "COOP:041522",
            "elevationUnit": "METERS",
            "longitude": -121.15
        },
        {
            "elevation": 146.3,
            "mindate": "1959-01-01",
            "maxdate": "2015-11-01",
            "latitude": 36.4805,
            "name": "CARMEL VALLEY, CA US",
            "datacoverage": 0.5857,
            "id": "COOP:041534",
            "elevationUnit": "METERS",
            "longitude": -121.7244
        },
        {
            "elevation": 117.3,
            "mindate": "1968-11-01",
            "maxdate": "2013-01-01",
            "latitude": 34.4063,
            "name": "CARPINTERIA RESERVOI, CA US",
            "datacoverage": 0.0133,
            "id": "COOP:041540",
            "elevationUnit": "METERS",
            "longitude": -119.485
        },
        {
            "elevation": 189,
            "mindate": "1944-07-01",
            "maxdate": "1956-05-01",
            "latitude": 37.63333,
            "name": "CASTLE ROCK, CA US",
            "datacoverage": 0.9859,
            "id": "COOP:041582",
            "elevationUnit": "METERS",
            "longitude": -121.48333
        },
        {
            "elevation": 171,
            "mindate": "1970-01-01",
            "maxdate": "1977-06-01",
            "latitude": 37.63333,
            "name": "CASTLE ROCK RAD LAB, CA US",
            "datacoverage": 1,
            "id": "COOP:041583",
            "elevationUnit": "METERS",
            "longitude": -121.5
        },
        {
            "elevation": 435.9,
            "mindate": "1948-01-01",
            "maxdate": "1977-09-01",
            "latitude": 37.4,
            "name": "CATHEYS VALLEY BULL RUN RANCH, CA US",
            "datacoverage": 0.8824,
            "id": "COOP:041588",
            "elevationUnit": "METERS",
            "longitude": -120.05
        },
        {
            "elevation": 305.1,
            "mindate": "1978-09-01",
            "maxdate": "1980-12-01",
            "latitude": 37.4,
            "name": "CATHEYS VALLEY WYRE, CA US",
            "datacoverage": 0.9991,
            "id": "COOP:041590",
            "elevationUnit": "METERS",
            "longitude": -120.11667
        },
        {
            "elevation": 323.1,
            "mindate": "1939-12-01",
            "maxdate": "1971-08-01",
            "latitude": 38.53333,
            "name": "CAZADERO, CA US",
            "datacoverage": 0.9895,
            "id": "COOP:041602",
            "elevationUnit": "METERS",
            "longitude": -123.13333
        },
        {
            "elevation": 432.8,
            "mindate": "1971-09-01",
            "maxdate": "2008-08-01",
            "latitude": 38.5641,
            "name": "CAZADERO 5 NW, CA US",
            "datacoverage": 0.4797,
            "id": "COOP:041603",
            "elevationUnit": "METERS",
            "longitude": -123.1616
        },
        {
            "elevation": 704.1,
            "mindate": "1954-10-01",
            "maxdate": "2003-03-01",
            "latitude": 41.14167,
            "name": "CECILVILLE, CA US",
            "datacoverage": 0.9365,
            "id": "COOP:041606",
            "elevationUnit": "METERS",
            "longitude": -123.13917
        },
        {
            "elevation": 915,
            "mindate": "1950-06-01",
            "maxdate": "1954-09-01",
            "latitude": 41.1,
            "name": "CECILVILLE 5 SE, CA US",
            "datacoverage": 0.8845,
            "id": "COOP:041607",
            "elevationUnit": "METERS",
            "longitude": -123.05
        },
        {
            "elevation": 1417.9,
            "mindate": "1941-01-01",
            "maxdate": "1962-12-01",
            "latitude": 36.78333,
            "name": "CEDAR GROVE, CA US",
            "datacoverage": 0.4508,
            "id": "COOP:041609",
            "elevationUnit": "METERS",
            "longitude": -118.66667
        },
        {
            "elevation": 985.1,
            "mindate": "1959-06-01",
            "maxdate": "1962-05-01",
            "latitude": 37.46667,
            "name": "CEDAR POINT RANCH, CA US",
            "datacoverage": 0.9998,
            "id": "COOP:041611",
            "elevationUnit": "METERS",
            "longitude": -119.73333
        },
        {
            "elevation": 1428.9,
            "mindate": "1931-01-01",
            "maxdate": "2015-11-01",
            "latitude": 41.5301,
            "name": "CEDARVILLE, CA US",
            "datacoverage": 0.9863,
            "id": "COOP:041614",
            "elevationUnit": "METERS",
            "longitude": -120.1791
        },
        {
            "elevation": 159.1,
            "mindate": "1931-01-01",
            "maxdate": "1971-06-01",
            "latitude": 39.78333,
            "name": "CENTERVILLE PH, CA US",
            "datacoverage": 1,
            "id": "COOP:041624",
            "elevationUnit": "METERS",
            "longitude": -121.66667
        },
        {
            "elevation": 1634.9,
            "mindate": "1940-07-01",
            "maxdate": "1948-12-01",
            "latitude": 37.35,
            "name": "CENTRAL CAMP, CA US",
            "datacoverage": 0.9604,
            "id": "COOP:041630",
            "elevationUnit": "METERS",
            "longitude": -119.48333
        },
        {
            "elevation": 783.3,
            "mindate": "1937-12-01",
            "maxdate": "1994-04-01",
            "latitude": 39.48333,
            "name": "CHALLENGE R S, CA US",
            "datacoverage": 0.9941,
            "id": "COOP:041653",
            "elevationUnit": "METERS",
            "longitude": -121.21667
        },
        {
            "elevation": 305.1,
            "mindate": "1945-11-01",
            "maxdate": "1959-07-01",
            "latitude": 34.26667,
            "name": "CHATSWORTH HEYNEMANN, CA US",
            "datacoverage": 0.9942,
            "id": "COOP:041679",
            "elevationUnit": "METERS",
            "longitude": -118.6
        },
        {
            "elevation": 289.6,
            "mindate": "1931-01-01",
            "maxdate": "1988-11-01",
            "latitude": 34.25,
            "name": "CHATSWORTH FC 24 F, CA US",
            "datacoverage": 0.9755,
            "id": "COOP:041680",
            "elevationUnit": "METERS",
            "longitude": -118.6
        },
        {
            "elevation": 277.4,
            "mindate": "1948-01-01",
            "maxdate": "2012-12-01",
            "latitude": 34.2263,
            "name": "CHATSWORTH RESERVOIR, CA US",
            "datacoverage": 0.9775,
            "id": "COOP:041682",
            "elevationUnit": "METERS",
            "longitude": -118.6169
        },
        {
            "elevation": 1452.4,
            "mindate": "1955-10-01",
            "maxdate": "2015-11-01",
            "latitude": 37.9747,
            "name": "CHERRY VALLEY DAM, CA US",
            "datacoverage": 0.9667,
            "id": "COOP:041697",
            "elevationUnit": "METERS",
            "longitude": -119.9161
        },
        {
            "elevation": 1380.7,
            "mindate": "1931-01-01",
            "maxdate": "2015-11-01",
            "latitude": 40.3033,
            "name": "CHESTER, CA US",
            "datacoverage": 0.9912,
            "id": "COOP:041700",
            "elevationUnit": "METERS",
            "longitude": -121.2422
        },
        {
            "elevation": 56.4,
            "mindate": "1931-01-01",
            "maxdate": "2015-11-01",
            "latitude": 39.6911,
            "name": "CHICO UNIVERSITY FARM, CA US",
            "datacoverage": 0.9843,
            "id": "COOP:041715",
            "elevationUnit": "METERS",
            "longitude": -121.8211
        },
        {
            "elevation": 182.9,
            "mindate": "1931-01-01",
            "maxdate": "1955-06-01",
            "latitude": 40.86667,
            "name": "CHINA FLAT, CA US",
            "datacoverage": 0.9866,
            "id": "COOP:041731",
            "elevationUnit": "METERS",
            "longitude": -123.58333
        },
        {
            "elevation": 679.7,
            "mindate": "1978-07-01",
            "maxdate": "2011-08-01",
            "latitude": 35.6875,
            "name": "CHINA LAKE NAF, CA US",
            "datacoverage": 0.9541,
            "id": "COOP:041733",
            "elevationUnit": "METERS",
            "longitude": -117.6931
        },
        {
            "elevation": 520,
            "mindate": "2008-03-01",
            "maxdate": "2015-11-01",
            "latitude": 33.6617,
            "name": "CHIRIACO SUMMIT, CA US",
            "datacoverage": 0.9999,
            "id": "COOP:041738",
            "elevationUnit": "METERS",
            "longitude": -115.7206
        },
        {
            "elevation": 25,
            "mindate": "1945-12-01",
            "maxdate": "1982-03-01",
            "latitude": 36.90028,
            "name": "CHITTENDEN PASS, CA US",
            "datacoverage": 0.8785,
            "id": "COOP:041739",
            "elevationUnit": "METERS",
            "longitude": -121.59667
        },
        {
            "elevation": 534,
            "mindate": "1948-01-01",
            "maxdate": "1985-07-01",
            "latitude": 35.71667,
            "name": "CHOLAME ALLEY RANCH, CA US",
            "datacoverage": 0.9783,
            "id": "COOP:041743",
            "elevationUnit": "METERS",
            "longitude": -120.25
        },
        {
            "elevation": 1603.2,
            "mindate": "1948-01-01",
            "maxdate": "2010-02-01",
            "latitude": 34.80778,
            "name": "CHUCHUPATE RANGER STATION, CA US",
            "datacoverage": 0.956,
            "id": "COOP:041754",
            "elevationUnit": "METERS",
            "longitude": -119.01139
        },
        {
            "elevation": 17.1,
            "mindate": "1931-01-01",
            "maxdate": "2015-11-01",
            "latitude": 32.64,
            "name": "CHULA VISTA, CA US",
            "datacoverage": 0.9902,
            "id": "COOP:041758",
            "elevationUnit": "METERS",
            "longitude": -117.0858
        },
        {
            "elevation": 415.1,
            "mindate": "1931-01-01",
            "maxdate": "1941-01-01",
            "latitude": 39.4,
            "name": "CHUTE CAMP, CA US",
            "datacoverage": 0.9997,
            "id": "COOP:041762",
            "elevationUnit": "METERS",
            "longitude": -121.15
        },
        {
            "elevation": 1751.1,
            "mindate": "1943-11-01",
            "maxdate": "1960-12-01",
            "latitude": 39.3,
            "name": "CISCO RANGER STATION, CA US",
            "datacoverage": 0.995,
            "id": "COOP:041768",
            "elevationUnit": "METERS",
            "longitude": -120.51667
        },
        {
            "elevation": 43,
            "mindate": "1960-06-01",
            "maxdate": "1975-12-01",
            "latitude": 38.7,
            "name": "CITRUS HEIGHTS, CA US",
            "datacoverage": 1,
            "id": "COOP:041773",
            "elevationUnit": "METERS",
            "longitude": -121.3
        },
        {
            "elevation": 368.8,
            "mindate": "1961-01-01",
            "maxdate": "1963-06-01",
            "latitude": 34.11667,
            "name": "LA VERNE HTS FC 560, CA US",
            "datacoverage": 1,
            "id": "COOP:041777",
            "elevationUnit": "METERS",
            "longitude": -117.75
        },
        {
            "elevation": 366.1,
            "mindate": "1931-01-01",
            "maxdate": "1980-12-01",
            "latitude": 34.1,
            "name": "CLAREMONT POMONA COL, CA US",
            "datacoverage": 1,
            "id": "COOP:041779",
            "elevationUnit": "METERS",
            "longitude": -117.71667
        },
        {
            "elevation": 3,
            "mindate": "1935-01-01",
            "maxdate": "1974-12-01",
            "latitude": 38.41667,
            "name": "CLARKSBURG, CA US",
            "datacoverage": 1,
            "id": "COOP:041784",
            "elevationUnit": "METERS",
            "longitude": -121.53333
        },
        {
            "elevation": 125,
            "mindate": "1962-05-01",
            "maxdate": "1977-06-01",
            "latitude": 39.55,
            "name": "CLARKS VALLEY MUDD R, CA US",
            "datacoverage": 0.9999,
            "id": "COOP:041785",
            "elevationUnit": "METERS",
            "longitude": -122.4
        },
        {
            "elevation": 307.8,
            "mindate": "1956-01-01",
            "maxdate": "1958-06-12",
            "latitude": 37.93333,
            "name": "CLAYTON 1 SW, CA US",
            "datacoverage": 0.0405,
            "id": "COOP:041786",
            "elevationUnit": "METERS",
            "longitude": -121.96667
        },
        {
            "elevation": 299,
            "mindate": "1960-09-01",
            "maxdate": "1977-10-01",
            "latitude": 41.71667,
            "name": "CLEAR CREEK, CA US",
            "datacoverage": 0.9804,
            "id": "COOP:041799",
            "elevationUnit": "METERS",
            "longitude": -123.45
        },
        {
            "elevation": 1393.9,
            "mindate": "1950-01-01",
            "maxdate": "1954-09-01",
            "latitude": 41.93333,
            "name": "CLEAR LAKE DAM, CA US",
            "datacoverage": 0.9303,
            "id": "COOP:041805",
            "elevationUnit": "METERS",
            "longitude": -121.06667
        },
        {
            "elevation": 411.2,
            "mindate": "1954-10-01",
            "maxdate": "2015-11-01",
            "latitude": 38.9238,
            "name": "CLEARLAKE 4 SE, CA US",
            "datacoverage": 0.9455,
            "id": "COOP:041806",
            "elevationUnit": "METERS",
            "longitude": -122.5672
        },
        {
            "elevation": 406,
            "mindate": "1931-07-01",
            "maxdate": "1954-11-01",
            "latitude": 38.98333,
            "name": "CLEARLAKE PARK, CA US",
            "datacoverage": 0.9963,
            "id": "COOP:041807",
            "elevationUnit": "METERS",
            "longitude": -122.71667
        },
        {
            "elevation": 1882.1,
            "mindate": "1931-01-01",
            "maxdate": "1947-12-01",
            "latitude": 37,
            "name": "CLIFF CAMP, CA US",
            "datacoverage": 0.9951,
            "id": "COOP:041821",
            "elevationUnit": "METERS",
            "longitude": -119
        },
        {
            "elevation": 97.5,
            "mindate": "1931-01-01",
            "maxdate": "1955-10-01",
            "latitude": 38.78833,
            "name": "CLOVERDALE 1 S, CA US",
            "datacoverage": 0.9799,
            "id": "COOP:041837",
            "elevationUnit": "METERS",
            "longitude": -123.01806
        },
        {
            "elevation": 121.9,
            "mindate": "1955-11-01",
            "maxdate": "2015-11-01",
            "latitude": 38.79296,
            "name": "CLOVERDALE, CA US",
            "datacoverage": 0.957,
            "id": "COOP:041838",
            "elevationUnit": "METERS",
            "longitude": -123.0263
        },
        {
            "elevation": 97.5,
            "mindate": "1973-02-01",
            "maxdate": "2006-06-01",
            "latitude": 38.78833,
            "name": "CLOVERDALE 1 S, CA US",
            "datacoverage": 0.0284,
            "id": "COOP:041839",
            "elevationUnit": "METERS",
            "longitude": -123.01806
        },
        {
            "elevation": 555,
            "mindate": "1948-01-01",
            "maxdate": "1973-02-01",
            "latitude": 38.76667,
            "name": "CLOVERDALE 11 W, CA US",
            "datacoverage": 1,
            "id": "COOP:041840",
            "elevationUnit": "METERS",
            "longitude": -123.21667
        },
        {
            "elevation": 121.9,
            "mindate": "1931-01-01",
            "maxdate": "1947-12-01",
            "latitude": 36.86667,
            "name": "CLOVIS, CA US",
            "datacoverage": 1,
            "id": "COOP:041851",
            "elevationUnit": "METERS",
            "longitude": -119.71667
        },
        {
            "elevation": -20.1,
            "mindate": "1948-01-01",
            "maxdate": "1950-06-01",
            "latitude": 33.68333,
            "name": "INDIO COACHELLA, CA US",
            "datacoverage": 1,
            "id": "COOP:041860",
            "elevationUnit": "METERS",
            "longitude": -116.16667
        },
        {
            "elevation": 204.2,
            "mindate": "1940-12-01",
            "maxdate": "2015-11-01",
            "latitude": 36.1356,
            "name": "COALINGA, CA US",
            "datacoverage": 0.9834,
            "id": "COOP:041864",
            "elevationUnit": "METERS",
            "longitude": -120.3606
        },
        {
            "elevation": 200.9,
            "mindate": "1931-01-01",
            "maxdate": "1979-05-01",
            "latitude": 36.13333,
            "name": "COALINGA 1 SE, CA US",
            "datacoverage": 0.6989,
            "id": "COOP:041867",
            "elevationUnit": "METERS",
            "longitude": -120.35
        },
        {
            "elevation": 499.9,
            "mindate": "1950-01-01",
            "maxdate": "1973-06-01",
            "latitude": 36.23333,
            "name": "COALINGA 14 WNW, CA US",
            "datacoverage": 0.9929,
            "id": "COOP:041869",
            "elevationUnit": "METERS",
            "longitude": -120.56667
        },
        {
            "elevation": 679.7,
            "mindate": "1977-08-01",
            "maxdate": "2007-12-01",
            "latitude": 37.25028,
            "name": "COARSEGOLD 1 SW, CA US",
            "datacoverage": 0.9589,
            "id": "COOP:041878",
            "elevationUnit": "METERS",
            "longitude": -119.70528
        },
        {
            "elevation": 732.1,
            "mindate": "1961-07-01",
            "maxdate": "1964-02-01",
            "latitude": 38.83333,
            "name": "COBB 2 NW, CA US",
            "datacoverage": 1,
            "id": "COOP:041882",
            "elevationUnit": "METERS",
            "longitude": -122.75
        },
        {
            "elevation": 762.9,
            "mindate": "1960-11-01",
            "maxdate": "2014-01-01",
            "latitude": 41.0894,
            "name": "COFFEE CREEK RANGER STATION, CA US",
            "datacoverage": 0.985,
            "id": "COOP:041886",
            "elevationUnit": "METERS",
            "longitude": -122.7086
        },
        {
            "elevation": 769,
            "mindate": "1960-11-01",
            "maxdate": "1961-08-01",
            "latitude": 39.91667,
            "name": "COHASSET, CA US",
            "datacoverage": 1,
            "id": "COOP:041890",
            "elevationUnit": "METERS",
            "longitude": -121.73333
        },
        {
            "elevation": 972.9,
            "mindate": "1962-01-01",
            "maxdate": "1977-06-01",
            "latitude": 39.93333,
            "name": "COHASSET 1 NNE, CA US",
            "datacoverage": 1,
            "id": "COOP:041891",
            "elevationUnit": "METERS",
            "longitude": -121.71667
        },
        {
            "elevation": 1122,
            "mindate": "1955-01-01",
            "maxdate": "1978-12-01",
            "latitude": 34.3,
            "name": "COLBYS FC 53D, CA US",
            "datacoverage": 1,
            "id": "COOP:041896",
            "elevationUnit": "METERS",
            "longitude": -118.11667
        },
        {
            "elevation": 1751.1,
            "mindate": "1951-06-01",
            "maxdate": "1952-10-01",
            "latitude": 38.16667,
            "name": "COLD SPRINGS CHALET, CA US",
            "datacoverage": 0.3519,
            "id": "COOP:041906",
            "elevationUnit": "METERS",
            "longitude": -120.05
        },
        {
            "elevation": 128,
            "mindate": "1943-11-01",
            "maxdate": "2015-11-01",
            "latitude": 40.4,
            "name": "COLEMAN FISHERIES STATION, CA US",
            "datacoverage": 0.9873,
            "id": "COOP:041907",
            "elevationUnit": "METERS",
            "longitude": -122.1433
        },
        {
            "elevation": 1556,
            "mindate": "1948-02-01",
            "maxdate": "1950-12-01",
            "latitude": 38.56667,
            "name": "COLEVILLE, CA US",
            "datacoverage": 0.9717,
            "id": "COOP:041909",
            "elevationUnit": "METERS",
            "longitude": -119.5
        },
        {
            "elevation": 1617,
            "mindate": "1951-01-01",
            "maxdate": "1952-12-01",
            "latitude": 38.51667,
            "name": "COLEVILLE 4 SE, CA US",
            "datacoverage": 0.9993,
            "id": "COOP:041911",
            "elevationUnit": "METERS",
            "longitude": -119.46667
        },
        {
            "elevation": 725.4,
            "mindate": "1931-01-01",
            "maxdate": "2015-11-01",
            "latitude": 39.0911,
            "name": "COLFAX, CA US",
            "datacoverage": 0.9843,
            "id": "COOP:041912",
            "elevationUnit": "METERS",
            "longitude": -120.948
        },
        {
            "elevation": 181.4,
            "mindate": "1931-01-01",
            "maxdate": "2015-11-01",
            "latitude": 39.3308,
            "name": "COLGATE POWERHOUSE, CA US",
            "datacoverage": 0.9892,
            "id": "COOP:041916",
            "elevationUnit": "METERS",
            "longitude": -121.1922
        },
        {
            "elevation": 18,
            "mindate": "1893-01-01",
            "maxdate": "1952-09-01",
            "latitude": 39.21667,
            "name": "COLUSA BRIDGE, CA US",
            "datacoverage": 0.8536,
            "id": "COOP:041945",
            "elevationUnit": "METERS",
            "longitude": -122
        },
        {
            "elevation": 15.2,
            "mindate": "1948-10-01",
            "maxdate": "2015-11-01",
            "latitude": 39.1875,
            "name": "COLUSA 2 SSW, CA US",
            "datacoverage": 0.9628,
            "id": "COOP:041948",
            "elevationUnit": "METERS",
            "longitude": -122.0269
        },
        {
            "elevation": 1007.1,
            "mindate": "1960-09-01",
            "maxdate": "1962-03-01",
            "latitude": 40.05,
            "name": "COLYEAR SPRINGS, CA US",
            "datacoverage": 1,
            "id": "COOP:041953",
            "elevationUnit": "METERS",
            "longitude": -122.68333
        },
        {
            "elevation": 6.1,
            "mindate": "1948-01-01",
            "maxdate": "1950-03-01",
            "latitude": 37.98333,
            "name": "CONCORD AIRPORT, CA US",
            "datacoverage": 1,
            "id": "COOP:041960",
            "elevationUnit": "METERS",
            "longitude": -122.01667
        },
        {
            "elevation": 78.9,
            "mindate": "1956-05-01",
            "maxdate": "1957-04-01",
            "latitude": 37.95,
            "name": "CONCORD 2 SE, CA US",
            "datacoverage": 0.9173,
            "id": "COOP:041961",
            "elevationUnit": "METERS",
            "longitude": -122
        },
        {
            "elevation": 59.4,
            "mindate": "1956-04-01",
            "maxdate": "1974-12-01",
            "latitude": 37.96667,
            "name": "CONCORD 3 E, CA US",
            "datacoverage": 0.9999,
            "id": "COOP:041962",
            "elevationUnit": "METERS",
            "longitude": -121.98333
        },
        {
            "elevation": 5.5,
            "mindate": "2000-09-01",
            "maxdate": "2015-11-01",
            "latitude": 37.9917,
            "name": "CONCORD BUCHANAN FIELD, CA US",
            "datacoverage": 1,
            "id": "COOP:041964",
            "elevationUnit": "METERS",
            "longitude": -122.055
        },
        {
            "elevation": 34.1,
            "mindate": "1956-09-01",
            "maxdate": "1958-06-12",
            "latitude": 37.96667,
            "name": "CONCORD 1 SE, CA US",
            "datacoverage": 0.0333,
            "id": "COOP:041965",
            "elevationUnit": "METERS",
            "longitude": -122.01667
        },
        {
            "elevation": 12.2,
            "mindate": "1991-09-01",
            "maxdate": "2015-11-01",
            "latitude": 37.9833,
            "name": "CONCORD WASTEWATER PLANT, CA US",
            "datacoverage": 0.9932,
            "id": "COOP:041967",
            "elevationUnit": "METERS",
            "longitude": -122.0692
        },
        {
            "elevation": 467,
            "mindate": "1960-10-01",
            "maxdate": "1977-06-01",
            "latitude": 38.88333,
            "name": "COOL, CA US",
            "datacoverage": 1,
            "id": "COOP:041985",
            "elevationUnit": "METERS",
            "longitude": -121.01667
        },
        {
            "elevation": 823.9,
            "mindate": "1959-05-01",
            "maxdate": "2015-11-01",
            "latitude": 41.9797,
            "name": "COPCO NUMBER 1 DAM, CA US",
            "datacoverage": 1,
            "id": "COOP:041990",
            "elevationUnit": "METERS",
            "longitude": -122.3378
        },
        {
            "elevation": 61,
            "mindate": "1948-01-01",
            "maxdate": "1956-02-01",
            "latitude": 36.1,
            "name": "CORCORAN, CA US",
            "datacoverage": 0.7729,
            "id": "COOP:042009",
            "elevationUnit": "METERS",
            "longitude": -119.55
        },
        {
            "elevation": 61,
            "mindate": "1945-01-01",
            "maxdate": "2015-11-01",
            "latitude": 36.0975,
            "name": "CORCORAN IRRIGATION DIST., CA US",
            "datacoverage": 0.9942,
            "id": "COOP:042012",
            "elevationUnit": "METERS",
            "longitude": -119.5817
        },
        {
            "elevation": 796.1,
            "mindate": "1956-01-01",
            "maxdate": "1961-05-01",
            "latitude": 38.85,
            "name": "CORDES, CA US",
            "datacoverage": 0.9843,
            "id": "COOP:042015",
            "elevationUnit": "METERS",
            "longitude": -122.78333
        },
        {
            "elevation": 148.4,
            "mindate": "1948-05-01",
            "maxdate": "1984-05-01",
            "latitude": 39.9,
            "name": "CORNING HOUGHTON RANCH, CA US",
            "datacoverage": 0.9699,
            "id": "COOP:042027",
            "elevationUnit": "METERS",
            "longitude": -122.35
        },
        {
            "elevation": 185.9,
            "mindate": "1931-01-01",
            "maxdate": "1988-07-01",
            "latitude": 33.88333,
            "name": "CORONA, CA US",
            "datacoverage": 1,
            "id": "COOP:042031",
            "elevationUnit": "METERS",
            "longitude": -117.55
        },
        {
            "elevation": 82.3,
            "mindate": "1958-04-01",
            "maxdate": "2014-01-01",
            "latitude": 36.9897,
            "name": "CORRALITOS, CA US",
            "datacoverage": 0.0198,
            "id": "COOP:042048",
            "elevationUnit": "METERS",
            "longitude": -121.805
        },
        {
            "elevation": 82.3,
            "mindate": "1948-01-01",
            "maxdate": "1958-04-01",
            "latitude": 36.9897,
            "name": "CORRALITOS, CA US",
            "datacoverage": 0.9783,
            "id": "COOP:042051",
            "elevationUnit": "METERS",
            "longitude": -121.805
        },
        {
            "elevation": 430.7,
            "mindate": "1935-09-01",
            "maxdate": "2014-12-01",
            "latitude": 39.8158,
            "name": "COVELO, CA US",
            "datacoverage": 0.9359,
            "id": "COOP:042081",
            "elevationUnit": "METERS",
            "longitude": -123.2444
        },
        {
            "elevation": 462.4,
            "mindate": "1940-01-01",
            "maxdate": "2014-01-01",
            "latitude": 39.8261,
            "name": "COVELO EEL RIVER RANGER STATION, CA US",
            "datacoverage": 0.532,
            "id": "COOP:042084",
            "elevationUnit": "METERS",
            "longitude": -123.085
        },
        {
            "elevation": 182.9,
            "mindate": "1943-01-01",
            "maxdate": "1949-05-01",
            "latitude": 34.06667,
            "name": "COVINA, CA US",
            "datacoverage": 1,
            "id": "COOP:042088",
            "elevationUnit": "METERS",
            "longitude": -117.86667
        },
        {
            "elevation": 185,
            "mindate": "1931-01-01",
            "maxdate": "2015-11-01",
            "latitude": 34.0918,
            "name": "COVINA CITY YARD FC387B, CA US",
            "datacoverage": 0.897,
            "id": "COOP:042090",
            "elevationUnit": "METERS",
            "longitude": -117.88012
        },
        {
            "elevation": -46,
            "mindate": "1934-07-01",
            "maxdate": "1961-04-01",
            "latitude": 36.53333,
            "name": "COW CREEK, CA US",
            "datacoverage": 0.9969,
            "id": "COOP:042092",
            "elevationUnit": "METERS",
            "longitude": -116.88333
        },
        {
            "elevation": 694.9,
            "mindate": "1945-12-01",
            "maxdate": "1963-06-01",
            "latitude": 33.43333,
            "name": "COYOTE CANYON, CA US",
            "datacoverage": 0.8912,
            "id": "COOP:042103",
            "elevationUnit": "METERS",
            "longitude": -116.5
        },