[
    {
        "metadata": {
            "resultset": {
                "offset": 1,
                "count": 4347,
                "limit": 1000
            }
        },
        "results": [
            {
                "elevation": 1950.7,
                "mindate": "1980-01-01",
                "maxdate": "2005-11-01",
                "latitude": 37.4011,
                "name": "AGUILAR, CO US",
                "datacoverage": 0.9775,
                "id": "COOP:050102",
                "elevationUnit": "METERS",
                "longitude": -104.6547
            },
            {
                "elevation": 2634.7,
                "mindate": "1997-06-01",
                "maxdate": "2015-11-01",
                "latitude": 37.3169,
                "name": "AGUILAR 18 WSW, CO US",
                "datacoverage": 0.9905,
                "id": "COOP:050105",
                "elevationUnit": "METERS",
                "longitude": -104.9504
            },
            {
                "elevation": 1384.4,
                "mindate": "1948-08-01",
                "maxdate": "2015-11-01",
                "latitude": 40.15507,
                "name": "AKRON 4 E, CO US",
                "datacoverage": 0.672,
                "id": "COOP:050109",
                "elevationUnit": "METERS",
                "longitude": -103.1418
            },
            {
                "elevation": 1421.3,
                "mindate": "1937-03-01",
                "maxdate": "1999-03-01",
                "latitude": 40.16667,
                "name": "AKRON WASHINGTON CO AIRPORT, CO US",
                "datacoverage": 0.9503,
                "id": "COOP:050114",
                "elevationUnit": "METERS",
                "longitude": -103.21667
            },
            {
                "elevation": 2298.2,
                "mindate": "2005-09-01",
                "maxdate": "2015-11-01",
                "latitude": 37.4702,
                "name": "ALAMOSA 1 E, CO US",
                "datacoverage": 0.984,
                "id": "COOP:050128",
                "elevationUnit": "METERS",
                "longitude": -105.8569
            },
            {
                "elevation": 2296.1,
                "mindate": "1948-01-01",
                "maxdate": "2015-11-01",
                "latitude": 37.4389,
                "name": "ALAMOSA BERGMAN FIELD, CO US",
                "datacoverage": 0.9976,
                "id": "COOP:050130",
                "elevationUnit": "METERS",
                "longitude": -105.8613
            },
            {
                "elevation": 2512.5,
                "mindate": "1944-11-01",
                "maxdate": "2014-01-01",
                "latitude": 40.188,
                "name": "ALLENSPARK 2 SE, CO US",
                "datacoverage": 0.9051,
                "id": "COOP:050183",
                "elevationUnit": "METERS",
                "longitude": -105.5019
            },
            {
                "elevation": 2590.8,
                "mindate": "1994-01-01",
                "maxdate": "2004-06-01",
                "latitude": 40.22889,
                "name": "ALLENSPARK 3 NW, CO US",
                "datacoverage": 0.9924,
                "id": "COOP:050185",
                "elevationUnit": "METERS",
                "longitude": -105.51833
            },
            {
                "elevation": 1718.2,
                "mindate": "1947-07-01",
                "maxdate": "2015-11-01",
                "latitude": 39.4992,
                "name": "ALTENBERN, CO US",
                "datacoverage": 0.9963,
                "id": "COOP:050214",
                "elevationUnit": "METERS",
                "longitude": -108.3809
            },
            {
                "elevation": 2651.8,
                "mindate": "1914-12-01",
                "maxdate": "1986-03-01",
                "latitude": 37.86667,
                "name": "AMES, CO US",
                "datacoverage": 0.9603,
                "id": "COOP:050228",
                "elevationUnit": "METERS",
                "longitude": -107.88333
            },
            {
                "elevation": 1598.1,
                "mindate": "1943-11-01",
                "maxdate": "1973-12-01",
                "latitude": 38.88333,
                "name": "AMY, CO US",
                "datacoverage": 0.9917,
                "id": "COOP:050242",
                "elevationUnit": "METERS",
                "longitude": -103.65
            },
            {
                "elevation": 2724.6,
                "mindate": "1961-06-01",
                "maxdate": "2015-11-01",
                "latitude": 38.99305,
                "name": "ANTERO RESERVOIR, CO US",
                "datacoverage": 0.997,
                "id": "COOP:050263",
                "elevationUnit": "METERS",
                "longitude": -105.89145
            },
            {
                "elevation": 1262.5,
                "mindate": "1992-03-01",
                "maxdate": "2007-01-01",
                "latitude": 39.0372,
                "name": "ARAPAHOE 14 N, CO US",
                "datacoverage": 0.9941,
                "id": "COOP:050301",
                "elevationUnit": "METERS",
                "longitude": -102.1675
            },
            {
                "elevation": 1225.3,
                "mindate": "1948-08-01",
                "maxdate": "2015-11-01",
                "latitude": 38.8528,
                "name": "ARAPAHOE, CO US",
                "datacoverage": 0.3416,
                "id": "COOP:050304",
                "elevationUnit": "METERS",
                "longitude": -102.1764
            },
            {
                "elevation": 1239,
                "mindate": "2003-07-01",
                "maxdate": "2015-11-01",
                "latitude": 38.6841,
                "name": "ARAPAHOE 12 S, CO US",
                "datacoverage": 0.9663,
                "id": "COOP:050306",
                "elevationUnit": "METERS",
                "longitude": -102.1614
            },
            {
                "elevation": 1890.7,
                "mindate": "2002-11-01",
                "maxdate": "2007-07-01",
                "latitude": 37.0236,
                "name": "ARBOLES 1 W, CO US",
                "datacoverage": 1,
                "id": "COOP:050310",
                "elevationUnit": "METERS",
                "longitude": -107.4372
            },
            {
                "elevation": 1460.9,
                "mindate": "1943-11-01",
                "maxdate": "1972-12-01",
                "latitude": 38.91667,
                "name": "AROYA 6 NE, CO US",
                "datacoverage": 0.9999,
                "id": "COOP:050343",
                "elevationUnit": "METERS",
                "longitude": -103.08333
            },
            {
                "elevation": 2416.5,
                "mindate": "1899-08-01",
                "maxdate": "1980-07-25",
                "latitude": 39.18333,
                "name": "ASPEN, CO US",
                "datacoverage": 0.6425,
                "id": "COOP:050370",
                "elevationUnit": "METERS",
                "longitude": -106.83333
            },
            {
                "elevation": 2491.7,
                "mindate": "1980-06-01",
                "maxdate": "2015-11-01",
                "latitude": 39.1852,
                "name": "ASPEN 1 SW, CO US",
                "datacoverage": 0.9859,
                "id": "COOP:050372",
                "elevationUnit": "METERS",
                "longitude": -106.838
            },
            {
                "elevation": 2353.1,
                "mindate": "2012-01-01",
                "maxdate": "2015-11-01",
                "latitude": 39.23,
                "name": "ASPEN PITKIN CO AIRPORT SARDY FIELD, CO US",
                "datacoverage": 1,
                "id": "COOP:050373",
                "elevationUnit": "METERS",
                "longitude": -106.87056
            },
            {
                "elevation": 2283.6,
                "mindate": "1981-08-01",
                "maxdate": "1989-10-01",
                "latitude": 39.63333,
                "name": "AVON, CO US",
                "datacoverage": 0.6766,
                "id": "COOP:050405",
                "elevationUnit": "METERS",
                "longitude": -106.51667
            },
            {
                "elevation": 2204.9,
                "mindate": "1944-01-01",
                "maxdate": "1970-03-01",
                "latitude": 39.01667,
                "name": "AYER RANCH, CO US",
                "datacoverage": 1,
                "id": "COOP:050437",
                "elevationUnit": "METERS",
                "longitude": -104.6
            },
            {
                "elevation": 2362.8,
                "mindate": "1938-03-01",
                "maxdate": "2015-11-01",
                "latitude": 39.4052,
                "name": "BAILEY, CO US",
                "datacoverage": 0.985,
                "id": "COOP:050454",
                "elevationUnit": "METERS",
                "longitude": -105.4765
            },
            {
                "elevation": 2019,
                "mindate": "1965-07-01",
                "maxdate": "1972-07-01",
                "latitude": 39.36667,
                "name": "BASALT, CO US",
                "datacoverage": 0.9644,
                "id": "COOP:050514",
                "elevationUnit": "METERS",
                "longitude": -107.03333
            },
            {
                "elevation": 1517.9,
                "mindate": "1997-01-01",
                "maxdate": "2005-04-01",
                "latitude": 38.3188,
                "name": "BEDROCK, CO US",
                "datacoverage": 1,
                "id": "COOP:050581",
                "elevationUnit": "METERS",
                "longitude": -108.8902
            },
            {
                "elevation": 1499.6,
                "mindate": "1988-02-01",
                "maxdate": "1988-02-20",
                "latitude": 38.35806,
                "name": "BEDROCK 4 NE, CO US",
                "datacoverage": 0.0065,
                "id": "COOP:050583",
                "elevationUnit": "METERS",
                "longitude": -108.83167
            },
            {
                "elevation": 1671.2,
                "mindate": "1989-01-01",
                "maxdate": "1995-01-01",
                "latitude": 39.75,
                "name": "BENNETT, CO US",
                "datacoverage": 0.6575,
                "id": "COOP:050620",
                "elevationUnit": "METERS",
                "longitude": -104.41667
            },
            {
                "elevation": 3448.2,
                "mindate": "1950-01-01",
                "maxdate": "1985-04-01",
                "latitude": 39.8,
                "name": "BERTHOUD PASS, CO US",
                "datacoverage": 0.6227,
                "id": "COOP:050674",
                "elevationUnit": "METERS",
                "longitude": -105.78333
            },
            {
                "elevation": 2484.4,
                "mindate": "2003-10-01",
                "maxdate": "2015-11-01",
                "latitude": 38.5547,
                "name": "BLACK CANYON OF THE GUNNISON, CO US",
                "datacoverage": 0.9863,
                "id": "COOP:050754",
                "elevationUnit": "METERS",
                "longitude": -107.6872
            },
            {
                "elevation": 2120.5,
                "mindate": "2010-04-01",
                "maxdate": "2015-11-01",
                "latitude": 39.0294,
                "name": "BLACK FOREST 6 WNW, CO US",
                "datacoverage": 0.9999,
                "id": "COOP:050756",
                "elevationUnit": "METERS",
                "longitude": -104.8018
            },
            {
                "elevation": 2349.7,
                "mindate": "1940-07-01",
                "maxdate": "2010-03-01",
                "latitude": 37.4787,
                "name": "BLANCA 4 NW, CO US",
                "datacoverage": 0.9773,
                "id": "COOP:050776",
                "elevationUnit": "METERS",
                "longitude": -105.5718
            },
            {
                "elevation": 2306.7,
                "mindate": "1967-11-01",
                "maxdate": "2015-11-01",
                "latitude": 38.4666,
                "name": "BLUE MESA LAKE, CO US",
                "datacoverage": 0.9532,
                "id": "COOP:050797",
                "elevationUnit": "METERS",
                "longitude": -107.1677
            },
            {
                "elevation": 2044,
                "mindate": "1958-11-01",
                "maxdate": "1974-12-01",
                "latitude": 39.88333,
                "name": "BOND, CO US",
                "datacoverage": 0.9948,
                "id": "COOP:050810",
                "elevationUnit": "METERS",
                "longitude": -106.68333
            },
            {
                "elevation": 3002.9,
                "mindate": "1963-07-01",
                "maxdate": "2015-11-01",
                "latitude": 39.1025,
                "name": "BONHAM RESERVOIR, CO US",
                "datacoverage": 0.7996,
                "id": "COOP:050825",
                "elevationUnit": "METERS",
                "longitude": -107.8988
            },
            {
                "elevation": 1132.9,
                "mindate": "1949-06-01",
                "maxdate": "2015-11-01",
                "latitude": 39.6567,
                "name": "BONNY DAM 2 NE, CO US",
                "datacoverage": 0.9862,
                "id": "COOP:050834",
                "elevationUnit": "METERS",
                "longitude": -102.1193
            },
            {
                "elevation": 1400.9,
                "mindate": "2002-03-01",
                "maxdate": "2007-04-01",
                "latitude": 38.1728,
                "name": "BOONE 6 SSW, CO US",
                "datacoverage": 0.9839,
                "id": "COOP:050837",
                "elevationUnit": "METERS",
                "longitude": -104.3082
            },
            {
                "elevation": 1461.2,
                "mindate": "2002-03-01",
                "maxdate": "2015-11-01",
                "latitude": 38.3719,
                "name": "BOONE 9 NNW, CO US",
                "datacoverage": 0.9817,
                "id": "COOP:050839",
                "elevationUnit": "METERS",
                "longitude": -104.30579
            },
            {
                "elevation": 1351.8,
                "mindate": "1980-07-01",
                "maxdate": "1986-05-01",
                "latitude": 38.21667,
                "name": "BOONE 2 SE, CO US",
                "datacoverage": 0.8169,
                "id": "COOP:050840",
                "elevationUnit": "METERS",
                "longitude": -104.23333
            },
            {
                "elevation": 1654.1,
                "mindate": "1948-08-01",
                "maxdate": "2014-01-01",
                "latitude": 40.03399,
                "name": "BOULDER 2, CO US",
                "datacoverage": 0.0252,
                "id": "COOP:050843",
                "elevationUnit": "METERS",
                "longitude": -105.28125
            },
            {
                "elevation": 1671.5,
                "mindate": "1931-01-01",
                "maxdate": "2015-11-01",
                "latitude": 39.9919,
                "name": "BOULDER, CO US",
                "datacoverage": 0.9824,
                "id": "COOP:050848",
                "elevationUnit": "METERS",
                "longitude": -105.2667
            },
            {
                "elevation": 1445.1,
                "mindate": "1981-01-01",
                "maxdate": "1981-09-01",
                "latitude": 38.91667,
                "name": "BOYERO 1 WSW, CO US",
                "datacoverage": 1,
                "id": "COOP:050884",
                "elevationUnit": "METERS",
                "longitude": -103.28333
            },
            {
                "elevation": 1196.3,
                "mindate": "1955-03-01",
                "maxdate": "1999-12-01",
                "latitude": 38.45972,
                "name": "BRANDON, CO US",
                "datacoverage": 0.9386,
                "id": "COOP:050895",
                "elevationUnit": "METERS",
                "longitude": -102.43611
            },
            {
                "elevation": 1914.1,
                "mindate": "1940-04-01",
                "maxdate": "1974-04-01",
                "latitude": 37.01667,
                "name": "BRANSON, CO US",
                "datacoverage": 0.9561,
                "id": "COOP:050898",
                "elevationUnit": "METERS",
                "longitude": -103.88333
            },
            {
                "elevation": 2925.5,
                "mindate": "1947-07-01",
                "maxdate": "2015-11-01",
                "latitude": 39.48637,
                "name": "BRECKENRIDGE, CO US",
                "datacoverage": 0.9914,
                "id": "COOP:050909",
                "elevationUnit": "METERS",
                "longitude": -106.04314
            },
            {
                "elevation": 1481.9,
                "mindate": "1948-08-01",
                "maxdate": "2011-12-01",
                "latitude": 40.63439,
                "name": "BRIGGSDALE, CO US",
                "datacoverage": 0.7371,
                "id": "COOP:050945",
                "elevationUnit": "METERS",
                "longitude": -104.32856
            },
            {
                "elevation": 1528.9,
                "mindate": "1973-10-01",
                "maxdate": "2015-11-01",
                "latitude": 39.9436,
                "name": "BRIGHTON 3 SE, CO US",
                "datacoverage": 0.9961,
                "id": "COOP:050950",
                "elevationUnit": "METERS",
                "longitude": -104.8361
            },
            {
                "elevation": 1631.9,
                "mindate": "1966-04-01",
                "maxdate": "1997-07-01",
                "latitude": 40.80083,
                "name": "BROWNS PARK REFUGE, CO US",
                "datacoverage": 0.9893,
                "id": "COOP:051017",
                "elevationUnit": "METERS",
                "longitude": -108.91722
            },
            {
                "elevation": 1696.8,
                "mindate": "2003-06-01",
                "maxdate": "2010-11-01",
                "latitude": 40.7838,
                "name": "BROWNS PARK STORE, CO US",
                "datacoverage": 0.922,
                "id": "COOP:051018",
                "elevationUnit": "METERS",
                "longitude": -108.8538
            },
            {
                "elevation": 1713,
                "mindate": "1997-08-01",
                "maxdate": "2002-01-01",
                "latitude": 40.86333,
                "name": "BROWNS PARK REFUGE, CO US",
                "datacoverage": 0.9807,
                "id": "COOP:051020",
                "elevationUnit": "METERS",
                "longitude": -109.0225
            },
            {
                "elevation": 2255.5,
                "mindate": "1988-08-01",
                "maxdate": "2015-11-01",
                "latitude": 40.6158,
                "name": "BUCKHORN MOUNTAIN 1 E, CO US",
                "datacoverage": 0.9787,
                "id": "COOP:051060",
                "elevationUnit": "METERS",
                "longitude": -105.2969
            },
            {
                "elevation": 2424.4,
                "mindate": "1931-01-01",
                "maxdate": "2015-11-01",
                "latitude": 38.8246,
                "name": "BUENA VISTA 2 S, CO US",
                "datacoverage": 0.9431,
                "id": "COOP:051071",
                "elevationUnit": "METERS",
                "longitude": -106.1276
            },
            {
                "elevation": 1268.6,
                "mindate": "1931-01-01",
                "maxdate": "2015-11-01",
                "latitude": 39.3062,
                "name": "BURLINGTON, CO US",
                "datacoverage": 0.9765,
                "id": "COOP:051121",
                "elevationUnit": "METERS",
                "longitude": -102.26085
            },
            {
                "elevation": 1289.9,
                "mindate": "1948-08-01",
                "maxdate": "1978-06-01",
                "latitude": 39.48333,
                "name": "BURLINGTON 12 NNE, CO US",
                "datacoverage": 0.0201,
                "id": "COOP:051126",
                "elevationUnit": "METERS",
                "longitude": -102.16667
            },
            {
                "elevation": 1478.9,
                "mindate": "1951-10-01",
                "maxdate": "1976-12-01",
                "latitude": 38.03333,
                "name": "BUTLER RANCH, CO US",
                "datacoverage": 0.9866,
                "id": "COOP:051157",
                "elevationUnit": "METERS",
                "longitude": -104.46667
            },
            {
                "elevation": 1554.8,
                "mindate": "1931-01-01",
                "maxdate": "2015-11-01",
                "latitude": 39.74062,
                "name": "BYERS 5 ENE, CO US",
                "datacoverage": 0.9951,
                "id": "COOP:051179",
                "elevationUnit": "METERS",
                "longitude": -104.12742
            },
            {
                "elevation": 3054.1,
                "mindate": "1968-01-01",
                "maxdate": "2015-11-01",
                "latitude": 39.6552,
                "name": "CABIN CREEK, CO US",
                "datacoverage": 0.9931,
                "id": "COOP:051186",
                "elevationUnit": "METERS",
                "longitude": -105.7088
            },
            {
                "elevation": 1251.2,
                "mindate": "1954-05-01",
                "maxdate": "2015-11-01",
                "latitude": 37.01029,
                "name": "CAMPO 7 S, CO US",
                "datacoverage": 0.9648,
                "id": "COOP:051268",
                "elevationUnit": "METERS",
                "longitude": -102.55367
            },
            {
                "elevation": 1639.2,
                "mindate": "1931-01-01",
                "maxdate": "2015-11-01",
                "latitude": 38.4599,
                "name": "CANON CITY, CO US",
                "datacoverage": 0.9627,
                "id": "COOP:051294",
                "elevationUnit": "METERS",
                "longitude": -105.2255
            },
            {
                "elevation": 2550,
                "mindate": "1962-12-01",
                "maxdate": "1970-06-01",
                "latitude": 40,
                "name": "CARIBOU RANCH, CO US",
                "datacoverage": 0.9123,
                "id": "COOP:051342",
                "elevationUnit": "METERS",
                "longitude": -105.51667
            },
            {
                "elevation": 1885.2,
                "mindate": "1948-08-01",
                "maxdate": "2015-11-01",
                "latitude": 39.4105,
                "name": "CASTLE ROCK, CO US",
                "datacoverage": 0.8082,
                "id": "COOP:051401",
                "elevationUnit": "METERS",
                "longitude": -104.9058
            },
            {
                "elevation": 1903.2,
                "mindate": "1898-01-01",
                "maxdate": "1994-06-01",
                "latitude": 38.9,
                "name": "CEDAREDGE, CO US",
                "datacoverage": 0.8981,
                "id": "COOP:051440",
                "elevationUnit": "METERS",
                "longitude": -107.93333
            },
            {
                "elevation": 2084.2,
                "mindate": "1996-12-01",
                "maxdate": "2015-11-01",
                "latitude": 38.90435,
                "name": "CEDAREDGE 3 E, CO US",
                "datacoverage": 0.9957,
                "id": "COOP:051443",
                "elevationUnit": "METERS",
                "longitude": -107.89125
            },
            {
                "elevation": 2338.7,
                "mindate": "1941-07-01",
                "maxdate": "2009-09-01",
                "latitude": 37.70667,
                "name": "CENTER 4 SSW, CO US",
                "datacoverage": 0.9804,
                "id": "COOP:051458",
                "elevationUnit": "METERS",
                "longitude": -106.14444
            },
            {
                "elevation": 2605.1,
                "mindate": "1976-05-01",
                "maxdate": "1977-09-01",
                "latitude": 39.8,
                "name": "CENTRAL CITY, CO US",
                "datacoverage": 0.0168,
                "id": "COOP:051467",
                "elevationUnit": "METERS",
                "longitude": -105.51667
            },
            {
                "elevation": 2509.4,
                "mindate": "2007-06-01",
                "maxdate": "2008-11-01",
                "latitude": 37.1637,
                "name": "CHAMA, CO US",
                "datacoverage": 0.9998,
                "id": "COOP:051520",
                "elevationUnit": "METERS",
                "longitude": -105.3705
            },
            {
                "elevation": 2097,
                "mindate": "1931-01-01",
                "maxdate": "2015-11-01",
                "latitude": 39.2202,
                "name": "CHEESMAN, CO US",
                "datacoverage": 0.9961,
                "id": "COOP:051528",
                "elevationUnit": "METERS",
                "longitude": -105.2783
            },
            {
                "elevation": 1264,
                "mindate": "1948-08-01",
                "maxdate": "2015-11-01",
                "latitude": 38.115,
                "name": "CHERAW 1 N, CO US",
                "datacoverage": 0.3688,
                "id": "COOP:051539",
                "elevationUnit": "METERS",
                "longitude": -103.51
            },
            {
                "elevation": 1721.2,
                "mindate": "1951-11-01",
                "maxdate": "2009-03-01",
                "latitude": 39.6261,
                "name": "CHERRY CREEK DAM, CO US",
                "datacoverage": 0.9824,
                "id": "COOP:051547",
                "elevationUnit": "METERS",
                "longitude": -104.8319
            },
            {
                "elevation": 1281.1,
                "mindate": "1931-01-01",
                "maxdate": "2015-11-01",
                "latitude": 38.85753,
                "name": "CHEYENNE WELLS 2 NE, CO US",
                "datacoverage": 0.9951,
                "id": "COOP:051564",
                "elevationUnit": "METERS",
                "longitude": -102.3329
            },
            {
                "elevation": 2100.1,
                "mindate": "1951-10-01",
                "maxdate": "2015-11-01",
                "latitude": 38.4432,
                "name": "CIMARRON, CO US",
                "datacoverage": 0.9844,
                "id": "COOP:051609",
                "elevationUnit": "METERS",
                "longitude": -107.557
            },
            {
                "elevation": 1243.9,
                "mindate": "2005-12-01",
                "maxdate": "2015-11-01",
                "latitude": 40.39644,
                "name": "CLARKVILLE 4 W, CO US",
                "datacoverage": 0.9751,
                "id": "COOP:051620",
                "elevationUnit": "METERS",
                "longitude": -102.69662
            },
            {
                "elevation": 3457.7,
                "mindate": "1949-08-01",
                "maxdate": "2015-11-01",
                "latitude": 39.3671,
                "name": "CLIMAX, CO US",
                "datacoverage": 0.9975,
                "id": "COOP:051660",
                "elevationUnit": "METERS",
                "longitude": -106.1898
            },
            {
                "elevation": 2728,
                "mindate": "1994-10-01",
                "maxdate": "2015-11-01",
                "latitude": 39.8958,
                "name": "COAL CREEK CANYON, CO US",
                "datacoverage": 0.9882,
                "id": "COOP:051681",
                "elevationUnit": "METERS",
                "longitude": -105.3847
            },
            {
                "elevation": 1988.8,
                "mindate": "1948-08-01",
                "maxdate": "1975-01-01",
                "latitude": 38.38333,
                "name": "COALDALE 1 NW, CO US",
                "datacoverage": 0.0264,
                "id": "COOP:051693",
                "elevationUnit": "METERS",
                "longitude": -105.78333
            },
            {
                "elevation": 2440.2,
                "mindate": "1947-11-01",
                "maxdate": "2015-11-01",
                "latitude": 38.44313,
                "name": "COCHETOPA CREEK, CO US",
                "datacoverage": 1,
                "id": "COOP:051713",
                "elevationUnit": "METERS",
                "longitude": -106.76156
            },
            {
                "elevation": 1822.7,
                "mindate": "1893-01-01",
                "maxdate": "1999-12-01",
                "latitude": 39.2425,
                "name": "COLLBRAN, CO US",
                "datacoverage": 0.9229,
                "id": "COOP:051741",
                "elevationUnit": "METERS",
                "longitude": -107.96306
            },
            {
                "elevation": 1831.5,
                "mindate": "2000-02-01",
                "maxdate": "2015-11-01",
                "latitude": 39.2366,
                "name": "COLLBRAN 1 WSW, CO US",
                "datacoverage": 1,
                "id": "COOP:051743",
                "elevationUnit": "METERS",
                "longitude": -107.9797
            },
            {
                "elevation": 1762,
                "mindate": "1940-03-01",
                "maxdate": "2015-11-01",
                "latitude": 39.1013,
                "name": "COLORADO NATIONAL MONUMENT, CO US",
                "datacoverage": 0.9879,
                "id": "COOP:051772",
                "elevationUnit": "METERS",
                "longitude": -108.7338
            },
            {
                "elevation": 1884,
                "mindate": "1948-07-01",
                "maxdate": "2015-11-01",
                "latitude": 38.81,
                "name": "COLORADO SPRINGS MUNICIPAL AIRPORT, CO US",
                "datacoverage": 0.9988,
                "id": "COOP:051778",
                "elevationUnit": "METERS",
                "longitude": -104.6884
            },
            {
                "elevation": 1825.8,
                "mindate": "2008-01-01",
                "maxdate": "2012-12-01",
                "latitude": 38.825,
                "name": "COLORADO SPRINGS FIRE DEPARTMENT COMPLEX, CO US",
                "datacoverage": 0.933,
                "id": "COOP:051780",
                "elevationUnit": "METERS",
                "longitude": -104.7586
            },
            {
                "elevation": 2021.7,
                "mindate": "2008-01-01",
                "maxdate": "2015-11-01",
                "latitude": 38.92861,
                "name": "COLORADO SPRINGS FIRE STATION 18, CO US",
                "datacoverage": 0.9791,
                "id": "COOP:051781",
                "elevationUnit": "METERS",
                "longitude": -104.86611
            },
            {
                "elevation": 2064.7,
                "mindate": "2007-12-01",
                "maxdate": "2015-10-01",
                "latitude": 38.96028,
                "name": "COLORADO SPRINGS FIRE STATION 19, CO US",
                "datacoverage": 0.9788,
                "id": "COOP:051782",
                "elevationUnit": "METERS",
                "longitude": -104.78056
            },
            {
                "elevation": 2047.6,
                "mindate": "2007-12-01",
                "maxdate": "2015-11-01",
                "latitude": 38.92944,
                "name": "COLORADO SPRINGS FIRE STATION 20, CO US",
                "datacoverage": 0.9583,
                "id": "COOP:051784",
                "elevationUnit": "METERS",
                "longitude": -104.75278
            },
            {
                "elevation": 2901.1,
                "mindate": "1998-08-01",
                "maxdate": "2004-12-01",
                "latitude": 39.2877,
                "name": "COMO 4 SE, CO US",
                "datacoverage": 0.9735,
                "id": "COOP:051809",
                "elevationUnit": "METERS",
                "longitude": -105.8272
            },
            {
                "elevation": 2895.6,
                "mindate": "1997-11-01",
                "maxdate": "1997-11-01",
                "latitude": 39.16028,
                "name": "COMO 13 SSE, CO US",
                "datacoverage": 1,
                "id": "COOP:051811",
                "elevationUnit": "METERS",
                "longitude": -105.79444
            },
            {
                "elevation": 2370.1,
                "mindate": "1965-02-01",
                "maxdate": "1981-04-20",
                "latitude": 39.53333,
                "name": "CONIFER 3 NE, CO US",
                "datacoverage": 0.0253,
                "id": "COOP:051826",
                "elevationUnit": "METERS",
                "longitude": -105.26667
            },
            {
                "elevation": 2895.6,
                "mindate": "1997-03-01",
                "maxdate": "2004-02-01",
                "latitude": 39.525,
                "name": "CONIFER 8 W, CO US",
                "datacoverage": 0.9642,
                "id": "COOP:051829",
                "elevationUnit": "METERS",
                "longitude": -105.36306
            },
            {
                "elevation": 1879.7,
                "mindate": "1911-04-01",
                "maxdate": "2015-11-01",
                "latitude": 37.3444,
                "name": "CORTEZ, CO US",
                "datacoverage": 0.8264,
                "id": "COOP:051886",
                "elevationUnit": "METERS",
                "longitude": -108.595
            },
            {
                "elevation": 1801.4,
                "mindate": "2012-01-01",
                "maxdate": "2015-11-01",
                "latitude": 37.30694,
                "name": "CORTEZ MONTEZUMA CO AIRPORT, CO US",
                "datacoverage": 1,
                "id": "COOP:051887",
                "elevationUnit": "METERS",
                "longitude": -108.62639
            },
            {
                "elevation": 1914.1,
                "mindate": "1936-05-01",
                "maxdate": "1976-10-01",
                "latitude": 40.53333,
                "name": "CRAIG, CO US",
                "datacoverage": 0.969,
                "id": "COOP:051928",
                "elevationUnit": "METERS",
                "longitude": -107.55
            },
            {
                "elevation": 1886.7,
                "mindate": "2012-01-01",
                "maxdate": "2015-11-01",
                "latitude": 40.49278,
                "name": "CRAIG MOFFAT CO AIRPORT, CO US",
                "datacoverage": 1,
                "id": "COOP:051931",
                "elevationUnit": "METERS",
                "longitude": -107.52417
            },
            {
                "elevation": 1980,
                "mindate": "1977-05-01",
                "maxdate": "2015-11-01",
                "latitude": 40.45155,
                "name": "CRAIG 4 SW, CO US",
                "datacoverage": 0.9978,
                "id": "COOP:051932",
                "elevationUnit": "METERS",
                "longitude": -107.5906
            },
            {
                "elevation": 2698.1,
                "mindate": "1978-06-01",
                "maxdate": "2006-08-01",
                "latitude": 37.853,
                "name": "CREEDE, CO US",
                "datacoverage": 0.6135,
                "id": "COOP:051939",
                "elevationUnit": "METERS",
                "longitude": -106.9252
            },
            {
                "elevation": 2698.1,
                "mindate": "1983-06-01",
                "maxdate": "1993-12-01",
                "latitude": 37.85,
                "name": "CREEDE, CO US",
                "datacoverage": 0.7714,
                "id": "COOP:051944",
                "elevationUnit": "METERS",
                "longitude": -106.91667
            },
            {
                "elevation": 2750.8,
                "mindate": "1989-01-01",
                "maxdate": "1990-03-01",
                "latitude": 37.85,
                "name": "CREEDE 1 W, CO US",
                "datacoverage": 1,
                "id": "COOP:051946",
                "elevationUnit": "METERS",
                "longitude": -106.93333
            },
            {
                "elevation": 2628.6,
                "mindate": "2007-02-01",
                "maxdate": "2015-11-01",
                "latitude": 37.8255,
                "name": "CREEDE WATER TREATMENT, CO US",
                "datacoverage": 1,
                "id": "COOP:051948",
                "elevationUnit": "METERS",
                "longitude": -106.9319
            },
            {
                "elevation": 2702.7,
                "mindate": "1894-06-01",
                "maxdate": "2015-11-01",
                "latitude": 38.8738,
                "name": "CRESTED BUTTE, CO US",
                "datacoverage": 0.9513,
                "id": "COOP:051959",
                "elevationUnit": "METERS",
                "longitude": -106.9772
            },
            {
                "elevation": 2439.6,
                "mindate": "1982-03-01",
                "maxdate": "2015-11-01",
                "latitude": 37.9806,
                "name": "CRESTONE 2 SE, CO US",
                "datacoverage": 0.9925,
                "id": "COOP:051964",
                "elevationUnit": "METERS",
                "longitude": -105.6897
            },
            {
                "elevation": 2910.8,
                "mindate": "1939-01-01",
                "maxdate": "2003-01-01",
                "latitude": 38.74972,
                "name": "CRIPPLE CREEK, CO US",
                "datacoverage": 0.2328,
                "id": "COOP:051973",
                "elevationUnit": "METERS",
                "longitude": -105.17972
            },
            {
                "elevation": 2814.8,
                "mindate": "2005-12-01",
                "maxdate": "2015-11-01",
                "latitude": 38.7955,
                "name": "CRIPPLE CREEK 3 NNW, CO US",
                "datacoverage": 0.9918,
                "id": "COOP:051977",
                "elevationUnit": "METERS",
                "longitude": -105.2004
            },
            {
                "elevation": 2560.9,
                "mindate": "1948-08-01",
                "maxdate": "1974-11-01",
                "latitude": 38.9127,
                "name": "FLORISSANT FOSSIL BED, CO US",
                "datacoverage": 0.032,
                "id": "COOP:051978",
                "elevationUnit": "METERS",
                "longitude": -105.2849
            },
            {
                "elevation": 1130.5,
                "mindate": "1996-03-01",
                "maxdate": "2015-11-01",
                "latitude": 40.86,
                "name": "CROOK, CO US",
                "datacoverage": 1,
                "id": "COOP:051996",
                "elevationUnit": "METERS",
                "longitude": -102.803
            },
            {
                "elevation": 1563.9,
                "mindate": "1980-10-01",
                "maxdate": "1983-03-01",
                "latitude": 37.38333,
                "name": "CROWDER RANCH, CO US",
                "datacoverage": 1,
                "id": "COOP:052000",
                "elevationUnit": "METERS",
                "longitude": -103.88333
            },
            {
                "elevation": 1781.6,
                "mindate": "1948-08-01",
                "maxdate": "1988-05-01",
                "latitude": 37.75,
                "name": "CUCHARAS DAM, CO US",
                "datacoverage": 0.0177,
                "id": "COOP:052040",
                "elevationUnit": "METERS",
                "longitude": -104.6
            },
            {
                "elevation": 1830.9,
                "mindate": "1982-11-01",
                "maxdate": "1984-09-01",
                "latitude": 37.78333,
                "name": "CUCHARAS DAM 4 NW, CO US",
                "datacoverage": 0.0072,
                "id": "COOP:052042",
                "elevationUnit": "METERS",
                "longitude": -104.66667
            },
            {
                "elevation": 1980.9,
                "mindate": "1981-07-01",
                "maxdate": "1993-11-01",
                "latitude": 39.25,
                "name": "DECKERS, CO US",
                "datacoverage": 0.0125,
                "id": "COOP:052140",
                "elevationUnit": "METERS",
                "longitude": -105.23333
            },
            {
                "elevation": 1554.5,
                "mindate": "1948-08-01",
                "maxdate": "2001-08-01",
                "latitude": 39.64194,
                "name": "DEER TRAIL 3 NW, CO US",
                "datacoverage": 0.1741,
                "id": "COOP:052162",
                "elevationUnit": "METERS",
                "longitude": -104.0775
            },
            {
                "elevation": 1552,
                "mindate": "1954-02-01",
                "maxdate": "1980-09-01",
                "latitude": 37.63333,
                "name": "DELHI, CO US",
                "datacoverage": 0.9626,
                "id": "COOP:052178",
                "elevationUnit": "METERS",
                "longitude": -104.01667
            },
            {
                "elevation": 2391.2,
                "mindate": "1893-01-01",
                "maxdate": "2015-11-01",
                "latitude": 37.69099,
                "name": "DEL NORTE 3 ENE, CO US",
                "datacoverage": 0.7661,
                "id": "COOP:052184",
                "elevationUnit": "METERS",
                "longitude": -106.30791
            },
            {
                "elevation": 1502.7,
                "mindate": "1931-01-01",
                "maxdate": "1999-12-01",
                "latitude": 38.7531,
                "name": "DELTA, CO US",
                "datacoverage": 0.9432,
                "id": "COOP:052192",
                "elevationUnit": "METERS",
                "longitude": -108.0783
            },
            {
                "elevation": 1532.2,
                "mindate": "2000-01-01",
                "maxdate": "2015-11-01",
                "latitude": 38.7538,
                "name": "DELTA 3 E, CO US",
                "datacoverage": 1,
                "id": "COOP:052196",
                "elevationUnit": "METERS",
                "longitude": -108.0277
            },
            {
                "elevation": 1650.2,
                "mindate": "1995-03-01",
                "maxdate": "2015-11-01",
                "latitude": 39.8328,
                "name": "DENVER INTERNATIONAL AIRPORT, CO US",
                "datacoverage": 0.9919,
                "id": "COOP:052211",
                "elevationUnit": "METERS",
                "longitude": -104.6575
            },
            {
                "elevation": 1599.9,
                "mindate": "2005-11-01",
                "maxdate": "2015-11-01",
                "latitude": 39.7263,
                "name": "DENVER 1 SW 7NEWS, CO US",
                "datacoverage": 1,
                "id": "COOP:052213",
                "elevationUnit": "METERS",
                "longitude": -104.985
            },
            {
                "elevation": 1610.6,
                "mindate": "1948-01-01",
                "maxdate": "2015-11-01",
                "latitude": 39.76746,
                "name": "DENVER STAPLETON, CO US",
                "datacoverage": 0.9963,
                "id": "COOP:052220",
                "elevationUnit": "METERS",
                "longitude": -104.86948
            },
            {
                "elevation": 1593.5,
                "mindate": "1997-11-01",
                "maxdate": "2015-11-01",
                "latitude": 39.7294,
                "name": "DENVER WATER DEPARTMENT, CO US",
                "datacoverage": 0.9955,
                "id": "COOP:052223",
                "elevationUnit": "METERS",
                "longitude": -105.0083
            },
            {
                "elevation": 1623.1,
                "mindate": "1948-08-01",
                "maxdate": "1975-02-01",
                "latitude": 39.75,
                "name": "DENVER WEATHER SERVICE OFFICE CITY, CO US",
                "datacoverage": 1,
                "id": "COOP:052225",
                "elevationUnit": "METERS",
                "longitude": -104.98333
            },
            {
                "elevation": 1617.6,
                "mindate": "2010-05-01",
                "maxdate": "2015-11-01",
                "latitude": 39.7489,
                "name": "DENVER MUSEUM, CO US",
                "datacoverage": 0.9997,
                "id": "COOP:052228",
                "elevationUnit": "METERS",
                "longitude": -104.9425
            },
            {
                "elevation": 2763,
                "mindate": "1931-01-01",
                "maxdate": "2015-11-01",
                "latitude": 39.6261,
                "name": "DILLON 1 E, CO US",
                "datacoverage": 0.9971,
                "id": "COOP:052281",
                "elevationUnit": "METERS",
                "longitude": -106.0353
            },
            {
                "elevation": 1816.6,
                "mindate": "1965-06-01",
                "maxdate": "2014-12-01",
                "latitude": 40.2441,
                "name": "DINOSAUR NATIONAL MONUMNT, CO US",
                "datacoverage": 0.9916,
                "id": "COOP:052286",
                "elevationUnit": "METERS",
                "longitude": -108.9726
            },
            {
                "elevation": 2784,
                "mindate": "2011-01-01",
                "maxdate": "2015-11-01",
                "latitude": 38.9608,
                "name": "DIVIDE 4 NW, CO US",
                "datacoverage": 1,
                "id": "COOP:052294",
                "elevationUnit": "METERS",
                "longitude": -105.2158
            },
            {
                "elevation": 1563.6,
                "mindate": "1940-02-01",
                "maxdate": "1980-09-01",
                "latitude": 37.38333,
                "name": "DOHERTY RANCH, CO US",
                "datacoverage": 0.998,
                "id": "COOP:052312",
                "elevationUnit": "METERS",
                "longitude": -103.88333
            },
            {
                "elevation": 2118.4,
                "mindate": "1947-07-01",
                "maxdate": "2004-11-01",
                "latitude": 37.47528,
                "name": "DOLORES, CO US",
                "datacoverage": 0.9927,
                "id": "COOP:052326",
                "elevationUnit": "METERS",
                "longitude": -108.4975
            },
            {
                "elevation": 2091.8,
                "mindate": "2003-02-01",
                "maxdate": "2013-12-01",
                "latitude": 37.7672,
                "name": "DOVE CREEK, CO US",
                "datacoverage": 1,
                "id": "COOP:052342",
                "elevationUnit": "METERS",
                "longitude": -108.9119
            },
            {
                "elevation": 1880.6,
                "mindate": "1975-02-01",
                "maxdate": "2014-01-01",
                "latitude": 40.4333,
                "name": "DRAKE, CO US",
                "datacoverage": 0.0126,
                "id": "COOP:052354",
                "elevationUnit": "METERS",
                "longitude": -105.3394
            },
            {
                "elevation": 2011.7,
                "mindate": "1894-10-01",
                "maxdate": "1991-03-01",
                "latitude": 37.28333,
                "name": "DURANGO, CO US",
                "datacoverage": 0.9992,
                "id": "COOP:052432",
                "elevationUnit": "METERS",
                "longitude": -107.88333
            },
            {
                "elevation": 2033,
                "mindate": "2012-01-01",
                "maxdate": "2015-11-01",
                "latitude": 37.14306,
                "name": "DURANGO LA PLATA CO AIRPORT, CO US",
                "datacoverage": 1,
                "id": "COOP:052433",
                "elevationUnit": "METERS",
                "longitude": -107.76028
            },
            {
                "elevation": 2060.8,
                "mindate": "1991-10-01",
                "maxdate": "2015-11-01",
                "latitude": 37.2911,
                "name": "DURANGO, CO US",
                "datacoverage": 0.9758,
                "id": "COOP:052441",
                "elevationUnit": "METERS",
                "longitude": -107.8563
            },
            {
                "elevation": 1283.8,
                "mindate": "1924-01-01",
                "maxdate": "2015-11-01",
                "latitude": 38.4759,
                "name": "EADS, CO US",
                "datacoverage": 0.961,
                "id": "COOP:052446",
                "elevationUnit": "METERS",
                "longitude": -102.777
            },
            {
                "elevation": 1980.3,
                "mindate": "1942-05-01",
                "maxdate": "1994-07-01",
                "latitude": 39.65,
                "name": "EAGLE CO AIRPORT, CO US",
                "datacoverage": 0.9952,
                "id": "COOP:052454",
                "elevationUnit": "METERS",
                "longitude": -106.91667
            },
            {
                "elevation": 2197.6,
                "mindate": "1956-04-01",
                "maxdate": "2015-11-01",
                "latitude": 39.1091,
                "name": "EASTONVILLE 2 NNW, CO US",
                "datacoverage": 0.9833,
                "id": "COOP:052494",
                "elevationUnit": "METERS",
                "longitude": -104.5997
            },
            {
                "elevation": 1204.9,
                "mindate": "1948-08-01",
                "maxdate": "2014-01-01",
                "latitude": 40.1097,
                "name": "ECKLEY, CO US",
                "datacoverage": 0.0199,
                "id": "COOP:052535",
                "elevationUnit": "METERS",
                "longitude": -102.4906
            },
            {
                "elevation": 1186.6,
                "mindate": "1998-04-01",
                "maxdate": "2003-08-01",
                "latitude": 40.33694,
                "name": "ECKLEY 14 N, CO US",
                "datacoverage": 0.9997,
                "id": "COOP:052538",
                "elevationUnit": "METERS",
                "longitude": -102.5275
            },
            {
                "elevation": 1192.4,
                "mindate": "2004-03-01",
                "maxdate": "2005-09-01",
                "latitude": 40.3363,
                "name": "ECKLEY 16 NNW, CO US",
                "datacoverage": 0.9988,
                "id": "COOP:052540",
                "elevationUnit": "METERS",
                "longitude": -102.5258
            },
            {
                "elevation": 2055.9,
                "mindate": "1962-04-01",
                "maxdate": "1980-03-01",
                "latitude": 39.21667,
                "name": "ELBERT, CO US",
                "datacoverage": 0.9953,
                "id": "COOP:052593",
                "elevationUnit": "METERS",
                "longitude": -104.55
            },
            {
                "elevation": 2562.1,
                "mindate": "1959-01-01",
                "maxdate": "1976-07-01",
                "latitude": 37.55,
                "name": "ELECTRA LAKE, CO US",
                "datacoverage": 0.9005,
                "id": "COOP:052624",
                "elevationUnit": "METERS",
                "longitude": -107.8
            },
            {
                "elevation": 2015,
                "mindate": "1996-09-01",
                "maxdate": "2012-12-01",
                "latitude": 39.38039,
                "name": "ELIZABETH 2 NW, CO US",
                "datacoverage": 0.852,
                "id": "COOP:052631",
                "elevationUnit": "METERS",
                "longitude": -104.62878
            },
            {
                "elevation": 2067.8,
                "mindate": "2015-01-01",
                "maxdate": "2015-11-01",
                "latitude": 39.258,
                "name": "ELIZABETH 7 S, CO US",
                "datacoverage": 1,
                "id": "COOP:052632",
                "elevationUnit": "METERS",
                "longitude": -104.6091
            },
            {
                "elevation": 1836.1,
                "mindate": "1967-05-01",
                "maxdate": "1976-10-01",
                "latitude": 38.83333,
                "name": "ELLICOTT, CO US",
                "datacoverage": 0.0185,
                "id": "COOP:052667",
                "elevationUnit": "METERS",
                "longitude": -104.33333
            },
            {
                "elevation": 1749.2,
                "mindate": "2010-02-01",
                "maxdate": "2015-11-01",
                "latitude": 38.7402,
                "name": "ELLICOTT 7 S, CO US",
                "datacoverage": 1,
                "id": "COOP:052668",
                "elevationUnit": "METERS",
                "longitude": -104.3994
            },
            {
                "elevation": 1527,
                "mindate": "1976-05-01",
                "maxdate": "1977-08-27",
                "latitude": 40.05,
                "name": "ERIE, CO US",
                "datacoverage": 0.0115,
                "id": "COOP:052731",
                "elevationUnit": "METERS",
                "longitude": -105.05
            },
            {
                "elevation": 2279.9,
                "mindate": "1931-01-01",
                "maxdate": "1994-05-31",
                "latitude": 40.37667,
                "name": "ESTES PARK, CO US",
                "datacoverage": 0.9856,
                "id": "COOP:052759",
                "elevationUnit": "METERS",
                "longitude": -105.48583
            },
            {
                "elevation": 2381.1,
                "mindate": "2001-08-01",
                "maxdate": "2015-11-01",
                "latitude": 40.34875,
                "name": "ESTES PARK 3 SSE, CO US",
                "datacoverage": 1,
                "id": "COOP:052761",
                "elevationUnit": "METERS",
                "longitude": -105.52
            },
            {
                "elevation": 2129,
                "mindate": "1961-06-01",
                "maxdate": "2015-11-01",
                "latitude": 39.638,
                "name": "EVERGREEN, CO US",
                "datacoverage": 0.9862,
                "id": "COOP:052790",
                "elevationUnit": "METERS",
                "longitude": -105.315
            },
            {
                "elevation": 3046.5,
                "mindate": "2002-06-01",
                "maxdate": "2015-11-01",
                "latitude": 39.2219,
                "name": "FAIRPLAY S PARK RD, CO US",
                "datacoverage": 0.9629,
                "id": "COOP:052816",
                "elevationUnit": "METERS",
                "longitude": -105.9936
            },
            {
                "elevation": 1499.9,
                "mindate": "1949-05-01",
                "maxdate": "2015-11-01",
                "latitude": 39.28135,
                "name": "FLAGLER 1 S, CO US",
                "datacoverage": 0.9849,
                "id": "COOP:052932",
                "elevationUnit": "METERS",
                "longitude": -103.06207
            },
            {
                "elevation": 1485.9,
                "mindate": "2004-03-01",
                "maxdate": "2007-02-01",
                "latitude": 39.5211,
                "name": "FLAGLER 16 NNW, CO US",
                "datacoverage": 1,
                "id": "COOP:052933",
                "elevationUnit": "METERS",
                "longitude": -103.133
            },
            {
                "elevation": 1677.6,
                "mindate": "1996-11-01",
                "maxdate": "2015-11-01",
                "latitude": 40.3692,
                "name": "FLATIRON RESERVOIR, CO US",
                "datacoverage": 0.9914,
                "id": "COOP:052934",
                "elevationUnit": "METERS",
                "longitude": -105.2353
            },
            {
                "elevation": 1292.4,
                "mindate": "1941-07-01",
                "maxdate": "1998-10-01",
                "latitude": 40.68444,
                "name": "FLEMING, CO US",
                "datacoverage": 0.984,
                "id": "COOP:052944",
                "elevationUnit": "METERS",
                "longitude": -102.83972
            },
            {
                "elevation": 1297.2,
                "mindate": "1998-04-01",
                "maxdate": "2015-11-01",
                "latitude": 40.6483,
                "name": "FLEMING 3 SW, CO US",
                "datacoverage": 0.9764,
                "id": "COOP:052947",
                "elevationUnit": "METERS",
                "longitude": -102.8594
            },
            {
                "elevation": 2560.9,
                "mindate": "1974-10-01",
                "maxdate": "2015-11-01",
                "latitude": 38.9127,
                "name": "FLORISSANT FOSSIL BED, CO US",
                "datacoverage": 0.9908,
                "id": "COOP:052965",
                "elevationUnit": "METERS",
                "longitude": -105.2849
            },
            {
                "elevation": 1457.9,
                "mindate": "1932-01-01",
                "maxdate": "1980-07-01",
                "latitude": 38.55,
                "name": "FORDER 8 S, CO US",
                "datacoverage": 0.799,
                "id": "COOP:052997",
                "elevationUnit": "METERS",
                "longitude": -103.68333
            },
            {
                "elevation": 1779.4,
                "mindate": "1981-02-01",
                "maxdate": "2003-12-01",
                "latitude": 38.67833,
                "name": "FORT CARSON BUTTS ARMY AIR FIELD, CO US",
                "datacoverage": 0.9711,
                "id": "COOP:053002",
                "elevationUnit": "METERS",
                "longitude": -104.75667
            },
            {
                "elevation": 1525.2,
                "mindate": "1931-01-01",
                "maxdate": "2015-11-01",
                "latitude": 40.5763,
                "name": "FORT COLLINS, CO US",
                "datacoverage": 0.999,
                "id": "COOP:053005",
                "elevationUnit": "METERS",
                "longitude": -105.0857
            },
            {
                "elevation": 1499.6,
                "mindate": "1994-09-01",
                "maxdate": "2015-11-01",
                "latitude": 40.5756,
                "name": "FORT COLLINS 4 E, CO US",
                "datacoverage": 1,
                "id": "COOP:053006",
                "elevationUnit": "METERS",
                "longitude": -105.0236
            },
            {
                "elevation": 1591.1,
                "mindate": "1975-02-01",
                "maxdate": "2014-01-01",
                "latitude": 40.6647,
                "name": "FORT COLLINS 9 NW, CO US",
                "datacoverage": 0.0132,
                "id": "COOP:053007",
                "elevationUnit": "METERS",
                "longitude": -105.2233
            },
            {
                "elevation": 2320.7,
                "mindate": "1931-01-01",
                "maxdate": "2015-11-01",
                "latitude": 37.2309,
                "name": "FORT LEWIS, CO US",
                "datacoverage": 0.9873,
                "id": "COOP:053016",
                "elevationUnit": "METERS",
                "longitude": -108.0514
            },
            {
                "elevation": 1531,
                "mindate": "1931-01-01",
                "maxdate": "1976-03-01",
                "latitude": 40.06667,
                "name": "FORT LUPTON 2 SE, CO US",
                "datacoverage": 0.9632,
                "id": "COOP:053027",
                "elevationUnit": "METERS",
                "longitude": -104.78333
            },
            {
                "elevation": 1333.8,
                "mindate": "1931-01-01",
                "maxdate": "2015-11-01",
                "latitude": 40.25694,
                "name": "FORT MORGAN, CO US",
                "datacoverage": 0.9245,
                "id": "COOP:053038",
                "elevationUnit": "METERS",
                "longitude": -103.86987
            },
            {
                "elevation": 1694.7,
                "mindate": "1943-09-01",
                "maxdate": "1997-10-26",
                "latitude": 38.67778,
                "name": "FOUNTAIN, CO US",
                "datacoverage": 0.9646,
                "id": "COOP:053063",
                "elevationUnit": "METERS",
                "longitude": -104.70139
            },
            {
                "elevation": 1319.8,
                "mindate": "1943-09-01",
                "maxdate": "2014-12-01",
                "latitude": 38.1236,
                "name": "FOWLER 1 SE, CO US",
                "datacoverage": 0.9976,
                "id": "COOP:053079",
                "elevationUnit": "METERS",
                "longitude": -104.0084
            },
            {
                "elevation": 2609.1,
                "mindate": "1931-01-01",
                "maxdate": "1974-07-01",
                "latitude": 39.95,
                "name": "FRASER, CO US",
                "datacoverage": 0.9962,
                "id": "COOP:053113",
                "elevationUnit": "METERS",
                "longitude": -105.83333
            },
            {
                "elevation": 2609.1,
                "mindate": "1989-05-01",
                "maxdate": "2015-11-01",
                "latitude": 39.9425,
                "name": "FRASER, CO US",
                "datacoverage": 0.9874,
                "id": "COOP:053116",
                "elevationUnit": "METERS",
                "longitude": -105.8172
            },
            {
                "elevation": 1371,
                "mindate": "1931-01-01",
                "maxdate": "2011-12-01",
                "latitude": 39.14449,
                "name": "FRUITA, CO US",
                "datacoverage": 0.9835,
                "id": "COOP:053146",
                "elevationUnit": "METERS",
                "longitude": -108.728
            },
            {
                "elevation": 1360,
                "mindate": "2012-01-01",
                "maxdate": "2014-12-01",
                "latitude": 39.1692,
                "name": "FRUITA 2 W, CO US",
                "datacoverage": 0.9998,
                "id": "COOP:053147",
                "elevationUnit": "METERS",
                "longitude": -108.7761
            },
            {
                "elevation": 2122.9,
                "mindate": "1937-02-01",
                "maxdate": "1971-08-01",
                "latitude": 37.76667,
                "name": "GARDNER, CO US",
                "datacoverage": 0.9351,
                "id": "COOP:053222",
                "elevationUnit": "METERS",
                "longitude": -105.18333
            },
            {
                "elevation": 1423.7,
                "mindate": "1947-09-01",
                "maxdate": "2015-11-01",
                "latitude": 38.68778,
                "name": "GATEWAY 1 ENE, CO US",
                "datacoverage": 0.9683,
                "id": "COOP:053246",
                "elevationUnit": "METERS",
                "longitude": -108.9609
            },
            {
                "elevation": 1704.7,
                "mindate": "1940-08-01",
                "maxdate": "2015-11-01",
                "latitude": 39.2771,
                "name": "GENOA, CO US",
                "datacoverage": 0.9325,
                "id": "COOP:053258",
                "elevationUnit": "METERS",
                "longitude": -103.4945
            },
            {
                "elevation": 2596.9,
                "mindate": "1948-07-01",
                "maxdate": "2015-11-01",
                "latitude": 39.7052,
                "name": "GEORGETOWN, CO US",
                "datacoverage": 0.7651,
                "id": "COOP:053261",
                "elevationUnit": "METERS",
                "longitude": -105.6996
            },
            {
                "elevation": 1927.3,
                "mindate": "1999-12-01",
                "maxdate": "2015-11-01",
                "latitude": 38.9538,
                "name": "GLADE PARK 17 W, CO US",
                "datacoverage": 1,
                "id": "COOP:053307",
                "elevationUnit": "METERS",
                "longitude": -109.0527
            },
            {
                "elevation": 2240.3,
                "mindate": "1995-04-01",
                "maxdate": "1999-03-01",
                "latitude": 40.38972,
                "name": "GLEN COMFORT, CO US",
                "datacoverage": 1,
                "id": "COOP:053331",
                "elevationUnit": "METERS",
                "longitude": -105.45028
            },
            {
                "elevation": 1796.8,
                "mindate": "1931-01-01",
                "maxdate": "2015-11-01",
                "latitude": 39.518,
                "name": "GLENWOOD SPGS NUMBER 2, CO US",
                "datacoverage": 0.9578,
                "id": "COOP:053359",
                "elevationUnit": "METERS",
                "longitude": -107.3172
            },
            {
                "elevation": 2170.2,
                "mindate": "1976-05-01",
                "maxdate": "2014-01-01",
                "latitude": 39.7036,
                "name": "GOLDEN 3 S, CO US",
                "datacoverage": 0.0139,
                "id": "COOP:053386",
                "elevationUnit": "METERS",
                "longitude": -105.2263
            },
            {
                "elevation": 2272.3,
                "mindate": "2006-07-01",
                "maxdate": "2015-11-01",
                "latitude": 39.7197,
                "name": "GOLDEN 3 SW, CO US",
                "datacoverage": 0.991,
                "id": "COOP:053387",
                "elevationUnit": "METERS",
                "longitude": -105.2471
            },
            {
                "elevation": 2316.5,
                "mindate": "1997-06-01",
                "maxdate": "1999-01-01",
                "latitude": 39.78,
                "name": "GOLDEN 6 NW, CO US",
                "datacoverage": 0.499,
                "id": "COOP:053388",
                "elevationUnit": "METERS",
                "longitude": -105.32028
            },
            {
                "elevation": 2743.2,
                "mindate": "2000-10-01",
                "maxdate": "2015-11-01",
                "latitude": 40.5092,
                "name": "GOULD 4 SE S F S P, CO US",
                "datacoverage": 0.9891,
                "id": "COOP:053446",
                "elevationUnit": "METERS",
                "longitude": -106.0056
            },
            {
                "elevation": 1063.4,
                "mindate": "1948-08-01",
                "maxdate": "2014-01-01",
                "latitude": 38.0614,
                "name": "GRANADA, CO US",
                "datacoverage": 0.0174,
                "id": "COOP:053477",
                "elevationUnit": "METERS",
                "longitude": -102.3153
            },
            {
                "elevation": 1471,
                "mindate": "2011-01-01",
                "maxdate": "2015-11-01",
                "latitude": 39.1198,
                "name": "GRAND JUNCTION WEATHER FORECAST OFFICE, CO US",
                "datacoverage": 1,
                "id": "COOP:053486",
                "elevationUnit": "METERS",
                "longitude": -108.5247
            },
            {
                "elevation": 1480.7,
                "mindate": "1899-01-01",
                "maxdate": "2015-11-01",
                "latitude": 39.1342,
                "name": "GRAND JUNCTION WALKER FIELD, CO US",
                "datacoverage": 0.9993,
                "id": "COOP:053488",
                "elevationUnit": "METERS",
                "longitude": -108.54
            },
            {
                "elevation": 1450.8,
                "mindate": "1962-03-01",
                "maxdate": "2015-11-01",
                "latitude": 39.0422,
                "name": "GRAND JUNCTION 6 ESE, CO US",
                "datacoverage": 0.9876,
                "id": "COOP:053489",
                "elevationUnit": "METERS",
                "longitude": -108.4663
            },
            {
                "elevation": 2657.9,
                "mindate": "1939-10-01",
                "maxdate": "2015-11-01",
                "latitude": 40.2669,
                "name": "GRAND LAKE 1 NW, CO US",
                "datacoverage": 0.9847,
                "id": "COOP:053496",
                "elevationUnit": "METERS",
                "longitude": -105.8322
            },
            {
                "elevation": 2526.2,
                "mindate": "1948-05-01",
                "maxdate": "2015-11-01",
                "latitude": 40.1849,
                "name": "GRAND LAKE 6 SSW, CO US",
                "datacoverage": 0.9951,
                "id": "COOP:053500",
                "elevationUnit": "METERS",
                "longitude": -105.8666
            },
            {
                "elevation": 1552,
                "mindate": "1965-05-01",
                "maxdate": "1981-06-01",
                "latitude": 39.45,
                "name": "GRAND VALLEY, CO US",
                "datacoverage": 0.9948,
                "id": "COOP:053508",
                "elevationUnit": "METERS",
                "longitude": -108.05
            },
            {
                "elevation": 2644.1,
                "mindate": "1963-09-01",
                "maxdate": "2015-11-01",
                "latitude": 39.4607,
                "name": "GRANT, CO US",
                "datacoverage": 0.9952,
                "id": "COOP:053530",
                "elevationUnit": "METERS",
                "longitude": -105.6785
            },
            {
                "elevation": 2144,
                "mindate": "1954-07-01",
                "maxdate": "1975-03-01",
                "latitude": 40.71667,
                "name": "GREAT DIVIDE 8 SE, CO US",
                "datacoverage": 0.0248,
                "id": "COOP:053539",
                "elevationUnit": "METERS",
                "longitude": -107.7
            },
            {
                "elevation": 2494.2,
                "mindate": "1950-09-01",
                "maxdate": "2015-11-01",
                "latitude": 37.7332,
                "name": "GREAT SAND DUNES NATIONAL PARK AND PRESERVE, CO US",
                "datacoverage": 0.9898,
                "id": "COOP:053541",
                "elevationUnit": "METERS",
                "longitude": -105.5119
            },
            {
                "elevation": 1417.9,
                "mindate": "1948-08-01",
                "maxdate": "1989-01-01",
                "latitude": 40.41667,
                "name": "GREELEY, CO US",
                "datacoverage": 0.0239,
                "id": "COOP:053546",
                "elevationUnit": "METERS",
                "longitude": -104.68333
            },
            {
                "elevation": 1437.1,
                "mindate": "1967-03-01",
                "maxdate": "2015-11-01",
                "latitude": 40.4022,
                "name": "GREELEY UNC, CO US",
                "datacoverage": 0.9999,
                "id": "COOP:053553",
                "elevationUnit": "METERS",
                "longitude": -104.6991
            },
            {
                "elevation": 2097.9,
                "mindate": "1978-05-01",
                "maxdate": "1981-09-01",
                "latitude": 39.18333,
                "name": "GREENLAND, CO US",
                "datacoverage": 0.9991,
                "id": "COOP:053570",
                "elevationUnit": "METERS",
                "longitude": -104.85
            },
            {
                "elevation": 2291.5,
                "mindate": "1948-08-01",
                "maxdate": "2014-01-01",
                "latitude": 39.1044,
                "name": "GREENLAND 9 SE, CO US",
                "datacoverage": 0.0277,
                "id": "COOP:053579",
                "elevationUnit": "METERS",
                "longitude": -104.7286
            },
            {
                "elevation": 2103.1,
                "mindate": "1948-08-01",
                "maxdate": "2014-01-01",
                "latitude": 39.2166,
                "name": "GREENLAND 6 NE, CO US",
                "datacoverage": 0.0229,
                "id": "COOP:053584",
                "elevationUnit": "METERS",
                "longitude": -104.7383
            },
            {
                "elevation": 2359.2,
                "mindate": "1939-07-01",
                "maxdate": "2015-11-01",
                "latitude": 39.8789,
                "name": "GREEN MOUNTAIN DAM, CO US",
                "datacoverage": 0.9345,
                "id": "COOP:053592",
                "elevationUnit": "METERS",
                "longitude": -106.3333
            },
            {
                "elevation": 2429.3,
                "mindate": "1978-05-01",
                "maxdate": "2015-11-01",
                "latitude": 39.9363,
                "name": "GROSS RESERVOIR, CO US",
                "datacoverage": 0.9933,
                "id": "COOP:053629",
                "elevationUnit": "METERS",
                "longitude": -105.3502
            },
            {
                "elevation": 1551.4,
                "mindate": "1931-01-01",
                "maxdate": "1970-10-01",
                "latitude": 40.85,
                "name": "GROVER 10 W, CO US",
                "datacoverage": 0.9832,
                "id": "COOP:053643",
                "elevationUnit": "METERS",
                "longitude": -104.4
            },
            {
                "elevation": 2717.3,
                "mindate": "2007-01-01",
                "maxdate": "2015-11-01",
                "latitude": 38.6866,
                "name": "GUFFEY 9 SE, CO US",
                "datacoverage": 1,
                "id": "COOP:053652",
                "elevationUnit": "METERS",
                "longitude": -105.3925
            },
            {
                "elevation": 2619.8,
                "mindate": "1950-07-01",
                "maxdate": "2006-12-01",
                "latitude": 38.6754,
                "name": "GUFFEY 10 SE, CO US",
                "datacoverage": 0.9793,
                "id": "COOP:053656",
                "elevationUnit": "METERS",
                "longitude": -105.3922
            },
            {
                "elevation": 2323.2,
                "mindate": "1888-07-01",
                "maxdate": "2015-11-01",
                "latitude": 38.5254,
                "name": "GUNNISON 3 SW, CO US",
                "datacoverage": 0.9405,
                "id": "COOP:053662",
                "elevationUnit": "METERS",
                "longitude": -106.9672
            },
            {
                "elevation": 1898.9,
                "mindate": "1947-07-01",
                "maxdate": "2007-04-01",
                "latitude": 40.3722,
                "name": "HAMILTON, CO US",
                "datacoverage": 0.9958,
                "id": "COOP:053738",
                "elevationUnit": "METERS",
                "longitude": -107.6116
            },
            {
                "elevation": 1944.6,
                "mindate": "2007-08-01",
                "maxdate": "2012-12-01",
                "latitude": 40.358,
                "name": "HAMILTON 1 SSE, CO US",
                "datacoverage": 0.9685,
                "id": "COOP:053742",
                "elevationUnit": "METERS",
                "longitude": -107.608
            },
            {
                "elevation": 1378.3,
                "mindate": "1931-01-01",
                "maxdate": "2015-11-01",
                "latitude": 38.4466,
                "name": "HASWELL, CO US",
                "datacoverage": 0.9775,
                "id": "COOP:053828",
                "elevationUnit": "METERS",
                "longitude": -103.1605
            },
            {
                "elevation": 1805.9,
                "mindate": "1931-01-01",
                "maxdate": "1976-01-01",
                "latitude": 39.93333,
                "name": "HAWTHORNE, CO US",
                "datacoverage": 0.9686,
                "id": "COOP:053850",
                "elevationUnit": "METERS",
                "longitude": -105.28333
            },
            {
                "elevation": 1971.1,
                "mindate": "1931-05-01",
                "maxdate": "2015-11-01",
                "latitude": 40.4926,
                "name": "HAYDEN, CO US",
                "datacoverage": 0.997,
                "id": "COOP:053867",
                "elevationUnit": "METERS",
                "longitude": -107.2548
            },
            {
                "elevation": 2727.7,
                "mindate": "1931-01-01",
                "maxdate": "2015-11-01",
                "latitude": 37.74933,
                "name": "HERMIT 8 SE, CO US",
                "datacoverage": 0.9932,
                "id": "COOP:053951",
                "elevationUnit": "METERS",
                "longitude": -107.095
            },
            {
                "elevation": 1296,
                "mindate": "1941-08-01",
                "maxdate": "1980-07-01",
                "latitude": 37.75,
                "name": "HIGBEE 2 SW, CO US",
                "datacoverage": 0.3953,
                "id": "COOP:053982",
                "elevationUnit": "METERS",
                "longitude": -103.46667
            },
            {
                "elevation": 2365.2,
                "mindate": "1985-12-01",
                "maxdate": "2015-11-01",
                "latitude": 40.9678,
                "name": "HOHNHOLZ RANCH, CO US",
                "datacoverage": 0.9973,
                "id": "COOP:054054",
                "elevationUnit": "METERS",
                "longitude": -106.0002
            },
            {
                "elevation": 1036.6,
                "mindate": "1931-01-01",
                "maxdate": "2015-11-01",
                "latitude": 38.0517,
                "name": "HOLLY, CO US",
                "datacoverage": 0.9078,
                "id": "COOP:054076",
                "elevationUnit": "METERS",
                "longitude": -102.1316
            },
            {
                "elevation": 1038.8,
                "mindate": "2009-10-01",
                "maxdate": "2011-12-01",
                "latitude": 38.0635,
                "name": "HOLLY 1 NW, CO US",
                "datacoverage": 0.9998,
                "id": "COOP:054078",
                "elevationUnit": "METERS",
                "longitude": -102.1288
            },
            {
                "elevation": 1152.1,
                "mindate": "1931-02-01",
                "maxdate": "2015-11-01",
                "latitude": 40.5454,
                "name": "HOLYOKE, CO US",
                "datacoverage": 0.9814,
                "id": "COOP:054082",
                "elevationUnit": "METERS",
                "longitude": -102.3412
            },
            {
                "elevation": 2318,
                "mindate": "1953-06-01",
                "maxdate": "1984-03-01",
                "latitude": 40.05,
                "name": "HOT SULPHUR SPRINGS 2 SW, CO US",
                "datacoverage": 0.9437,
                "id": "COOP:054129",
                "elevationUnit": "METERS",
                "longitude": -106.15
            },
            {
                "elevation": 2901.7,
                "mindate": "1988-09-01",
                "maxdate": "2015-11-01",
                "latitude": 40.583,
                "name": "HOURGLASS RESERVOIR, CO US",
                "datacoverage": 1,
                "id": "COOP:054135",
                "elevationUnit": "METERS",
                "longitude": -105.632
            },
            {
                "elevation": 1474.6,
                "mindate": "1948-08-01",
                "maxdate": "2014-01-01",
                "latitude": 39.98392,
                "name": "HOYT, CO US",
                "datacoverage": 0.0196,
                "id": "COOP:054155",
                "elevationUnit": "METERS",
                "longitude": -104.08378
            },
            {
                "elevation": 1531.6,
                "mindate": "1948-08-01",
                "maxdate": "2015-11-01",
                "latitude": 39.1438,
                "name": "HUGO 1 NW, CO US",
                "datacoverage": 0.4196,
                "id": "COOP:054172",
                "elevationUnit": "METERS",
                "longitude": -103.4897
            },
            {
                "elevation": 2302.8,
                "mindate": "1905-02-01",
                "maxdate": "1974-06-01",
                "latitude": 39.75,
                "name": "IDAHO SPRINGS, CO US",
                "datacoverage": 0.9641,
                "id": "COOP:054234",
                "elevationUnit": "METERS",
                "longitude": -105.51667
            },
            {
                "elevation": 1208.5,
                "mindate": "1941-07-01",
                "maxdate": "2015-11-01",
                "latitude": 39.7033,
                "name": "IDALIA, CO US",
                "datacoverage": 0.925,
                "id": "COOP:054242",
                "elevationUnit": "METERS",
                "longitude": -102.2939
            },
            {
                "elevation": 1969,
                "mindate": "1931-01-01",
                "maxdate": "1993-07-01",
                "latitude": 37.13639,
                "name": "IGNACIO 1 N, CO US",
                "datacoverage": 0.9867,
                "id": "COOP:054250",
                "elevationUnit": "METERS",
                "longitude": -107.62639
            },
            {
                "elevation": 1995.8,
                "mindate": "2001-01-01",
                "maxdate": "2015-11-01",
                "latitude": 37.0855,
                "name": "IGNACIO 6 ESE, CO US",
                "datacoverage": 0.9947,
                "id": "COOP:054254",
                "elevationUnit": "METERS",
                "longitude": -107.5333
            },
            {
                "elevation": 3200.4,
                "mindate": "1947-07-01",
                "maxdate": "1980-01-01",
                "latitude": 39.08333,
                "name": "INDEPENDENCE PASS 5 SW, CO US",
                "datacoverage": 0.5549,
                "id": "COOP:054270",
                "elevationUnit": "METERS",
                "longitude": -106.61667
            },
            {
                "elevation": 2188.5,
                "mindate": "1978-05-01",
                "maxdate": "2015-11-01",
                "latitude": 39.5728,
                "name": "INTER CANYON, CO US",
                "datacoverage": 0.8957,
                "id": "COOP:054293",
                "elevationUnit": "METERS",
                "longitude": -105.2193
            },
            {
                "elevation": 1303,
                "mindate": "1948-08-01",
                "maxdate": "2015-11-01",
                "latitude": 39.6552,
                "name": "JOES, CO US",
                "datacoverage": 0.5173,
                "id": "COOP:054380",
                "elevationUnit": "METERS",
                "longitude": -102.68043
            },
            {
                "elevation": 1162.5,
                "mindate": "1941-08-01",
                "maxdate": "2015-11-01",
                "latitude": 38.0634,
                "name": "JOHN MARTIN DAM, CO US",
                "datacoverage": 0.9966,
                "id": "COOP:054388",
                "elevationUnit": "METERS",
                "longitude": -102.9298
            },
            {
                "elevation": 3148,
                "mindate": "1961-09-01",
                "maxdate": "1973-08-01",
                "latitude": 39.76667,
                "name": "JONES PASS 2 E, CO US",
                "datacoverage": 0.9859,
                "id": "COOP:054397",
                "elevationUnit": "METERS",
                "longitude": -105.85
            },
            {
                "elevation": 1059.8,
                "mindate": "1931-01-01",
                "maxdate": "2015-11-01",
                "latitude": 40.9879,
                "name": "JULESBURG, CO US",
                "datacoverage": 0.9215,
                "id": "COOP:054413",
                "elevationUnit": "METERS",
                "longitude": -102.2653
            },
            {
                "elevation": 1546.9,
                "mindate": "1941-08-01",
                "maxdate": "2015-11-01",
                "latitude": 38.7411,
                "name": "KARVAL, CO US",
                "datacoverage": 0.9888,
                "id": "COOP:054444",
                "elevationUnit": "METERS",
                "longitude": -103.5427
            },
            {
                "elevation": 1702.9,
                "mindate": "1931-01-01",
                "maxdate": "2015-11-01",
                "latitude": 39.49,
                "name": "KASSLER, CO US",
                "datacoverage": 0.999,
                "id": "COOP:054452",
                "elevationUnit": "METERS",
                "longitude": -105.0952
            },
            {
                "elevation": 1600.2,
                "mindate": "1936-09-01",
                "maxdate": "1987-02-01",
                "latitude": 40.85,
                "name": "KAUFFMAN 4 SSE, CO US",
                "datacoverage": 0.9968,
                "id": "COOP:054460",
                "elevationUnit": "METERS",
                "longitude": -103.9
            },
            {
                "elevation": 3063.2,
                "mindate": "1994-11-01",
                "maxdate": "1997-10-01",
                "latitude": 39.59083,
                "name": "KEYSTONE 5 E, CO US",
                "datacoverage": 0.9998,
                "id": "COOP:054512",
                "elevationUnit": "METERS",
                "longitude": -105.8725
            },
            {
                "elevation": 1581.9,
                "mindate": "1948-08-01",
                "maxdate": "2015-11-01",
                "latitude": 37.4536,
                "name": "KIM 15 NNE, CO US",
                "datacoverage": 0.4418,
                "id": "COOP:054538",
                "elevationUnit": "METERS",
                "longitude": -103.322
            },
            {
                "elevation": 1770.9,
                "mindate": "1980-12-01",
                "maxdate": "1983-01-01",
                "latitude": 37.2,
                "name": "KIM 5 SW, CO US",
                "datacoverage": 0.9608,
                "id": "COOP:054542",
                "elevationUnit": "METERS",
                "longitude": -103.48333
            },
            {
                "elevation": 1602.3,
                "mindate": "1988-04-01",
                "maxdate": "2015-11-01",
                "latitude": 37.115,
                "name": "KIM 10 SSE, CO US",
                "datacoverage": 1,
                "id": "COOP:054546",
                "elevationUnit": "METERS",
                "longitude": -103.2986
            },
            {
                "elevation": 1937,
                "mindate": "1956-01-01",
                "maxdate": "1976-12-01",
                "latitude": 39.35,
                "name": "KIOWA, CO US",
                "datacoverage": 0.0284,
                "id": "COOP:054581",
                "elevationUnit": "METERS",
                "longitude": -104.46667
            },
            {
                "elevation": 1311.2,
                "mindate": "1939-09-01",
                "maxdate": "2015-11-01",
                "latitude": 38.76261,
                "name": "KIT CARSON, CO US",
                "datacoverage": 0.9574,
                "id": "COOP:054603",
                "elevationUnit": "METERS",
                "longitude": -102.79962
            },
            {
                "elevation": 1324.7,
                "mindate": "1996-11-01",
                "maxdate": "2015-11-01",
                "latitude": 38.8867,
                "name": "KIT CARSON 9 NNE, CO US",
                "datacoverage": 1,
                "id": "COOP:054606",
                "elevationUnit": "METERS",
                "longitude": -102.7232
            },
            {
                "elevation": 2273.8,
                "mindate": "1945-06-01",
                "maxdate": "2015-11-01",
                "latitude": 40.0576,
                "name": "KREMMLING, CO US",
                "datacoverage": 0.779,
                "id": "COOP:054664",
                "elevationUnit": "METERS",
                "longitude": -106.368
            },
            {
                "elevation": 1634.9,
                "mindate": "1960-05-01",
                "maxdate": "1985-10-01",
                "latitude": 38.83333,
                "name": "KUTCH 6 SSE, CO US",
                "datacoverage": 1,
                "id": "COOP:054686",
                "elevationUnit": "METERS",
                "longitude": -103.83333
            },
            {
                "elevation": 1278.3,
                "mindate": "1946-01-01",
                "maxdate": "2015-11-01",
                "latitude": 38.04949,
                "name": "LA JUNTA MUNICIPAL AIRPORT, CO US",
                "datacoverage": 0.9476,
                "id": "COOP:054720",
                "elevationUnit": "METERS",
                "longitude": -103.51335
            },
            {
                "elevation": 1246.3,
                "mindate": "1995-04-01",
                "maxdate": "2015-11-01",
                "latitude": 37.98236,
                "name": "LA JUNTA, CO US",
                "datacoverage": 0.9757,
                "id": "COOP:054724",
                "elevationUnit": "METERS",
                "longitude": -103.54397
            },
            {
                "elevation": 1283.2,
                "mindate": "1982-08-01",
                "maxdate": "2015-11-01",
                "latitude": 37.75144,
                "name": "LA JUNTA 20 S, CO US",
                "datacoverage": 0.995,
                "id": "COOP:054726",
                "elevationUnit": "METERS",
                "longitude": -103.47671
            },
            {
                "elevation": 2641.7,
                "mindate": "1905-05-01",
                "maxdate": "2010-05-01",
                "latitude": 38.0247,
                "name": "LAKE CITY, CO US",
                "datacoverage": 0.6979,
                "id": "COOP:054734",
                "elevationUnit": "METERS",
                "longitude": -107.3147
            },
            {
                "elevation": 2644.4,
                "mindate": "2010-07-01",
                "maxdate": "2011-12-01",
                "latitude": 38.02278,
                "name": "LAKE CITY NUMBER 2, CO US",
                "datacoverage": 0.998,
                "id": "COOP:054735",
                "elevationUnit": "METERS",
                "longitude": -107.31444
            },
            {
                "elevation": 2656,
                "mindate": "2012-01-01",
                "maxdate": "2015-11-01",
                "latitude": 38.0523,
                "name": "LAKE CITY 1 NNE, CO US",
                "datacoverage": 0.8294,
                "id": "COOP:054736",
                "elevationUnit": "METERS",
                "longitude": -107.3037
            },
            {
                "elevation": 2606,
                "mindate": "1948-08-01",
                "maxdate": "2015-11-01",
                "latitude": 38.9075,
                "name": "LAKE GEORGE 8 SW, CO US",
                "datacoverage": 0.8626,
                "id": "COOP:054742",
                "elevationUnit": "METERS",
                "longitude": -105.4705
            },
            {
                "elevation": 3128.8,
                "mindate": "1958-10-01",
                "maxdate": "1991-10-01",
                "latitude": 38.81667,
                "name": "LAKE MORAINE, CO US",
                "datacoverage": 0.033,
                "id": "COOP:054750",
                "elevationUnit": "METERS",
                "longitude": -104.98333
            },
            {
                "elevation": 1719.1,
                "mindate": "1962-07-01",
                "maxdate": "2015-11-01",
                "latitude": 39.7488,
                "name": "LAKEWOOD, CO US",
                "datacoverage": 0.9968,
                "id": "COOP:054762",
                "elevationUnit": "METERS",
                "longitude": -105.1205
            },
            {
                "elevation": 1105.5,
                "mindate": "1931-01-01",
                "maxdate": "2015-11-01",
                "latitude": 38.0936,
                "name": "LAMAR, CO US",
                "datacoverage": 1,
                "id": "COOP:054770",
                "elevationUnit": "METERS",
                "longitude": -102.6306
            },
            {
                "elevation": 2087.9,
                "mindate": "1997-09-01",
                "maxdate": "2003-09-01",
                "latitude": 39.27861,
                "name": "LARKSPUR 4 NW, CO US",
                "datacoverage": 0.973,
                "id": "COOP:054825",
                "elevationUnit": "METERS",
                "longitude": -104.92
            },
            {
                "elevation": 1185.7,
                "mindate": "1931-01-01",
                "maxdate": "2015-11-01",
                "latitude": 38.0635,
                "name": "LAS ANIMAS, CO US",
                "datacoverage": 0.9902,
                "id": "COOP:054834",
                "elevationUnit": "METERS",
                "longitude": -103.2152
            },
            {
                "elevation": 2144,
                "mindate": "1963-08-01",
                "maxdate": "1971-07-01",
                "latitude": 37.5,
                "name": "LA VETA, CO US",
                "datacoverage": 0.9791,
                "id": "COOP:054865",
                "elevationUnit": "METERS",
                "longitude": -105
            },
            {
                "elevation": 2468.9,
                "mindate": "1975-02-01",
                "maxdate": "2014-01-01",
                "latitude": 39.7661,
                "name": "LAWSON, CO US",
                "datacoverage": 0.0155,
                "id": "COOP:054877",
                "elevationUnit": "METERS",
                "longitude": -105.6264
            },
            {
                "elevation": 3030,
                "mindate": "1931-01-01",
                "maxdate": "1982-08-01",
                "latitude": 39.21667,
                "name": "LEADVILLE, CO US",
                "datacoverage": 0.8855,
                "id": "COOP:054884",
                "elevationUnit": "METERS",
                "longitude": -106.3
            },
            {
                "elevation": 3027.3,
                "mindate": "1976-07-01",
                "maxdate": "2008-12-01",
                "latitude": 39.22917,
                "name": "LEADVILLE LAKE CO AIRPORT, CO US",
                "datacoverage": 0.9204,
                "id": "COOP:054885",
                "elevationUnit": "METERS",
                "longitude": -106.31694
            },
            {
                "elevation": 3061.7,
                "mindate": "2013-01-01",
                "maxdate": "2015-11-01",
                "latitude": 39.235,
                "name": "LEADVILLE 1 SSW, CO US",
                "datacoverage": 0.944,
                "id": "COOP:054888",
                "elevationUnit": "METERS",
                "longitude": -106.3049
            },
            {
                "elevation": 2471.9,
                "mindate": "1982-04-01",
                "maxdate": "2015-11-01",
                "latitude": 37.3789,
                "name": "LEMON DAM, CO US",
                "datacoverage": 0.9975,
                "id": "COOP:054934",
                "elevationUnit": "METERS",
                "longitude": -107.6593
            },
            {
                "elevation": 1361.5,
                "mindate": "1931-01-01",
                "maxdate": "2015-11-01",
                "latitude": 40.51461,
                "name": "LEROY 5 WSW, CO US",
                "datacoverage": 0.9922,
                "id": "COOP:054945",
                "elevationUnit": "METERS",
                "longitude": -102.99068
            },
            {
                "elevation": 1695.9,
                "mindate": "1931-01-01",
                "maxdate": "1971-01-01",
                "latitude": 39.15,
                "name": "LIMON 10 SSW, CO US",
                "datacoverage": 1,
                "id": "COOP:055015",
                "elevationUnit": "METERS",
                "longitude": -103.76667
            },
            {
                "elevation": 1638,
                "mindate": "1948-01-01",
                "maxdate": "1971-02-01",
                "latitude": 39.275,
                "name": "LIMON, CO US",
                "datacoverage": 1,
                "id": "COOP:055017",
                "elevationUnit": "METERS",
                "longitude": -103.666
            },
            {
                "elevation": 1638,
                "mindate": "1971-01-01",
                "maxdate": "1995-09-01",
                "latitude": 39.275,
                "name": "LIMON, CO US",
                "datacoverage": 0.9694,
                "id": "COOP:055018",
                "elevationUnit": "METERS",
                "longitude": -103.666
            },