{
    "metadata": {
        "resultset": {
            "offset": 1,
            "count": 991,
            "limit": 1000
        }
    },
    "results": [
        {
            "elevation": 1591.1,
            "mindate": "1922-06-01",
            "maxdate": "1986-11-01",
            "latitude": 19.63333,
            "name": "AHUA UMI 75, HI US",
            "datacoverage": 0.9741,
            "id": "COOP:510040",
            "elevationUnit": "METERS",
            "longitude": -155.78333
        },
        {
            "elevation": 74.1,
            "mindate": "1968-09-01",
            "maxdate": "2014-01-01",
            "latitude": 21.43194,
            "name": "AHUIMANU LOOP 839.12, HI US",
            "datacoverage": 0.0499,
            "id": "COOP:510055",
            "elevationUnit": "METERS",
            "longitude": -157.83722
        },
        {
            "elevation": 139.9,
            "mindate": "1919-01-01",
            "maxdate": "1970-07-01",
            "latitude": 21.41667,
            "name": "AIEA FIELD 625 761, HI US",
            "datacoverage": 1,
            "id": "COOP:510111",
            "elevationUnit": "METERS",
            "longitude": -157.95
        },
        {
            "elevation": 237.7,
            "mindate": "1982-09-01",
            "maxdate": "2015-11-01",
            "latitude": 21.3948,
            "name": "AIEA HEIGHTS 764.6, HI US",
            "datacoverage": 1,
            "id": "COOP:510123",
            "elevationUnit": "METERS",
            "longitude": -157.9101
        },
        {
            "elevation": 490.7,
            "mindate": "1965-03-01",
            "maxdate": "2014-12-01",
            "latitude": 21.96,
            "name": "ALEXANDER RESV 983, HI US",
            "datacoverage": 1,
            "id": "COOP:510140",
            "elevationUnit": "METERS",
            "longitude": -159.53194
        },
        {
            "elevation": 54.9,
            "mindate": "1930-07-01",
            "maxdate": "2001-12-01",
            "latitude": 22.13222,
            "name": "ANAHOLA 1114, HI US",
            "datacoverage": 0.9999,
            "id": "COOP:510145",
            "elevationUnit": "METERS",
            "longitude": -159.30389
        },
        {
            "elevation": 454.2,
            "mindate": "1979-04-01",
            "maxdate": "1993-12-01",
            "latitude": 19.73333,
            "name": "AMAUULU 89.2, HI US",
            "datacoverage": 0.9997,
            "id": "COOP:510150",
            "elevationUnit": "METERS",
            "longitude": -155.15
        },
        {
            "elevation": 11.9,
            "mindate": "1975-10-01",
            "maxdate": "1981-05-01",
            "latitude": 21.38333,
            "name": "ALOHA STADIUM HALAWA, HI US",
            "datacoverage": 0.9999,
            "id": "COOP:510172",
            "elevationUnit": "METERS",
            "longitude": -157.93333
        },
        {
            "elevation": 627.9,
            "mindate": "1963-09-01",
            "maxdate": "1998-06-01",
            "latitude": 20.62444,
            "name": "AUWAHI 252, HI US",
            "datacoverage": 1,
            "id": "COOP:510175",
            "elevationUnit": "METERS",
            "longitude": -156.33111
        },
        {
            "elevation": 570,
            "mindate": "1919-01-01",
            "maxdate": "1975-01-01",
            "latitude": 20.16667,
            "name": "AWINI 182.1, HI US",
            "datacoverage": 0.9806,
            "id": "COOP:510190",
            "elevationUnit": "METERS",
            "longitude": -155.71667
        },
        {
            "elevation": 6.1,
            "mindate": "1958-02-01",
            "maxdate": "2015-11-01",
            "latitude": 21.30611,
            "name": "BERETANIA PUMP STATION 7, HI US",
            "datacoverage": 0.9871,
            "id": "COOP:510211",
            "elevationUnit": "METERS",
            "longitude": -157.85306
        },
        {
            "elevation": 219.5,
            "mindate": "1919-01-01",
            "maxdate": "2014-12-01",
            "latitude": 21.92222,
            "name": "BRYDESWOOD STATION 985, HI US",
            "datacoverage": 0.9766,
            "id": "COOP:510240",
            "elevationUnit": "METERS",
            "longitude": -159.5375
        },
        {
            "elevation": 6.1,
            "mindate": "1977-01-01",
            "maxdate": "1999-08-01",
            "latitude": 21.64306,
            "name": "B Y U LAIE 903.1, HI US",
            "datacoverage": 0.9266,
            "id": "COOP:510242",
            "elevationUnit": "METERS",
            "longitude": -157.93167
        },
        {
            "elevation": 3,
            "mindate": "1971-06-01",
            "maxdate": "2015-11-01",
            "latitude": 21.3131,
            "name": "CAMPBELL IN PK 702.5, HI US",
            "datacoverage": 0.9906,
            "id": "COOP:510248",
            "elevationUnit": "METERS",
            "longitude": -158.1141
        },
        {
            "elevation": 229.2,
            "mindate": "1956-01-01",
            "maxdate": "2014-01-01",
            "latitude": 21.4325,
            "name": "CAMP 84 807, HI US",
            "datacoverage": 1,
            "id": "COOP:510300",
            "elevationUnit": "METERS",
            "longitude": -158.0559
        },
        {
            "elevation": 0.9,
            "mindate": "1981-08-01",
            "maxdate": "2015-11-01",
            "latitude": 21.5788,
            "name": "CAMP ERDMAN 841.16, HI US",
            "datacoverage": 0.949,
            "id": "COOP:510305",
            "elevationUnit": "METERS",
            "longitude": -158.2241
        },
        {
            "elevation": 6.1,
            "mindate": "1967-05-01",
            "maxdate": "1975-06-01",
            "latitude": 21.64306,
            "name": "B Y U LAIE 903.1, HI US",
            "datacoverage": 1,
            "id": "COOP:510340",
            "elevationUnit": "METERS",
            "longitude": -157.93167
        },
        {
            "elevation": 0.9,
            "mindate": "1957-06-01",
            "maxdate": "2015-11-01",
            "latitude": 21.4336,
            "name": "COCONUT ISLAND 840.1, HI US",
            "datacoverage": 0.9787,
            "id": "COOP:510350",
            "elevationUnit": "METERS",
            "longitude": -157.7868
        },
        {
            "elevation": 121.9,
            "mindate": "1983-09-01",
            "maxdate": "2014-01-01",
            "latitude": 21.3368,
            "name": "DOWSETT 775.4, HI US",
            "datacoverage": 0.0525,
            "id": "COOP:510404",
            "elevationUnit": "METERS",
            "longitude": -157.8344
        },
        {
            "elevation": 172.2,
            "mindate": "1965-06-01",
            "maxdate": "1985-12-01",
            "latitude": 21.35,
            "name": "DOWSETT HIGHLANDS 78, HI US",
            "datacoverage": 0.0665,
            "id": "COOP:510438",
            "elevationUnit": "METERS",
            "longitude": -157.83333
        },
        {
            "elevation": 1293,
            "mindate": "1925-11-01",
            "maxdate": "1975-01-01",
            "latitude": 20.11667,
            "name": "EAST HONOKANE 183.2, HI US",
            "datacoverage": 0.9695,
            "id": "COOP:510450",
            "elevationUnit": "METERS",
            "longitude": -155.71667
        },
        {
            "elevation": 93.9,
            "mindate": "1919-01-01",
            "maxdate": "2014-12-01",
            "latitude": 21.9011,
            "name": "EAST LAWAI 934, HI US",
            "datacoverage": 0.9583,
            "id": "COOP:510456",
            "elevationUnit": "METERS",
            "longitude": -159.4969
        },
        {
            "elevation": 85,
            "mindate": "1965-03-01",
            "maxdate": "1976-10-31",
            "latitude": 22.1,
            "name": "EKW RESERVOIR NUMBER 3 109, HI US",
            "datacoverage": 0.113,
            "id": "COOP:510465",
            "elevationUnit": "METERS",
            "longitude": -159.36667
        },
        {
            "elevation": 45.7,
            "mindate": "1919-01-01",
            "maxdate": "2014-12-01",
            "latitude": 21.90583,
            "name": "ELEELE 927, HI US",
            "datacoverage": 0.9852,
            "id": "COOP:510470",
            "elevationUnit": "METERS",
            "longitude": -159.57889
        },
        {
            "elevation": 231.6,
            "mindate": "1994-08-01",
            "maxdate": "2014-01-01",
            "latitude": 21.93556,
            "name": "ELIMA RESV 985.2, HI US",
            "datacoverage": 0.0182,
            "id": "COOP:510485",
            "elevationUnit": "METERS",
            "longitude": -159.53889
        },
        {
            "elevation": 6.1,
            "mindate": "1919-01-01",
            "maxdate": "2006-06-01",
            "latitude": 21.37472,
            "name": "EWA PLANTATION 741, HI US",
            "datacoverage": 0.9305,
            "id": "COOP:510507",
            "elevationUnit": "METERS",
            "longitude": -157.99167
        },
        {
            "elevation": 352.7,
            "mindate": "2006-01-01",
            "maxdate": "2014-01-01",
            "latitude": 20.9671,
            "name": "FIELD 28 RESERVOIR 474.2, HI US",
            "datacoverage": 0.035,
            "id": "COOP:510530",
            "elevationUnit": "METERS",
            "longitude": -156.6374
        },
        {
            "elevation": 320,
            "mindate": "1965-03-01",
            "maxdate": "2005-12-01",
            "latitude": 20.98889,
            "name": "FIELD 46 474, HI US",
            "datacoverage": 0.9936,
            "id": "COOP:510541",
            "elevationUnit": "METERS",
            "longitude": -156.6275
        },
        {
            "elevation": 670.6,
            "mindate": "2000-03-01",
            "maxdate": "2015-11-01",
            "latitude": 19.519,
            "name": "GLENWOOD NUMBER 2 55.4, HI US",
            "datacoverage": 0.9947,
            "id": "COOP:510746",
            "elevationUnit": "METERS",
            "longitude": -155.1413
        },
        {
            "elevation": 908.3,
            "mindate": "1919-01-01",
            "maxdate": "2010-12-01",
            "latitude": 20.938,
            "name": "HAELAAU 477, HI US",
            "datacoverage": 0.7862,
            "id": "COOP:510790",
            "elevationUnit": "METERS",
            "longitude": -156.6194
        },
        {
            "elevation": 210.3,
            "mindate": "1973-02-01",
            "maxdate": "1976-03-01",
            "latitude": 20.91583,
            "name": "HALEHAKU 492.2, HI US",
            "datacoverage": 0.0566,
            "id": "COOP:510834",
            "elevationUnit": "METERS",
            "longitude": -156.28639
        },
        {
            "elevation": 140.5,
            "mindate": "1919-01-01",
            "maxdate": "1994-08-01",
            "latitude": 20.1,
            "name": "HAINA 214, HI US",
            "datacoverage": 0.9967,
            "id": "COOP:510840",
            "elevationUnit": "METERS",
            "longitude": -155.46667
        },
        {
            "elevation": 48.8,
            "mindate": "1919-01-01",
            "maxdate": "1994-01-01",
            "latitude": 19.9,
            "name": "HAKALAU 142, HI US",
            "datacoverage": 0.9978,
            "id": "COOP:510905",
            "elevationUnit": "METERS",
            "longitude": -155.13333
        },
        {
            "elevation": 77.1,
            "mindate": "1919-01-01",
            "maxdate": "2000-10-01",
            "latitude": 22.11639,
            "name": "HALAULA 1110, HI US",
            "datacoverage": 0.9817,
            "id": "COOP:510935",
            "elevationUnit": "METERS",
            "longitude": -159.31694
        },
        {
            "elevation": 3,
            "mindate": "1983-04-01",
            "maxdate": "1997-12-01",
            "latitude": 21.15694,
            "name": "HALAWA VALLEY 542.9, HI US",
            "datacoverage": 0.8585,
            "id": "COOP:510961",
            "elevationUnit": "METERS",
            "longitude": -156.74194
        },
        {
            "elevation": 51.8,
            "mindate": "1965-04-01",
            "maxdate": "2014-01-01",
            "latitude": 21.3808,
            "name": "HALAWA SHAFT 771.2, HI US",
            "datacoverage": 0.0416,
            "id": "COOP:510964",
            "elevationUnit": "METERS",
            "longitude": -157.9039
        },
        {
            "elevation": 640.1,
            "mindate": "1921-08-01",
            "maxdate": "1992-10-01",
            "latitude": 20.85,
            "name": "HALEAKALA EXPERIMENTAL FARM 4, HI US",
            "datacoverage": 0.9988,
            "id": "COOP:510995",
            "elevationUnit": "METERS",
            "longitude": -156.3
        },
        {
            "elevation": 576.1,
            "mindate": "1919-01-01",
            "maxdate": "2014-12-01",
            "latitude": 20.8333,
            "name": "HALEAKALA RANCH 432, HI US",
            "datacoverage": 0.9861,
            "id": "COOP:510999",
            "elevationUnit": "METERS",
            "longitude": -156.3167
        },
        {
            "elevation": 2122,
            "mindate": "1939-01-01",
            "maxdate": "2015-11-01",
            "latitude": 20.7603,
            "name": "HALEAKALA RANGER STATION 338, HI US",
            "datacoverage": 0.9794,
            "id": "COOP:511004",
            "elevationUnit": "METERS",
            "longitude": -156.247
        },
        {
            "elevation": 3037,
            "mindate": "1957-04-01",
            "maxdate": "1976-10-01",
            "latitude": 20.71667,
            "name": "HALEAKALA SUMMIT 338, HI US",
            "datacoverage": 0.8332,
            "id": "COOP:511008",
            "elevationUnit": "METERS",
            "longitude": -156.26667
        },
        {
            "elevation": 210.3,
            "mindate": "1966-01-01",
            "maxdate": "2006-12-01",
            "latitude": 20.91583,
            "name": "HALEHAKU 492.2, HI US",
            "datacoverage": 0.9999,
            "id": "COOP:511016",
            "elevationUnit": "METERS",
            "longitude": -156.28639
        },
        {
            "elevation": 1109.5,
            "mindate": "1932-10-01",
            "maxdate": "2015-04-01",
            "latitude": 19.4021,
            "name": "HALEMAUMAU 52, HI US",
            "datacoverage": 0.9657,
            "id": "COOP:511033",
            "elevationUnit": "METERS",
            "longitude": -155.2802
        },
        {
            "elevation": 149.4,
            "mindate": "1932-01-01",
            "maxdate": "2014-12-01",
            "latitude": 21.965,
            "name": "HALENANAHO 1006, HI US",
            "datacoverage": 0.9558,
            "id": "COOP:511038",
            "elevationUnit": "METERS",
            "longitude": -159.42972
        },
        {
            "elevation": 1759.9,
            "mindate": "1919-01-01",
            "maxdate": "1976-10-01",
            "latitude": 19.93333,
            "name": "HALEPIULA 117, HI US",
            "datacoverage": 0.9798,
            "id": "COOP:511060",
            "elevationUnit": "METERS",
            "longitude": -155.4
        },
        {
            "elevation": 2822.4,
            "mindate": "1939-09-01",
            "maxdate": "2015-08-01",
            "latitude": 19.7613,
            "name": "HALEPOHAKU 111, HI US",
            "datacoverage": 0.9836,
            "id": "COOP:511065",
            "elevationUnit": "METERS",
            "longitude": -155.4562
        },
        {
            "elevation": 329.2,
            "mindate": "1964-01-01",
            "maxdate": "2010-12-01",
            "latitude": 20.8659,
            "name": "HALIIMAILE 423, HI US",
            "datacoverage": 0.9964,
            "id": "COOP:511075",
            "elevationUnit": "METERS",
            "longitude": -156.3436
        },
        {
            "elevation": 92.4,
            "mindate": "1919-01-01",
            "maxdate": "2015-11-01",
            "latitude": 20.9233,
            "name": "HAMAKUAPOKO 485, HI US",
            "datacoverage": 0.9966,
            "id": "COOP:511086",
            "elevationUnit": "METERS",
            "longitude": -156.3403
        },
        {
            "elevation": 22.9,
            "mindate": "1951-01-01",
            "maxdate": "2006-07-01",
            "latitude": 20.7947,
            "name": "HANA AIRPORT 355, HI US",
            "datacoverage": 0.997,
            "id": "COOP:511125",
            "elevationUnit": "METERS",
            "longitude": -156.0154
        },
        {
            "elevation": 176.8,
            "mindate": "1977-07-01",
            "maxdate": "2014-01-01",
            "latitude": 22.03028,
            "name": "HANAHANAPUNI 1055.2, HI US",
            "datacoverage": 0.0558,
            "id": "COOP:511140",
            "elevationUnit": "METERS",
            "longitude": -159.41583
        },
        {
            "elevation": 100.9,
            "mindate": "1947-05-01",
            "maxdate": "1976-05-01",
            "latitude": 20.7,
            "name": "HANAHULI 281, HI US",
            "datacoverage": 0.9683,
            "id": "COOP:511148",
            "elevationUnit": "METERS",
            "longitude": -156.01667
        },
        {
            "elevation": 371.2,
            "mindate": "1931-04-01",
            "maxdate": "1985-08-01",
            "latitude": 22.08333,
            "name": "HANALEI TUNNEL 1053, HI US",
            "datacoverage": 0.5911,
            "id": "COOP:511170",
            "elevationUnit": "METERS",
            "longitude": -159.46667
        },
        {
            "elevation": 177.1,
            "mindate": "1977-06-01",
            "maxdate": "1977-10-01",
            "latitude": 19.66667,
            "name": "HA S FARM 85.3, HI US",
            "datacoverage": 0.9947,
            "id": "COOP:511270",
            "elevationUnit": "METERS",
            "longitude": -155.1
        },
        {
            "elevation": 9.1,
            "mindate": "1972-11-01",
            "maxdate": "1974-06-01",
            "latitude": 21.3,
            "name": "HAWAII 724.11, HI US",
            "datacoverage": 0.052,
            "id": "COOP:511298",
            "elevationUnit": "METERS",
            "longitude": -157.71667
        },
        {
            "elevation": 88.4,
            "mindate": "1992-09-01",
            "maxdate": "2005-07-01",
            "latitude": 19.54111,
            "name": "HAWAII BEACHES 91.12, HI US",
            "datacoverage": 1,
            "id": "COOP:511300",
            "elevationUnit": "METERS",
            "longitude": -154.91194
        },
        {
            "elevation": 1210.4,
            "mindate": "1919-01-01",
            "maxdate": "2015-11-01",
            "latitude": 19.4297,
            "name": "HAWAII VOL. NATIONAL PARK HQ. 54, HI US",
            "datacoverage": 0.9897,
            "id": "COOP:511303",
            "elevationUnit": "METERS",
            "longitude": -155.2562
        },
        {
            "elevation": 8.5,
            "mindate": "1977-09-01",
            "maxdate": "2014-01-01",
            "latitude": 21.299,
            "name": "HAWAII KAI G.C. 724.19, HI US",
            "datacoverage": 0.0139,
            "id": "COOP:511308",
            "elevationUnit": "METERS",
            "longitude": -157.6644
        },
        {
            "elevation": 176.8,
            "mindate": "1919-01-01",
            "maxdate": "2015-11-01",
            "latitude": 20.2402,
            "name": "HAWI 168, HI US",
            "datacoverage": 0.9708,
            "id": "COOP:511339",
            "elevationUnit": "METERS",
            "longitude": -155.8388
        },
        {
            "elevation": 234.4,
            "mindate": "2006-07-01",
            "maxdate": "2010-12-01",
            "latitude": 21.56667,
            "name": "HELEMANO 856.2, HI US",
            "datacoverage": 0.9252,
            "id": "COOP:511380",
            "elevationUnit": "METERS",
            "longitude": -158.05361
        },
        {
            "elevation": 387.1,
            "mindate": "1919-01-01",
            "maxdate": "1979-05-01",
            "latitude": 21.55,
            "name": "HELEMANO INTAKE 881, HI US",
            "datacoverage": 0.9973,
            "id": "COOP:511384",
            "elevationUnit": "METERS",
            "longitude": -158
        },
        {
            "elevation": 883.9,
            "mindate": "1980-08-01",
            "maxdate": "2014-01-01",
            "latitude": 19.1192,
            "name": "HAW N OCN VIEW EST 3.9, HI US",
            "datacoverage": 0.0162,
            "id": "COOP:511385",
            "elevationUnit": "METERS",
            "longitude": -155.7859
        },
        {
            "elevation": 487.7,
            "mindate": "1970-04-01",
            "maxdate": "1982-04-01",
            "latitude": 19.68333,
            "name": "HILO COUNTRY CLUB 86, HI US",
            "datacoverage": 1,
            "id": "COOP:511487",
            "elevationUnit": "METERS",
            "longitude": -155.16667
        },
        {
            "elevation": 11.6,
            "mindate": "1951-01-01",
            "maxdate": "2015-11-01",
            "latitude": 19.7191,
            "name": "HILO INTERNATIONAL AIRPORT 87, HI US",
            "datacoverage": 0.9988,
            "id": "COOP:511492",
            "elevationUnit": "METERS",
            "longitude": -155.053
        },
        {
            "elevation": 680.3,
            "mindate": "1965-05-01",
            "maxdate": "2014-01-01",
            "latitude": 21.3905,
            "name": "HOKULOA 725.2, HI US",
            "datacoverage": 0.9997,
            "id": "COOP:511540",
            "elevationUnit": "METERS",
            "longitude": -158.0999
        },
        {
            "elevation": 2112.3,
            "mindate": "1964-05-01",
            "maxdate": "1999-09-01",
            "latitude": 20.75,
            "name": "HOLUA CABIN 259.5, HI US",
            "datacoverage": 0.9976,
            "id": "COOP:511552",
            "elevationUnit": "METERS",
            "longitude": -156.21667
        },
        {
            "elevation": 981.5,
            "mindate": "1919-01-01",
            "maxdate": "2015-11-01",
            "latitude": 19.6347,
            "name": "HOLUALOA 70, HI US",
            "datacoverage": 0.9407,
            "id": "COOP:511557",
            "elevationUnit": "METERS",
            "longitude": -155.9078
        },
        {
            "elevation": 3,
            "mindate": "1921-01-01",
            "maxdate": "1979-02-01",
            "latitude": 19.61667,
            "name": "HOLUALOA BEACH 68, HI US",
            "datacoverage": 0.9786,
            "id": "COOP:511562",
            "elevationUnit": "METERS",
            "longitude": -155.98333
        },
        {
            "elevation": 317,
            "mindate": "1970-07-01",
            "maxdate": "1976-10-30",
            "latitude": 19.63333,
            "name": "HOLUALOA MAKAI 69.16, HI US",
            "datacoverage": 0.0686,
            "id": "COOP:511570",
            "elevationUnit": "METERS",
            "longitude": -155.96667
        },
        {
            "elevation": 286.5,
            "mindate": "1938-01-01",
            "maxdate": "2015-11-01",
            "latitude": 19.4174,
            "name": "HONAUNAU 27, HI US",
            "datacoverage": 0.9947,
            "id": "COOP:511665",
            "elevationUnit": "METERS",
            "longitude": -155.8805
        },
        {
            "elevation": 329.2,
            "mindate": "1919-01-01",
            "maxdate": "2015-11-01",
            "latitude": 20.0849,
            "name": "HONOKAA TOWN 215, HI US",
            "datacoverage": 0.6759,
            "id": "COOP:511856",
            "elevationUnit": "METERS",
            "longitude": -155.4824
        },
        {
            "elevation": 244.1,
            "mindate": "1919-01-01",
            "maxdate": "1975-01-01",
            "latitude": 20.15,
            "name": "HONOKANE 181.1, HI US",
            "datacoverage": 0.9881,
            "id": "COOP:511864",
            "elevationUnit": "METERS",
            "longitude": -155.73333
        },
        {
            "elevation": 9.1,
            "mindate": "1991-01-01",
            "maxdate": "2015-10-01",
            "latitude": 19.6787,
            "name": "HONOKOHAU HARBOR 68.14, HI US",
            "datacoverage": 0.9866,
            "id": "COOP:511880",
            "elevationUnit": "METERS",
            "longitude": -156.0214
        },
        {
            "elevation": 265.2,
            "mindate": "1919-01-01",
            "maxdate": "2010-12-01",
            "latitude": 20.965,
            "name": "HONOKOHAU 480, HI US",
            "datacoverage": 0.923,
            "id": "COOP:511882",
            "elevationUnit": "METERS",
            "longitude": -156.5913
        },
        {
            "elevation": 67.1,
            "mindate": "1928-01-01",
            "maxdate": "2012-12-01",
            "latitude": 20.9979,
            "name": "HONOKOHUA 493, HI US",
            "datacoverage": 0.9921,
            "id": "COOP:511887",
            "elevationUnit": "METERS",
            "longitude": -156.6575
        },
        {
            "elevation": 39.6,
            "mindate": "1919-01-01",
            "maxdate": "2003-10-01",
            "latitude": 21.01444,
            "name": "HONOLUA FIELD 49 494, HI US",
            "datacoverage": 0.777,
            "id": "COOP:511914",
            "elevationUnit": "METERS",
            "longitude": -156.6375
        },
        {
            "elevation": 0.9,
            "mindate": "1962-01-01",
            "maxdate": "2015-11-01",
            "latitude": 21.3152,
            "name": "HONOLULU OBSERVATORY 702.2, HI US",
            "datacoverage": 0.9954,
            "id": "COOP:511918",
            "elevationUnit": "METERS",
            "longitude": -157.9992
        },
        {
            "elevation": 2.1,
            "mindate": "1949-10-01",
            "maxdate": "2015-11-01",
            "latitude": 21.324,
            "name": "HONOLULU INTERNATIONAL AIRPORT, HI US",
            "datacoverage": 0.9874,
            "id": "COOP:511919",
            "elevationUnit": "METERS",
            "longitude": -157.9294
        },
        {
            "elevation": 103.9,
            "mindate": "2006-01-01",
            "maxdate": "2015-11-01",
            "latitude": 20.794,
            "name": "HONOMAELE 355.2, HI US",
            "datacoverage": 0.8994,
            "id": "COOP:511921",
            "elevationUnit": "METERS",
            "longitude": -156.0413
        },
        {
            "elevation": 609.6,
            "mindate": "1999-02-01",
            "maxdate": "2002-07-01",
            "latitude": 19.20194,
            "name": "HONOMALINO 2.35, HI US",
            "datacoverage": 0.9772,
            "id": "COOP:511922",
            "elevationUnit": "METERS",
            "longitude": -155.86167
        },
        {
            "elevation": 4,
            "mindate": "1919-01-01",
            "maxdate": "1977-01-01",
            "latitude": 21.31667,
            "name": "HONOLULU SUBSTATION 407, HI US",
            "datacoverage": 1,
            "id": "COOP:511924",
            "elevationUnit": "METERS",
            "longitude": -157.86667
        },
        {
            "elevation": 0.9,
            "mindate": "2008-06-01",
            "maxdate": "2015-11-01",
            "latitude": 21.3287,
            "name": "HONOLULU FIRE STATION 703.1, HI US",
            "datacoverage": 1,
            "id": "COOP:511925",
            "elevationUnit": "METERS",
            "longitude": -157.9298
        },
        {
            "elevation": 1914.1,
            "mindate": "1933-08-01",
            "maxdate": "2000-10-01",
            "latitude": 20.77778,
            "name": "HONOMANU GULCH 341, HI US",
            "datacoverage": 0.9801,
            "id": "COOP:511935",
            "elevationUnit": "METERS",
            "longitude": -156.23111
        },
        {
            "elevation": 91.4,
            "mindate": "1994-02-01",
            "maxdate": "1997-07-01",
            "latitude": 19.86667,
            "name": "HONOMU 136, HI US",
            "datacoverage": 1,
            "id": "COOP:511958",
            "elevationUnit": "METERS",
            "longitude": -155.11667
        },
        {
            "elevation": 335.3,
            "mindate": "1919-01-01",
            "maxdate": "1993-11-01",
            "latitude": 19.85,
            "name": "HONOMU MAUKA 138, HI US",
            "datacoverage": 1,
            "id": "COOP:511960",
            "elevationUnit": "METERS",
            "longitude": -155.15
        },
        {
            "elevation": 1905,
            "mindate": "1928-08-01",
            "maxdate": "2015-11-01",
            "latitude": 19.671,
            "name": "HONUAULA 71, HI US",
            "datacoverage": 0.9342,
            "id": "COOP:512047",
            "elevationUnit": "METERS",
            "longitude": -155.8764
        },
        {
            "elevation": 391.4,
            "mindate": "2001-10-01",
            "maxdate": "2004-04-01",
            "latitude": 20.92639,
            "name": "HORNER RESERVOIR 467.01, HI US",
            "datacoverage": 1,
            "id": "COOP:512144",
            "elevationUnit": "METERS",
            "longitude": -156.6525
        },
        {
            "elevation": 14.9,
            "mindate": "1919-01-01",
            "maxdate": "1976-06-01",
            "latitude": 21.3,
            "name": "H S P A EXPERIMENTAL STATION 707, HI US",
            "datacoverage": 0.9957,
            "id": "COOP:512146",
            "elevationUnit": "METERS",
            "longitude": -157.83333
        },
        {
            "elevation": 2371.3,
            "mindate": "1929-01-01",
            "maxdate": "2007-12-01",
            "latitude": 19.69722,
            "name": "HUALALAI 72, HI US",
            "datacoverage": 0.9705,
            "id": "COOP:512151",
            "elevationUnit": "METERS",
            "longitude": -155.87306
        },
        {
            "elevation": 597.4,
            "mindate": "1919-01-01",
            "maxdate": "2014-01-01",
            "latitude": 19.7532,
            "name": "HUEHUE 92.1, HI US",
            "datacoverage": 0.9873,
            "id": "COOP:512156",
            "elevationUnit": "METERS",
            "longitude": -155.9715
        },
        {
            "elevation": 243.8,
            "mindate": "1940-07-01",
            "maxdate": "2000-10-01",
            "latitude": 21.98278,
            "name": "HUKIPO 945, HI US",
            "datacoverage": 0.993,
            "id": "COOP:512161",
            "elevationUnit": "METERS",
            "longitude": -159.68306
        },
        {
            "elevation": 328.9,
            "mindate": "1965-03-01",
            "maxdate": "1978-03-01",
            "latitude": 20.88333,
            "name": "IAO NEEDLE 387.2, HI US",
            "datacoverage": 0.0798,
            "id": "COOP:512208",
            "elevationUnit": "METERS",
            "longitude": -156.55
        },
        {
            "elevation": 320,
            "mindate": "1935-01-01",
            "maxdate": "1987-01-01",
            "latitude": 22.03333,
            "name": "ILIILIULA INTK 1050, HI US",
            "datacoverage": 0.976,
            "id": "COOP:512222",
            "elevationUnit": "METERS",
            "longitude": -159.46667
        },
        {
            "elevation": 210.3,
            "mindate": "1919-01-01",
            "maxdate": "2010-01-01",
            "latitude": 22.15278,
            "name": "INTAKE WAINIHA 1086, HI US",
            "datacoverage": 0.9121,
            "id": "COOP:512227",
            "elevationUnit": "METERS",
            "longitude": -159.56806
        },
        {
            "elevation": 409,
            "mindate": "1939-01-01",
            "maxdate": "1978-12-01",
            "latitude": 19.13333,
            "name": "KAALA IKI 12, HI US",
            "datacoverage": 1,
            "id": "COOP:512249",
            "elevationUnit": "METERS",
            "longitude": -155.56667
        },
        {
            "elevation": 9.1,
            "mindate": "1965-05-01",
            "maxdate": "1972-12-01",
            "latitude": 21.3,
            "name": "HAWAII 724.11, HI US",
            "datacoverage": 0.0435,
            "id": "COOP:512269",
            "elevationUnit": "METERS",
            "longitude": -157.71667
        },
        {
            "elevation": 548.9,
            "mindate": "1985-05-01",
            "maxdate": "1987-03-01",
            "latitude": 20.2,
            "name": "KAAUHUHU, HI US",
            "datacoverage": 0.9972,
            "id": "COOP:512270",
            "elevationUnit": "METERS",
            "longitude": -155.83333
        },
        {
            "elevation": 408.4,
            "mindate": "1919-01-01",
            "maxdate": "1999-01-01",
            "latitude": 19.49528,
            "name": "KAAWALOA 29, HI US",
            "datacoverage": 0.9989,
            "id": "COOP:512327",
            "elevationUnit": "METERS",
            "longitude": -155.91944
        },
        {
            "elevation": 403.9,
            "mindate": "1972-05-01",
            "maxdate": "2015-11-01",
            "latitude": 21.561,
            "name": "KAENA POINT 841.3, HI US",
            "datacoverage": 0.9694,
            "id": "COOP:512410",
            "elevationUnit": "METERS",
            "longitude": -158.2382
        },
        {
            "elevation": 195.1,
            "mindate": "1967-12-01",
            "maxdate": "2014-01-01",
            "latitude": 20.9873,
            "name": "KAHAKULOA MAUKA 482.3, HI US",
            "datacoverage": 0.0297,
            "id": "COOP:512453",
            "elevationUnit": "METERS",
            "longitude": -156.546
        },
        {
            "elevation": 243.8,
            "mindate": "1919-01-01",
            "maxdate": "2009-01-01",
            "latitude": 21.51111,
            "name": "KAHANA 883, HI US",
            "datacoverage": 0.9731,
            "id": "COOP:512462",
            "elevationUnit": "METERS",
            "longitude": -157.89889
        },
        {
            "elevation": 1257,
            "mindate": "1965-03-01",
            "maxdate": "1981-01-01",
            "latitude": 19.13333,
            "name": "KAHIAWAI MAUKA 3.8, HI US",
            "datacoverage": 0.0535,
            "id": "COOP:512512",
            "elevationUnit": "METERS",
            "longitude": -155.76667
        },
        {
            "elevation": 609.6,
            "mindate": "1919-01-01",
            "maxdate": "2010-12-01",
            "latitude": 20.90472,
            "name": "KAHOMA INTAKE 374, HI US",
            "datacoverage": 0.9973,
            "id": "COOP:512552",
            "elevationUnit": "METERS",
            "longitude": -156.62583
        },
        {
            "elevation": 365.8,
            "mindate": "1989-11-01",
            "maxdate": "2015-11-01",
            "latitude": 20.55694,
            "name": "KAHOOLAWE 499.6, HI US",
            "datacoverage": 0.9457,
            "id": "COOP:512558",
            "elevationUnit": "METERS",
            "longitude": -156.575
        },
        {
            "elevation": 957.1,
            "mindate": "2002-05-01",
            "maxdate": "2009-08-01",
            "latitude": 19.10889,
            "name": "KAHUKU MAUKA 2.10, HI US",
            "datacoverage": 0.9994,
            "id": "COOP:512566",
            "elevationUnit": "METERS",
            "longitude": -155.74667
        },
        {
            "elevation": 667.5,
            "mindate": "1991-02-01",
            "maxdate": "2015-04-01",
            "latitude": 19.0654,
            "name": "KAHUKU MILL CAMP 6.3, HI US",
            "datacoverage": 0.9521,
            "id": "COOP:512568",
            "elevationUnit": "METERS",
            "longitude": -155.6781
        },
        {
            "elevation": 4,
            "mindate": "1919-01-01",
            "maxdate": "2014-01-01",
            "latitude": 21.695,
            "name": "KAHUKU 912, HI US",
            "datacoverage": 0.9661,
            "id": "COOP:512570",
            "elevationUnit": "METERS",
            "longitude": -157.9811
        },
        {
            "elevation": 15.5,
            "mindate": "1954-04-01",
            "maxdate": "2015-11-01",
            "latitude": 20.89972,
            "name": "KAHULUI AIRPORT, HI US",
            "datacoverage": 1,
            "id": "COOP:512572",
            "elevationUnit": "METERS",
            "longitude": -156.42861
        },
        {
            "elevation": 423.7,
            "mindate": "1993-10-01",
            "maxdate": "2015-11-01",
            "latitude": 19.8583,
            "name": "KAHUNA FALLS 138.2, HI US",
            "datacoverage": 0.9775,
            "id": "COOP:512595",
            "elevationUnit": "METERS",
            "longitude": -155.1608
        },
        {
            "elevation": 987.6,
            "mindate": "1977-01-01",
            "maxdate": "2014-01-01",
            "latitude": 20.1248,
            "name": "KAHUA RANCH HQTRS 176.3, HI US",
            "datacoverage": 0.0351,
            "id": "COOP:512600",
            "elevationUnit": "METERS",
            "longitude": -155.7887
        },
        {
            "elevation": 768.1,
            "mindate": "1925-01-01",
            "maxdate": "2010-12-01",
            "latitude": 20.84611,
            "name": "KAILIILI 436, HI US",
            "datacoverage": 0.968,
            "id": "COOP:512630",
            "elevationUnit": "METERS",
            "longitude": -156.27389
        },
        {
            "elevation": 213.4,
            "mindate": "1919-01-01",
            "maxdate": "2015-11-01",
            "latitude": 20.8905,
            "name": "KAILUA 446, HI US",
            "datacoverage": 0.9768,
            "id": "COOP:512679",
            "elevationUnit": "METERS",
            "longitude": -156.2127
        },
        {
            "elevation": 0.9,
            "mindate": "1959-01-01",
            "maxdate": "2014-01-01",
            "latitude": 21.3958,
            "name": "KAILUA FIRE STATION 791.3, HI US",
            "datacoverage": 1,
            "id": "COOP:512683",
            "elevationUnit": "METERS",
            "longitude": -157.7399
        },
        {
            "elevation": 152.4,
            "mindate": "1979-03-01",
            "maxdate": "1983-11-01",
            "latitude": 19.61667,
            "name": "KAILUA HEIGHTS 68.15, HI US",
            "datacoverage": 0.9468,
            "id": "COOP:512686",
            "elevationUnit": "METERS",
            "longitude": -155.96667
        },
        {
            "elevation": 457.2,
            "mindate": "1931-01-01",
            "maxdate": "2015-11-01",
            "latitude": 19.5336,
            "name": "KAINALIU 73.2, HI US",
            "datacoverage": 0.9765,
            "id": "COOP:512751",
            "elevationUnit": "METERS",
            "longitude": -155.9258
        },
        {
            "elevation": 390.1,
            "mindate": "1999-02-01",
            "maxdate": "2015-11-01",
            "latitude": 19.7509,
            "name": "KAIWIKI HOMESTEAD 89.11, HI US",
            "datacoverage": 1,
            "id": "COOP:512802",
            "elevationUnit": "METERS",
            "longitude": -155.1362
        },
        {
            "elevation": 24.1,
            "mindate": "1974-06-01",
            "maxdate": "1977-08-30",
            "latitude": 21.3,
            "name": "KALAMA VALLEY 724.13, HI US",
            "datacoverage": 0.0303,
            "id": "COOP:512842",
            "elevationUnit": "METERS",
            "longitude": -157.68333
        },
        {
            "elevation": 609.6,
            "mindate": "1975-06-01",
            "maxdate": "1986-03-01",
            "latitude": 19.73333,
            "name": "KALAOA 69.22, HI US",
            "datacoverage": 1,
            "id": "COOP:512887",
            "elevationUnit": "METERS",
            "longitude": -155.98333
        },
        {
            "elevation": 3,
            "mindate": "1967-07-01",
            "maxdate": "1989-07-01",
            "latitude": 19.33333,
            "name": "KALAPANA 1 67.8, HI US",
            "datacoverage": 0.9999,
            "id": "COOP:512894",
            "elevationUnit": "METERS",
            "longitude": -155.03333
        },
        {
            "elevation": 9.1,
            "mindate": "1933-01-01",
            "maxdate": "2015-11-01",
            "latitude": 21.1901,
            "name": "KALAUPAPA 563, HI US",
            "datacoverage": 0.9197,
            "id": "COOP:512896",
            "elevationUnit": "METERS",
            "longitude": -156.9827
        },
        {
            "elevation": 277.4,
            "mindate": "1927-09-01",
            "maxdate": "2015-11-01",
            "latitude": 21.37528,
            "name": "KALIHI RES SITE 777, HI US",
            "datacoverage": 0.9906,
            "id": "COOP:512960",
            "elevationUnit": "METERS",
            "longitude": -157.82222
        },
        {
            "elevation": 116.1,
            "mindate": "1958-12-01",
            "maxdate": "1970-12-01",
            "latitude": 22.18333,
            "name": "KALIHIWAI RESERVOIR, HI US",
            "datacoverage": 0.9999,
            "id": "COOP:512974",
            "elevationUnit": "METERS",
            "longitude": -159.43333
        },
        {
            "elevation": 396.2,
            "mindate": "2005-01-01",
            "maxdate": "2015-11-01",
            "latitude": 20.0579,
            "name": "KALOPA 216.8, HI US",
            "datacoverage": 1,
            "id": "COOP:512982",
            "elevationUnit": "METERS",
            "longitude": -155.432
        },
        {
            "elevation": 18,
            "mindate": "1965-06-01",
            "maxdate": "1970-09-01",
            "latitude": 21.06667,
            "name": "KAMALO MAUKA 542.6, HI US",
            "datacoverage": 0.0573,
            "id": "COOP:513046",
            "elevationUnit": "METERS",
            "longitude": -156.86667
        },
        {
            "elevation": 419.1,
            "mindate": "1954-01-01",
            "maxdate": "1983-04-01",
            "latitude": 19.03333,
            "name": "KAMAOA 2 5, HI US",
            "datacoverage": 1,
            "id": "COOP:513048",
            "elevationUnit": "METERS",
            "longitude": -155.66667
        },
        {
            "elevation": 317,
            "mindate": "1983-07-01",
            "maxdate": "2015-08-01",
            "latitude": 19.0106,
            "name": "KAMAOA PUUEO 5.1, HI US",
            "datacoverage": 0.9792,
            "id": "COOP:513054",
            "elevationUnit": "METERS",
            "longitude": -155.6591
        },
        {
            "elevation": 235,
            "mindate": "1965-05-01",
            "maxdate": "1973-09-01",
            "latitude": 21.30833,
            "name": "KAMEHAME 724.7, HI US",
            "datacoverage": 0.041,
            "id": "COOP:513056",
            "elevationUnit": "METERS",
            "longitude": -157.67917
        },
        {
            "elevation": 877.8,
            "mindate": "1981-06-01",
            "maxdate": "2014-01-01",
            "latitude": 20.0395,
            "name": "KAMUELA 1 201.2, HI US",
            "datacoverage": 0.0418,
            "id": "COOP:513072",
            "elevationUnit": "METERS",
            "longitude": -155.6085
        },
        {
            "elevation": 814.1,
            "mindate": "1919-01-01",
            "maxdate": "1980-03-01",
            "latitude": 20.01667,
            "name": "KAMUELA 192.2, HI US",
            "datacoverage": 1,
            "id": "COOP:513077",
            "elevationUnit": "METERS",
            "longitude": -155.66667
        },
        {
            "elevation": 812.3,
            "mindate": "1953-05-01",
            "maxdate": "1970-10-01",
            "latitude": 20,
            "name": "WAIMEA KOHALA AIRPORT, HI US",
            "datacoverage": 0.9998,
            "id": "COOP:513078",
            "elevationUnit": "METERS",
            "longitude": -155.66667
        },
        {
            "elevation": 1097.3,
            "mindate": "1931-01-01",
            "maxdate": "2015-11-01",
            "latitude": 22.12972,
            "name": "KANALOHULUHULU 1075, HI US",
            "datacoverage": 0.8274,
            "id": "COOP:513099",
            "elevationUnit": "METERS",
            "longitude": -159.65861
        },
        {
            "elevation": 246.9,
            "mindate": "1963-11-01",
            "maxdate": "2000-10-01",
            "latitude": 22.13278,
            "name": "KANEHA RESERVOIR 109, HI US",
            "datacoverage": 0.9999,
            "id": "COOP:513104",
            "elevationUnit": "METERS",
            "longitude": -159.37028
        },
        {
            "elevation": 57.9,
            "mindate": "1928-08-01",
            "maxdate": "1998-06-01",
            "latitude": 21.41667,
            "name": "KANEOHE MAUKA 781, HI US",
            "datacoverage": 0.9857,
            "id": "COOP:513113",
            "elevationUnit": "METERS",
            "longitude": -157.81667
        },
        {
            "elevation": 14.6,
            "mindate": "1985-04-01",
            "maxdate": "2015-11-01",
            "latitude": 21.4234,
            "name": "KANEOHE 838.1, HI US",
            "datacoverage": 0.9837,
            "id": "COOP:513117",
            "elevationUnit": "METERS",
            "longitude": -157.8015
        },
        {
            "elevation": 128,
            "mindate": "1944-08-01",
            "maxdate": "1970-12-01",
            "latitude": 21.3733,
            "name": "PALI GOLF COURSE 788.1, HI US",
            "datacoverage": 1,
            "id": "COOP:513123",
            "elevationUnit": "METERS",
            "longitude": -157.7853
        },
        {
            "elevation": 502.9,
            "mindate": "1919-01-01",
            "maxdate": "2007-04-01",
            "latitude": 20.88111,
            "name": "KANEPUU 690, HI US",
            "datacoverage": 0.5944,
            "id": "COOP:513130",
            "elevationUnit": "METERS",
            "longitude": -156.99278
        },
        {
            "elevation": 36.6,
            "mindate": "1984-01-01",
            "maxdate": "1994-11-01",
            "latitude": 19.31667,
            "name": "KAOHE MAKAI 24.4, HI US",
            "datacoverage": 0.3359,
            "id": "COOP:513146",
            "elevationUnit": "METERS",
            "longitude": -155.88333
        },
        {
            "elevation": 93.6,
            "mindate": "1940-07-01",
            "maxdate": "2014-01-01",
            "latitude": 22.0997,
            "name": "KAPAA STABLES 1104, HI US",
            "datacoverage": 1,
            "id": "COOP:513159",
            "elevationUnit": "METERS",
            "longitude": -159.3467
        },
        {
            "elevation": 0.9,
            "mindate": "1981-06-01",
            "maxdate": "2015-11-01",
            "latitude": 21.603,
            "name": "KAPAKA FARM 904.1, HI US",
            "datacoverage": 0.7971,
            "id": "COOP:513208",
            "elevationUnit": "METERS",
            "longitude": -157.9022
        },
        {
            "elevation": 3,
            "mindate": "1966-12-01",
            "maxdate": "1972-07-01",
            "latitude": 21.6,
            "name": "KAPAKA MAKAI 905.1, HI US",
            "datacoverage": 0.0848,
            "id": "COOP:513220",
            "elevationUnit": "METERS",
            "longitude": -157.9
        },
        {
            "elevation": 187.1,
            "mindate": "1922-01-01",
            "maxdate": "2015-11-01",
            "latitude": 21.33889,
            "name": "KAPALAMA 773, HI US",
            "datacoverage": 0.9974,
            "id": "COOP:513268",
            "elevationUnit": "METERS",
            "longitude": -157.85806
        },
        {
            "elevation": 652.3,
            "mindate": "1919-01-01",
            "maxdate": "2015-11-01",
            "latitude": 19.2754,
            "name": "KAPAPALA RANCH 36, HI US",
            "datacoverage": 0.9888,
            "id": "COOP:513300",
            "elevationUnit": "METERS",
            "longitude": -155.4513
        },
        {
            "elevation": 73.2,
            "mindate": "1987-03-01",
            "maxdate": "2015-11-01",
            "latitude": 20.9625,
            "name": "KAPALUA W. MAUI AIRPORT 462.4, HI US",
            "datacoverage": 0.9854,
            "id": "COOP:513317",
            "elevationUnit": "METERS",
            "longitude": -156.6753
        },
        {
            "elevation": 335.3,
            "mindate": "1993-09-01",
            "maxdate": "1999-09-01",
            "latitude": 19.95,
            "name": "KAPEHU MAUKA 132.4, HI US",
            "datacoverage": 1,
            "id": "COOP:513329",
            "elevationUnit": "METERS",
            "longitude": -155.21667
        },
        {
            "elevation": 6.1,
            "mindate": "1975-07-01",
            "maxdate": "2015-11-01",
            "latitude": 19.5014,
            "name": "KAPOHO BEACH 93.11, HI US",
            "datacoverage": 0.9731,
            "id": "COOP:513368",
            "elevationUnit": "METERS",
            "longitude": -154.8222
        },
        {
            "elevation": 88.4,
            "mindate": "1963-05-01",
            "maxdate": "2015-08-01",
            "latitude": 19.5038,
            "name": "KAPOHO LANDING 93.5, HI US",
            "datacoverage": 0.9809,
            "id": "COOP:513369",
            "elevationUnit": "METERS",
            "longitude": -154.8634
        },
        {
            "elevation": 533.4,
            "mindate": "2000-08-01",
            "maxdate": "2015-11-01",
            "latitude": 19.1445,
            "name": "KAPUA 2.36, HI US",
            "datacoverage": 1,
            "id": "COOP:513376",
            "elevationUnit": "METERS",
            "longitude": -155.8494
        },
        {
            "elevation": 484.6,
            "mindate": "1919-01-01",
            "maxdate": "2010-12-01",
            "latitude": 20.88139,
            "name": "KAUAULA INTAKE 375, HI US",
            "datacoverage": 0.9982,
            "id": "COOP:513433",
            "elevationUnit": "METERS",
            "longitude": -156.62611
        },
        {
            "elevation": 11.6,
            "mindate": "1963-05-01",
            "maxdate": "2015-11-01",
            "latitude": 20.7873,
            "name": "KAUMALAPAU HARBOR 658, HI US",
            "datacoverage": 0.9714,
            "id": "COOP:513461",
            "elevationUnit": "METERS",
            "longitude": -156.9911
        },
        {
            "elevation": 457.2,
            "mindate": "1994-09-01",
            "maxdate": "2000-12-01",
            "latitude": 19.83556,
            "name": "KAUKU 140.5, HI US",
            "datacoverage": 0.9997,
            "id": "COOP:513473",
            "elevationUnit": "METERS",
            "longitude": -155.15139
        },
        {
            "elevation": 359.7,
            "mindate": "1925-01-01",
            "maxdate": "2014-01-01",
            "latitude": 19.6801,
            "name": "KAUMANA 88.1, HI US",
            "datacoverage": 0.6718,
            "id": "COOP:513510",
            "elevationUnit": "METERS",
            "longitude": -155.1432
        },
        {
            "elevation": 3.7,
            "mindate": "1955-01-01",
            "maxdate": "2015-11-01",
            "latitude": 21.0868,
            "name": "KAUNAKAKAI 536, HI US",
            "datacoverage": 0.9823,
            "id": "COOP:513541",
            "elevationUnit": "METERS",
            "longitude": -157.0226
        },
        {
            "elevation": 29.6,
            "mindate": "1965-04-01",
            "maxdate": "2014-01-01",
            "latitude": 21.0946,
            "name": "KAUNAKAKAI MAU 536.5, HI US",
            "datacoverage": 0.0133,
            "id": "COOP:513547",
            "elevationUnit": "METERS",
            "longitude": -157.0174
        },
        {
            "elevation": 210.3,
            "mindate": "1971-08-01",
            "maxdate": "1973-03-01",
            "latitude": 20.91583,
            "name": "HALEHAKU 492.2, HI US",
            "datacoverage": 0.0381,
            "id": "COOP:513561",
            "elevationUnit": "METERS",
            "longitude": -156.28639
        },
        {
            "elevation": 413.9,
            "mindate": "1988-12-01",
            "maxdate": "2014-01-01",
            "latitude": 20.8817,
            "name": "KAUPAKULUA 435.3, HI US",
            "datacoverage": 0.085,
            "id": "COOP:513562",
            "elevationUnit": "METERS",
            "longitude": -156.2844
        },
        {
            "elevation": 303.3,
            "mindate": "1965-03-01",
            "maxdate": "2014-01-01",
            "latitude": 20.6482,
            "name": "KAUPO RANCH 259, HI US",
            "datacoverage": 0.0516,
            "id": "COOP:513576",
            "elevationUnit": "METERS",
            "longitude": -156.136
        },
        {
            "elevation": 12.2,
            "mindate": "1930-01-01",
            "maxdate": "2001-12-01",
            "latitude": 21.58028,
            "name": "KAWAIHAPAI 841, HI US",
            "datacoverage": 0.9815,
            "id": "COOP:513734",
            "elevationUnit": "METERS",
            "longitude": -158.19028
        },
        {
            "elevation": 360,
            "mindate": "1954-12-01",
            "maxdate": "1975-01-01",
            "latitude": 21.56667,
            "name": "KAWAI IKI INTAKE 880, HI US",
            "datacoverage": 0.9461,
            "id": "COOP:513741",
            "elevationUnit": "METERS",
            "longitude": -157.98333
        },
        {
            "elevation": 329.2,
            "mindate": "1919-01-01",
            "maxdate": "1994-08-01",
            "latitude": 20.08333,
            "name": "KAWAINUI LOWER 193, HI US",
            "datacoverage": 0.9868,
            "id": "COOP:513770",
            "elevationUnit": "METERS",
            "longitude": -155.65
        },
        {
            "elevation": 4.6,
            "mindate": "1996-07-01",
            "maxdate": "2001-01-01",
            "latitude": 19.64611,
            "name": "KEAAU BEACH 91.13, HI US",
            "datacoverage": 0.9988,
            "id": "COOP:513868",
            "elevationUnit": "METERS",
            "longitude": -154.98778
        },
        {
            "elevation": 67.1,
            "mindate": "1963-01-01",
            "maxdate": "2015-11-01",
            "latitude": 19.6329,
            "name": "KEAAU 92, HI US",
            "datacoverage": 0.9985,
            "id": "COOP:513872",
            "elevationUnit": "METERS",
            "longitude": -155.0339
        },
        {
            "elevation": 148.7,
            "mindate": "1925-01-01",
            "maxdate": "2015-11-01",
            "latitude": 20.8611,
            "name": "KEAHUA 410, HI US",
            "datacoverage": 0.9845,
            "id": "COOP:513910",
            "elevationUnit": "METERS",
            "longitude": -156.3829
        },
        {
            "elevation": 6.1,
            "mindate": "1980-03-01",
            "maxdate": "2015-11-01",
            "latitude": 19.7281,
            "name": "KE AHOLE PT. 68.13, HI US",
            "datacoverage": 0.965,
            "id": "COOP:513911",
            "elevationUnit": "METERS",
            "longitude": -156.0588
        },
        {
            "elevation": 518.2,
            "mindate": "1965-03-01",
            "maxdate": "2014-01-01",
            "latitude": 19.2354,
            "name": "KEAIWA CAMP 22.1, HI US",
            "datacoverage": 0.0468,
            "id": "COOP:513925",
            "elevationUnit": "METERS",
            "longitude": -155.4811
        },
        {
            "elevation": 451.1,
            "mindate": "1956-07-01",
            "maxdate": "2015-11-01",
            "latitude": 19.4918,
            "name": "KEALAKEKUA 26.2, HI US",
            "datacoverage": 0.5722,
            "id": "COOP:513977",
            "elevationUnit": "METERS",
            "longitude": -155.9117
        },
        {
            "elevation": 442,
            "mindate": "1976-05-01",
            "maxdate": "1977-08-01",
            "latitude": 19.5,
            "name": "KEALAKEKUA 2 28.7, HI US",
            "datacoverage": 0.8732,
            "id": "COOP:513980",
            "elevationUnit": "METERS",
            "longitude": -155.91667
        },
        {
            "elevation": 2.7,
            "mindate": "1919-01-01",
            "maxdate": "1987-01-01",
            "latitude": 22.1,
            "name": "KEALIA 1112, HI US",
            "datacoverage": 0.9988,
            "id": "COOP:513982",
            "elevationUnit": "METERS",
            "longitude": -159.31667
        },
        {
            "elevation": 466.3,
            "mindate": "1978-05-01",
            "maxdate": "1986-10-20",
            "latitude": 19.51667,
            "name": "KEALAKEKUA 3 29.11, HI US",
            "datacoverage": 0.0356,
            "id": "COOP:513985",
            "elevationUnit": "METERS",
            "longitude": -155.91667
        },
        {
            "elevation": 432.8,
            "mindate": "1986-11-01",
            "maxdate": "2015-10-01",
            "latitude": 19.5106,
            "name": "KEALAKEKUA 4 74.8, HI US",
            "datacoverage": 0.9873,
            "id": "COOP:513987",
            "elevationUnit": "METERS",
            "longitude": -155.9217
        },
        {
            "elevation": 88.4,
            "mindate": "1995-04-01",
            "maxdate": "2009-08-01",
            "latitude": 19.2923,
            "name": "KEALAKOMO 38.8, HI US",
            "datacoverage": 0.9998,
            "id": "COOP:514080",
            "elevationUnit": "METERS",
            "longitude": -155.1417
        },
        {
            "elevation": 298.7,
            "mindate": "1919-01-01",
            "maxdate": "2010-12-01",
            "latitude": 20.82944,
            "name": "KEANAE 346, HI US",
            "datacoverage": 0.9828,
            "id": "COOP:514091",
            "elevationUnit": "METERS",
            "longitude": -156.16806
        },
        {
            "elevation": 1609.3,
            "mindate": "1965-03-01",
            "maxdate": "2014-01-01",
            "latitude": 19.9185,
            "name": "KEANAKOLU CAMP 124.2, HI US",
            "datacoverage": 0.0654,
            "id": "COOP:514098",
            "elevationUnit": "METERS",
            "longitude": -155.3399
        },
        {
            "elevation": 231.6,
            "mindate": "1999-12-01",
            "maxdate": "2015-08-01",
            "latitude": 19.4132,
            "name": "KEAUOHANA 67.9, HI US",
            "datacoverage": 0.9577,
            "id": "COOP:514171",
            "elevationUnit": "METERS",
            "longitude": -154.9522
        },
        {
            "elevation": 6.1,
            "mindate": "1964-04-01",
            "maxdate": "1983-04-01",
            "latitude": 20.699722,
            "name": "KEAWAKAPU BCH 260.2, HI US",
            "datacoverage": 0.9955,
            "id": "COOP:514193",
            "elevationUnit": "METERS",
            "longitude": -156.444722
        },
        {
            "elevation": 1171,
            "mindate": "1919-01-01",
            "maxdate": "1975-09-01",
            "latitude": 20.11667,
            "name": "KEHENA 181.2, HI US",
            "datacoverage": 0.9751,
            "id": "COOP:514245",
            "elevationUnit": "METERS",
            "longitude": -155.75
        },
        {
            "elevation": 3,
            "mindate": "1919-01-01",
            "maxdate": "2014-01-01",
            "latitude": 22.0025,
            "name": "KEKAHA 944, HI US",
            "datacoverage": 0.9949,
            "id": "COOP:514272",
            "elevationUnit": "METERS",
            "longitude": -159.75472
        },
        {
            "elevation": 221,
            "mindate": "1925-01-01",
            "maxdate": "2001-01-01",
            "latitude": 21.53861,
            "name": "KEMOO CAMP 8 855, HI US",
            "datacoverage": 0.9912,
            "id": "COOP:514318",
            "elevationUnit": "METERS",
            "longitude": -158.08639
        },
        {
            "elevation": 170.7,
            "mindate": "1964-04-01",
            "maxdate": "1997-06-01",
            "latitude": 21.19444,
            "name": "KEONELELE PENS 551, HI US",
            "datacoverage": 0.99,
            "id": "COOP:514394",
            "elevationUnit": "METERS",
            "longitude": -157.20472
        },
        {
            "elevation": 94.2,
            "mindate": "1990-01-01",
            "maxdate": "2014-01-01",
            "latitude": 21.18039,
            "name": "KEPUHI SHERATON 550.2, HI US",
            "datacoverage": 0.9816,
            "id": "COOP:514400",
            "elevationUnit": "METERS",
            "longitude": -157.23169
        },
        {
            "elevation": 278.6,
            "mindate": "1998-06-01",
            "maxdate": "2015-11-01",
            "latitude": 19.9714,
            "name": "KIHALANI 132.5, HI US",
            "datacoverage": 0.9428,
            "id": "COOP:514459",
            "elevationUnit": "METERS",
            "longitude": -155.2359
        },
        {
            "elevation": 48.2,
            "mindate": "1931-01-01",
            "maxdate": "2015-11-01",
            "latitude": 20.7912,
            "name": "KIHEI 311, HI US",
            "datacoverage": 0.9961,
            "id": "COOP:514489",
            "elevationUnit": "METERS",
            "longitude": -156.4421
        },
        {
            "elevation": 7.6,
            "mindate": "1979-07-01",
            "maxdate": "2015-11-01",
            "latitude": 21.6793,
            "name": "KII KAHUKU 911, HI US",
            "datacoverage": 0.9697,
            "id": "COOP:514500",
            "elevationUnit": "METERS",
            "longitude": -157.9453
        },
        {
            "elevation": 118.9,
            "mindate": "1919-01-01",
            "maxdate": "2015-11-01",
            "latitude": 22.21389,
            "name": "KILAUEA 1134, HI US",
            "datacoverage": 0.9828,
            "id": "COOP:514561",
            "elevationUnit": "METERS",
            "longitude": -159.40444
        },
        {
            "elevation": 128,
            "mindate": "1930-09-01",
            "maxdate": "1975-01-01",
            "latitude": 22.18333,
            "name": "KILAUEA FIELD 17 113, HI US",
            "datacoverage": 0.9362,
            "id": "COOP:514566",
            "elevationUnit": "METERS",
            "longitude": -159.4
        },
        {
            "elevation": 646.2,
            "mindate": "1929-05-01",
            "maxdate": "1998-11-01",
            "latitude": 19.06667,
            "name": "KIOLAKAA A AND F 6, HI US",
            "datacoverage": 0.9018,
            "id": "COOP:514625",
            "elevationUnit": "METERS",
            "longitude": -155.66667
        },
        {
            "elevation": 454.2,
            "mindate": "1953-01-01",
            "maxdate": "1979-03-01",
            "latitude": 19.73333,
            "name": "AMAUULU 89.2, HI US",
            "datacoverage": 1,
            "id": "COOP:514632",
            "elevationUnit": "METERS",
            "longitude": -155.15
        },
        {
            "elevation": 78.9,
            "mindate": "1919-01-01",
            "maxdate": "1981-04-01",
            "latitude": 20.65,
            "name": "KIPAHULU 258, HI US",
            "datacoverage": 1,
            "id": "COOP:514634",
            "elevationUnit": "METERS",
            "longitude": -156.06667
        },
        {
            "elevation": 655.9,
            "mindate": "1965-03-01",
            "maxdate": "1976-10-27",
            "latitude": 22.03333,
            "name": "KITANO 1037.1, HI US",
            "datacoverage": 0.0518,
            "id": "COOP:514650",
            "elevationUnit": "METERS",
            "longitude": -159.68333
        },
        {
            "elevation": 95.1,
            "mindate": "1919-01-01",
            "maxdate": "1971-03-01",
            "latitude": 20.23333,
            "name": "KOHALA 179.1, HI US",
            "datacoverage": 1,
            "id": "COOP:514670",
            "elevationUnit": "METERS",
            "longitude": -155.78333
        },
        {
            "elevation": 292.9,
            "mindate": "1919-01-01",
            "maxdate": "1975-09-01",
            "latitude": 20.21667,
            "name": "KOHALA MAULILI 176, HI US",
            "datacoverage": 0.9986,
            "id": "COOP:514675",
            "elevationUnit": "METERS",
            "longitude": -155.78333
        },
        {
            "elevation": 164.6,
            "mindate": "1919-01-01",
            "maxdate": "2015-10-01",
            "latitude": 20.225,
            "name": "KOHALA MIS 175.1, HI US",
            "datacoverage": 0.988,
            "id": "COOP:514680",
            "elevationUnit": "METERS",
            "longitude": -155.7933
        },
        {
            "elevation": 219.5,
            "mindate": "1919-01-01",
            "maxdate": "1994-08-01",
            "latitude": 20.08333,
            "name": "KOIAWE LOWER 196, HI US",
            "datacoverage": 0.989,
            "id": "COOP:514685",
            "elevationUnit": "METERS",
            "longitude": -155.63333
        },
        {
            "elevation": 11,
            "mindate": "1936-08-01",
            "maxdate": "2000-10-01",
            "latitude": 22.07583,
            "name": "KOLO 1033, HI US",
            "datacoverage": 0.9909,
            "id": "COOP:514735",
            "elevationUnit": "METERS",
            "longitude": -159.75889
        },
        {
            "elevation": 73.2,
            "mindate": "1919-01-01",
            "maxdate": "2015-09-01",
            "latitude": 21.90861,
            "name": "KOLOA 936, HI US",
            "datacoverage": 0.9837,
            "id": "COOP:514742",
            "elevationUnit": "METERS",
            "longitude": -159.46139
        },
        {
            "elevation": 15.8,
            "mindate": "1976-01-01",
            "maxdate": "1979-05-01",
            "latitude": 21.87,
            "name": "MAKAHUENA POINT 940., HI US",
            "datacoverage": 1,
            "id": "COOP:514748",
            "elevationUnit": "METERS",
            "longitude": -159.443889
        },
        {
            "elevation": 195.1,
            "mindate": "1919-01-01",
            "maxdate": "2014-12-01",
            "latitude": 21.94833,
            "name": "KOLOA MAUKA 994, HI US",
            "datacoverage": 0.9548,
            "id": "COOP:514750",
            "elevationUnit": "METERS",
            "longitude": -159.46694
        },
        {
            "elevation": 149.4,
            "mindate": "1934-01-01",
            "maxdate": "2015-04-01",
            "latitude": 22.1903,
            "name": "KOLOKO RESERVOIR 1137, HI US",
            "datacoverage": 0.9335,
            "id": "COOP:514758",
            "elevationUnit": "METERS",
            "longitude": -159.3847
        },
        {
            "elevation": 9.1,
            "mindate": "1949-10-01",
            "maxdate": "1981-09-01",
            "latitude": 19.65,
            "name": "KONA AIRPORT 68.3, HI US",
            "datacoverage": 0.9697,
            "id": "COOP:514764",
            "elevationUnit": "METERS",
            "longitude": -156.01667
        },
        {
            "elevation": 21.3,
            "mindate": "1968-05-01",
            "maxdate": "2015-09-01",
            "latitude": 19.8187,
            "name": "KONA VILLAGE 93.8, HI US",
            "datacoverage": 0.9912,
            "id": "COOP:514765",
            "elevationUnit": "METERS",
            "longitude": -155.9891
        },
        {
            "elevation": 353.6,
            "mindate": "1919-01-01",
            "maxdate": "1999-01-01",
            "latitude": 21.49806,
            "name": "KOOLAU DAM 833, HI US",
            "datacoverage": 0.9969,
            "id": "COOP:514766",
            "elevationUnit": "METERS",
            "longitude": -157.96972
        },
        {
            "elevation": 267.3,
            "mindate": "1919-01-01",
            "maxdate": "2014-01-01",
            "latitude": 21.1539,
            "name": "KUALAPUU 534, HI US",
            "datacoverage": 1,
            "id": "COOP:514778",
            "elevationUnit": "METERS",
            "longitude": -157.0361
        },
        {
            "elevation": 341.4,
            "mindate": "1993-01-01",
            "maxdate": "2011-12-01",
            "latitude": 20.8901,
            "name": "KUIAHA 490.7, HI US",
            "datacoverage": 0.9957,
            "id": "COOP:514806",
            "elevationUnit": "METERS",
            "longitude": -156.2998
        },
        {
            "elevation": 256,
            "mindate": "1920-01-01",
            "maxdate": "1994-09-01",
            "latitude": 20.03333,
            "name": "KUKAIAU 222, HI US",
            "datacoverage": 0.9967,
            "id": "COOP:514815",
            "elevationUnit": "METERS",
            "longitude": -155.35
        },
        {
            "elevation": 75,
            "mindate": "2008-09-01",
            "maxdate": "2015-11-01",
            "latitude": 21.51083,
            "name": "KUALOA RANCH HAKIPUU 886.11, HI US",
            "datacoverage": 1,
            "id": "COOP:514828",
            "elevationUnit": "METERS",
            "longitude": -157.86222
        },
        {
            "elevation": 24.7,
            "mindate": "1996-09-01",
            "maxdate": "2015-11-01",
            "latitude": 21.53,
            "name": "KUALOA RANCH 885.6, HI US",
            "datacoverage": 0.7447,
            "id": "COOP:514829",
            "elevationUnit": "METERS",
            "longitude": -157.85028
        },
        {
            "elevation": 14.6,
            "mindate": "2006-06-01",
            "maxdate": "2015-11-01",
            "latitude": 21.52037,
            "name": "KUALOA RANCH HEADQUARTERS 886.9, HI US",
            "datacoverage": 1,
            "id": "COOP:514830",
            "elevationUnit": "METERS",
            "longitude": -157.83885
        },
        {
            "elevation": 210.3,
            "mindate": "1976-02-01",
            "maxdate": "1977-04-30",
            "latitude": 20.91583,
            "name": "HALEHAKU 492.2, HI US",
            "datacoverage": 0.1187,
            "id": "COOP:514840",
            "elevationUnit": "METERS",
            "longitude": -156.28639
        },
        {
            "elevation": 1764.8,
            "mindate": "1928-01-01",
            "maxdate": "1984-12-01",
            "latitude": 20.895,
            "name": "PUU KUKUI 380, HI US",
            "datacoverage": 0.5497,
            "id": "COOP:514887",
            "elevationUnit": "METERS",
            "longitude": -156.58972
        },
        {
            "elevation": 225.6,
            "mindate": "1994-10-01",
            "maxdate": "2006-06-01",
            "latitude": 20.12167,
            "name": "KUKUIHAELE 206.1, HI US",
            "datacoverage": 0.9931,
            "id": "COOP:514927",
            "elevationUnit": "METERS",
            "longitude": -155.57417
        },
        {
            "elevation": 298.7,
            "mindate": "1919-01-01",
            "maxdate": "1994-09-01",
            "latitude": 20.11667,
            "name": "KUKUIHAELE HIC 199, HI US",
            "datacoverage": 0.9989,
            "id": "COOP:514928",
            "elevationUnit": "METERS",
            "longitude": -155.58333
        },
        {
            "elevation": 91.4,
            "mindate": "1919-01-01",
            "maxdate": "1994-08-01",
            "latitude": 20.113611,
            "name": "KUKUIHAELE MILL 206, HI US",
            "datacoverage": 1,
            "id": "COOP:514938",
            "elevationUnit": "METERS",
            "longitude": -155.549167
        },
        {
            "elevation": 30.5,
            "mindate": "1919-01-01",
            "maxdate": "2014-12-01",
            "latitude": 21.89111,
            "name": "KUKUIULA 935, HI US",
            "datacoverage": 0.9592,
            "id": "COOP:514950",
            "elevationUnit": "METERS",
            "longitude": -159.495
        },
        {
            "elevation": 944.9,
            "mindate": "1979-04-01",
            "maxdate": "2015-11-01",
            "latitude": 20.7584,
            "name": "KULA BRNCH STATION 324.5, HI US",
            "datacoverage": 1,
            "id": "COOP:515000",
            "elevationUnit": "METERS",
            "longitude": -156.3212
        },
        {
            "elevation": 769,
            "mindate": "1964-01-01",
            "maxdate": "1977-05-01",
            "latitude": 20.78333,
            "name": "KULA HEIGHTS 323.2, HI US",
            "datacoverage": 0.9998,
            "id": "COOP:515003",
            "elevationUnit": "METERS",
            "longitude": -156.31667
        },
        {
            "elevation": 923.5,
            "mindate": "1979-05-01",
            "maxdate": "2015-11-01",
            "latitude": 20.7009,
            "name": "KULA HOSPITAL 267, HI US",
            "datacoverage": 0.9498,
            "id": "COOP:515004",
            "elevationUnit": "METERS",
            "longitude": -156.3562
        },
        {
            "elevation": 923.5,
            "mindate": "1919-01-01",
            "maxdate": "1980-12-01",
            "latitude": 20.7009,
            "name": "KULA HOSPITAL 267, HI US",
            "datacoverage": 0.9973,
            "id": "COOP:515006",
            "elevationUnit": "METERS",
            "longitude": -156.3562
        },
        {
            "elevation": 1575.8,
            "mindate": "1947-11-01",
            "maxdate": "2014-12-01",
            "latitude": 19.5494,
            "name": "KULANI CAMP 79, HI US",
            "datacoverage": 0.9466,
            "id": "COOP:515011",
            "elevationUnit": "METERS",
            "longitude": -155.3011
        },
        {
            "elevation": 2529.8,
            "mindate": "1951-01-01",
            "maxdate": "2015-11-01",
            "latitude": 19.5833,
            "name": "KULANI MAUKA 76, HI US",
            "datacoverage": 0.9808,
            "id": "COOP:515018",
            "elevationUnit": "METERS",
            "longitude": -155.4549
        },
        {
            "elevation": 1748.3,
            "mindate": "1947-10-01",
            "maxdate": "1996-07-01",
            "latitude": 19.58333,
            "name": "KULANI SCHOOL SITE 78, HI US",
            "datacoverage": 0.9931,
            "id": "COOP:515021",
            "elevationUnit": "METERS",
            "longitude": -155.33333
        },
        {
            "elevation": 223.1,
            "mindate": "1999-08-01",
            "maxdate": "2014-01-01",
            "latitude": 19.5914,
            "name": "KURTISTOWN 91.14, HI US",
            "datacoverage": 1,
            "id": "COOP:515102",
            "elevationUnit": "METERS",
            "longitude": -155.0638
        },
        {
            "elevation": 24.4,
            "mindate": "1989-09-01",
            "maxdate": "1995-02-01",
            "latitude": 19.31667,
            "name": "LAE APUKI 67.12, HI US",
            "datacoverage": 0.9706,
            "id": "COOP:515150",
            "elevationUnit": "METERS",
            "longitude": -155.06667
        },
        {
            "elevation": 11.6,
            "mindate": "1919-01-01",
            "maxdate": "2011-12-01",
            "latitude": 20.8788,
            "name": "LAHAINA 361, HI US",
            "datacoverage": 0.8916,
            "id": "COOP:515177",
            "elevationUnit": "METERS",
            "longitude": -156.6741
        },
        {
            "elevation": 797.1,
            "mindate": "1965-03-01",
            "maxdate": "2015-11-01",
            "latitude": 20.013,
            "name": "LALAMILO FIELD OF 191.1, HI US",
            "datacoverage": 0.9835,
            "id": "COOP:515260",
            "elevationUnit": "METERS",
            "longitude": -155.6686
        },
        {
            "elevation": 396.2,
            "mindate": "1950-01-01",
            "maxdate": "2012-12-01",
            "latitude": 20.7895,
            "name": "LANAI AIRPORT 656, HI US",
            "datacoverage": 0.6137,
            "id": "COOP:515275",
            "elevationUnit": "METERS",
            "longitude": -156.9485
        },
        {
            "elevation": 493.8,
            "mindate": "1930-01-01",
            "maxdate": "2015-08-01",
            "latitude": 20.8291,
            "name": "LANAI CITY 672, HI US",
            "datacoverage": 0.9631,
            "id": "COOP:515286",
            "elevationUnit": "METERS",
            "longitude": -156.9202
        },
        {
            "elevation": 1027.2,
            "mindate": "1963-05-01",
            "maxdate": "2004-12-01",
            "latitude": 20.81667,
            "name": "LANAIHALE 684, HI US",
            "datacoverage": 0.9519,
            "id": "COOP:515301",
            "elevationUnit": "METERS",
            "longitude": -156.87694
        },
        {
            "elevation": 466.3,
            "mindate": "1943-01-01",
            "maxdate": "2015-05-01",
            "latitude": 19.6633,
            "name": "LANIHAU 68.2, HI US",
            "datacoverage": 0.9989,
            "id": "COOP:515330",
            "elevationUnit": "METERS",
            "longitude": -155.9604
        },
        {
            "elevation": 390.1,
            "mindate": "1919-01-01",
            "maxdate": "2010-12-01",
            "latitude": 20.85778,
            "name": "LAUNIUPOKO INTK 376, HI US",
            "datacoverage": 0.9964,
            "id": "COOP:515404",
            "elevationUnit": "METERS",
            "longitude": -156.61778
        },
        {
            "elevation": 67.1,
            "mindate": "1956-10-01",
            "maxdate": "2014-12-01",
            "latitude": 20.8511,
            "name": "LAUNIUPOKO VLLG 372, HI US",
            "datacoverage": 1,
            "id": "COOP:515408",
            "elevationUnit": "METERS",
            "longitude": -156.6464
        },
        {
            "elevation": 140.2,
            "mindate": "1993-11-01",
            "maxdate": "2001-10-01",
            "latitude": 19.98778,
            "name": "LAUPAHOEHOE 133.1, HI US",
            "datacoverage": 1,
            "id": "COOP:515427",
            "elevationUnit": "METERS",
            "longitude": -155.24083
        },
        {
            "mindate": "1965-03-01",
            "maxdate": "1978-12-01",
            "latitude": 19.48333,
            "name": "LAVA TREE PARK 66.1, HI US",
            "datacoverage": 0.1687,
            "id": "COOP:515460",
            "longitude": -154.9
        },
        {
            "elevation": 221,
            "mindate": "1982-09-01",
            "maxdate": "1991-10-01",
            "latitude": 19.45,
            "name": "LEILANI ESTATES 67.1, HI US",
            "datacoverage": 0.9819,
            "id": "COOP:515525",
            "elevationUnit": "METERS",
            "longitude": -154.91667
        },
        {
            "elevation": 115.8,
            "mindate": "1963-11-01",
            "maxdate": "2014-01-01",
            "latitude": 22.02417,
            "name": "LIHUE VAR STATION 1062.1, HI US",
            "datacoverage": 0.9999,
            "id": "COOP:515560",
            "elevationUnit": "METERS",
            "longitude": -159.38667
        },
        {
            "elevation": 63.1,
            "mindate": "1919-01-01",
            "maxdate": "2000-10-01",
            "latitude": 21.97417,
            "name": "LIHUE 1020, HI US",
            "datacoverage": 0.999,
            "id": "COOP:515575",
            "elevationUnit": "METERS",
            "longitude": -159.36833
        },
        {
            "elevation": 30.5,
            "mindate": "1951-01-01",
            "maxdate": "2015-11-01",
            "latitude": 21.98389,
            "name": "LIHUE WEATHER SERVICE OFFICE AIRPORT 1020.1, HI US",
            "datacoverage": 1,
            "id": "COOP:515580",
            "elevationUnit": "METERS",
            "longitude": -159.34056
        },
        {
            "elevation": 36,
            "mindate": "1925-01-01",
            "maxdate": "1976-09-18",
            "latitude": 21.4212,
            "name": "LUALUALEI 804, HI US",
            "datacoverage": 0.7666,
            "id": "COOP:515647",
            "elevationUnit": "METERS",
            "longitude": -158.1351
        },
        {
            "elevation": 458.1,
            "mindate": "1953-12-01",
            "maxdate": "1976-07-01",
            "latitude": 21.48333,
            "name": "LUALUALEI TR NL 803., HI US",
            "datacoverage": 0.9743,
            "id": "COOP:515650",
            "elevationUnit": "METERS",
            "longitude": -158.13333
        },
        {
            "elevation": 81.7,
            "mindate": "1967-05-01",
            "maxdate": "2014-01-01",
            "latitude": 21.3875,
            "name": "LULUKU 781.7, HI US",
            "datacoverage": 0.0488,
            "id": "COOP:515655",
            "elevationUnit": "METERS",
            "longitude": -157.8094
        },
        {
            "elevation": 378,
            "mindate": "1919-01-01",
            "maxdate": "2010-12-01",
            "latitude": 20.88889,
            "name": "LUPI UPPER 442, HI US",
            "datacoverage": 0.9819,
            "id": "COOP:515665",
            "elevationUnit": "METERS",
            "longitude": -156.24806
        },
        {
            "elevation": 292.6,
            "mindate": "1986-06-01",
            "maxdate": "2009-05-01",
            "latitude": 19.7591,
            "name": "MAHAIULA 92.7, HI US",
            "datacoverage": 0.9819,
            "id": "COOP:515670",
            "elevationUnit": "METERS",
            "longitude": -155.9923
        },
        {
            "elevation": 11.9,
            "mindate": "1956-09-01",
            "maxdate": "1971-11-01",
            "latitude": 21.28333,
            "name": "LUNALILO HOME, HI US",
            "datacoverage": 1,
            "id": "COOP:515675",
            "elevationUnit": "METERS",
            "longitude": -157.7
        },
        {
            "elevation": 469.4,
            "mindate": "1955-01-01",
            "maxdate": "2007-04-01",
            "latitude": 20.86639,
            "name": "MAHANA 694, HI US",
            "datacoverage": 0.9921,
            "id": "COOP:515704",
            "elevationUnit": "METERS",
            "longitude": -156.91444
        },
        {
            "elevation": 24.4,
            "mindate": "1919-01-01",
            "maxdate": "2015-11-01",
            "latitude": 21.8999,
            "name": "MAHAULEPU 941.1, HI US",
            "datacoverage": 0.81,
            "id": "COOP:515710",
            "elevationUnit": "METERS",
            "longitude": -159.4211
        },
        {
            "elevation": 256.6,
            "mindate": "1919-01-01",
            "maxdate": "2015-11-01",
            "latitude": 20.9594,
            "name": "MAHINAHINA 466, HI US",
            "datacoverage": 0.9914,
            "id": "COOP:515715",
            "elevationUnit": "METERS",
            "longitude": -156.6505
        },
        {
            "elevation": 76.2,
            "mindate": "1987-12-01",
            "maxdate": "2015-11-01",
            "latitude": 21.4784,
            "name": "MAKAHA COUNTRY CLUB, HI US",
            "datacoverage": 0.9864,
            "id": "COOP:515758",
            "elevationUnit": "METERS",
            "longitude": -158.1964
        },
        {
            "elevation": 1164.3,
            "mindate": "1971-04-01",
            "maxdate": "2015-04-01",
            "latitude": 19.9742,
            "name": "MAKAHALAU 103, HI US",
            "datacoverage": 0.9868,
            "id": "COOP:515761",
            "elevationUnit": "METERS",
            "longitude": -155.548
        },
        {
            "elevation": 6.1,
            "mindate": "1928-01-01",
            "maxdate": "1977-03-01",
            "latitude": 21.46667,
            "name": "MAKAHA KAI 796.1, HI US",
            "datacoverage": 1,
            "id": "COOP:515766",
            "elevationUnit": "METERS",
            "longitude": -158.21667
        },
        {
            "elevation": 121.9,
            "mindate": "1969-02-01",
            "maxdate": "1987-12-01",
            "latitude": 21.48333,
            "name": "MAKAHA PUMP 800.2, HI US",
            "datacoverage": 0.9182,
            "id": "COOP:515782",
            "elevationUnit": "METERS",
            "longitude": -158.2
        },
        {
            "elevation": 15.8,
            "mindate": "1958-01-01",
            "maxdate": "1976-04-01",
            "latitude": 21.87,
            "name": "MAKAHUENA POINT 940., HI US",
            "datacoverage": 0.9593,
            "id": "COOP:515785",
            "elevationUnit": "METERS",
            "longitude": -159.443889
        },
        {
            "elevation": 92,
            "mindate": "1976-02-01",
            "maxdate": "1981-05-01",
            "latitude": 21.35,
            "name": "MAKAKILO 730.1, HI US",
            "datacoverage": 1,
            "id": "COOP:515789",
            "elevationUnit": "METERS",
            "longitude": -158.1
        },
        {
            "elevation": 35.1,
            "mindate": "1981-08-01",
            "maxdate": "1982-10-01",
            "latitude": 21.33333,
            "name": "MAKAKILO RES 6B 730., HI US",
            "datacoverage": 0.999,
            "id": "COOP:515791",
            "elevationUnit": "METERS",
            "longitude": -158.06667
        },
        {
            "elevation": 8.5,
            "mindate": "1919-01-01",
            "maxdate": "1975-01-01",
            "latitude": 21.299,
            "name": "HAWAII KAI G.C. 724.19, HI US",
            "datacoverage": 0.9777,
            "id": "COOP:515800",
            "elevationUnit": "METERS",
            "longitude": -157.6644
        },
        {
            "elevation": 26.8,
            "mindate": "1982-05-01",
            "maxdate": "2015-11-01",
            "latitude": 20.6419,
            "name": "MAKENA GLF CRS 249.1, HI US",
            "datacoverage": 0.9702,
            "id": "COOP:515842",
            "elevationUnit": "METERS",
            "longitude": -156.44
        },
        {
            "elevation": 42.7,
            "mindate": "1919-01-01",
            "maxdate": "2015-11-01",
            "latitude": 21.91889,
            "name": "MAKAWELI 965, HI US",
            "datacoverage": 0.9639,
            "id": "COOP:515864",
            "elevationUnit": "METERS",
            "longitude": -159.62778
        },
        {
            "elevation": 350.5,
            "mindate": "1963-05-01",
            "maxdate": "2015-11-01",
            "latitude": 20.76,
            "name": "MALAUEA 676, HI US",
            "datacoverage": 0.9698,
            "id": "COOP:516012",
            "elevationUnit": "METERS",
            "longitude": -156.9097
        },
        {
            "elevation": 6.1,
            "mindate": "1919-01-01",
            "maxdate": "2000-10-01",
            "latitude": 22.03,
            "name": "MANA 1026, HI US",
            "datacoverage": 0.9969,
            "id": "COOP:516082",
            "elevationUnit": "METERS",
            "longitude": -159.76278
        },
        {
            "elevation": 100.9,
            "mindate": "1970-03-01",
            "maxdate": "1972-07-01",
            "latitude": 21.41667,
            "name": "MOMILANI 835.1, HI US",
            "datacoverage": 0.0607,
            "id": "COOP:516089",
            "elevationUnit": "METERS",
            "longitude": -157.96667
        },
        {
            "elevation": 92,
            "mindate": "1966-02-01",
            "maxdate": "1976-10-30",
            "latitude": 21.91667,
            "name": "M AND M 1001, HI US",
            "datacoverage": 0.1114,
            "id": "COOP:516097",
            "elevationUnit": "METERS",
            "longitude": -159.46667
        },
        {
            "elevation": 73.2,
            "mindate": "1919-01-01",
            "maxdate": "2015-11-01",
            "latitude": 21.3113,
            "name": "MANOA 712.1, HI US",
            "datacoverage": 0.9923,
            "id": "COOP:516122",
            "elevationUnit": "METERS",
            "longitude": -157.8157
        },
        {
            "elevation": 152.4,
            "mindate": "1975-03-01",
            "maxdate": "2015-11-01",
            "latitude": 21.3331,
            "name": "MANOA LYON ARBO 785.2, HI US",
            "datacoverage": 0.9979,
            "id": "COOP:516128",
            "elevationUnit": "METERS",
            "longitude": -157.8025
        },
        {
            "elevation": 198.1,
            "mindate": "1927-09-01",
            "maxdate": "2006-07-01",
            "latitude": 21.32833,
            "name": "MANOA TUN 2 716, HI US",
            "datacoverage": 0.9905,
            "id": "COOP:516130",
            "elevationUnit": "METERS",
            "longitude": -157.79139
        },
        {
            "elevation": 536.4,
            "mindate": "1929-01-01",
            "maxdate": "2015-07-01",
            "latitude": 19.1103,
            "name": "MANUKA 2, HI US",
            "datacoverage": 0.9885,
            "id": "COOP:516134",
            "elevationUnit": "METERS",
            "longitude": -155.8262
        },
        {
            "elevation": 9.1,
            "mindate": "1921-01-01",
            "maxdate": "1973-12-01",
            "latitude": 21.08333,
            "name": "MAPULEHU 542, HI US",
            "datacoverage": 0.9466,
            "id": "COOP:516138",
            "elevationUnit": "METERS",
            "longitude": -156.83333
        },
        {
            "elevation": 51.2,
            "mindate": "1997-02-01",
            "maxdate": "1997-12-01",
            "latitude": 21.30139,
            "name": "MARYKNOLL SCHOOL 707.4, HI US",
            "datacoverage": 0.9113,
            "id": "COOP:516141",
            "elevationUnit": "METERS",
            "longitude": -157.83361
        },
        {
            "elevation": 1521,
            "mindate": "1983-05-01",
            "maxdate": "2015-04-01",
            "latitude": 19.1618,
            "name": "MAUKA RESERVOIR 3.11, HI US",
            "datacoverage": 0.9584,
            "id": "COOP:516144",
            "elevationUnit": "METERS",
            "longitude": -155.6695
        },
        {
            "elevation": 4198,
            "mindate": "1972-07-01",
            "maxdate": "1982-01-01",
            "latitude": 19.81667,
            "name": "MAUNA KEA OBSERVATOR, HI US",
            "datacoverage": 0.9213,
            "id": "COOP:516183",
            "elevationUnit": "METERS",
            "longitude": -155.46667
        },
        {
            "elevation": 307.2,
            "mindate": "1924-04-01",
            "maxdate": "2015-11-01",
            "latitude": 21.13278,
            "name": "MAUNA LOA 511, HI US",
            "datacoverage": 0.7191,
            "id": "COOP:516190",
            "elevationUnit": "METERS",
            "longitude": -157.21333
        },
        {
            "elevation": 3398.5,
            "mindate": "1955-01-01",
            "maxdate": "2015-11-01",
            "latitude": 19.5362,
            "name": "MAUNA LOA SLOPE OBS 39, HI US",
            "datacoverage": 0.9932,
            "id": "COOP:516198",
            "elevationUnit": "METERS",
            "longitude": -155.5767
        },
        {
            "elevation": 127.7,
            "mindate": "1965-04-01",
            "maxdate": "2014-01-01",
            "latitude": 21.35083,
            "name": "MAUNAWILI 787.1, HI US",
            "datacoverage": 0.9496,
            "id": "COOP:516222",
            "elevationUnit": "METERS",
            "longitude": -157.76667
        },
        {
            "elevation": 144.8,
            "mindate": "1958-03-01",
            "maxdate": "1978-12-01",
            "latitude": 19.61667,
            "name": "MIDDLE HOLUALOA 68.1, HI US",
            "datacoverage": 0.9998,
            "id": "COOP:516268",
            "elevationUnit": "METERS",
            "longitude": -155.96667
        },
        {
            "elevation": 420.6,
            "mindate": "1965-05-01",
            "maxdate": "2015-11-01",
            "latitude": 20.1011,
            "name": "MIDDLE PEN 147.1, HI US",
            "datacoverage": 0.9983,
            "id": "COOP:516270",
            "elevationUnit": "METERS",
            "longitude": -155.8325
        },
        {
            "elevation": 356.6,
            "mindate": "1985-05-01",
            "maxdate": "2015-11-01",
            "latitude": 19.207,
            "name": "MILOLII 2.34, HI US",
            "datacoverage": 0.9863,
            "id": "COOP:516304",
            "elevationUnit": "METERS",
            "longitude": -155.8816
        },
        {
            "elevation": 859.5,
            "mindate": "1986-07-01",
            "maxdate": "2010-07-01",
            "latitude": 19.7391,
            "name": "MOANUIAHEA 69.24, HI US",
            "datacoverage": 0.9792,
            "id": "COOP:516330",
            "elevationUnit": "METERS",
            "longitude": -155.9583
        },
        {
            "elevation": 9.8,
            "mindate": "1919-01-01",
            "maxdate": "2015-11-01",
            "latitude": 21.3479,
            "name": "MOANALUA 770, HI US",
            "datacoverage": 1,
            "id": "COOP:516395",
            "elevationUnit": "METERS",
            "longitude": -157.891
        },
        {
            "elevation": 182.9,
            "mindate": "1920-01-01",
            "maxdate": "1983-04-01",
            "latitude": 19.18333,
            "name": "MOAULA 18, HI US",
            "datacoverage": 0.9882,
            "id": "COOP:516407",
            "elevationUnit": "METERS",
            "longitude": -155.5
        },
        {
            "elevation": 1066.8,
            "mindate": "1965-09-01",
            "maxdate": "2014-12-01",
            "latitude": 22.11417,
            "name": "MOHIHI UPR CRSG 1083, HI US",
            "datacoverage": 0.7044,
            "id": "COOP:516433",
            "elevationUnit": "METERS",
            "longitude": -159.60167
        },
        {
            "elevation": 393.2,
            "mindate": "1919-01-01",
            "maxdate": "1988-05-01",
            "latitude": 20.98333,
            "name": "MOKUPEA 475, HI US",
            "datacoverage": 0.7587,
            "id": "COOP:516521",
            "elevationUnit": "METERS",
            "longitude": -156.61667
        },
        {
            "elevation": 91.4,
            "mindate": "1926-08-01",
            "maxdate": "2014-12-01",
            "latitude": 22.17972,
            "name": "MOLOAA 1145, HI US",
            "datacoverage": 0.9529,
            "id": "COOP:516529",
            "elevationUnit": "METERS",
            "longitude": -159.33194
        },
        {
            "elevation": 135,
            "mindate": "1957-02-01",
            "maxdate": "2015-11-01",
            "latitude": 21.1545,
            "name": "MOLOKAI KAUNAKAKAI MOLOKAI AIRPORT, HI US",
            "datacoverage": 0.9165,
            "id": "COOP:516534",
            "elevationUnit": "METERS",
            "longitude": -157.0961
        },
        {
            "elevation": 583.7,
            "mindate": "1990-10-01",
            "maxdate": "1998-12-01",
            "latitude": 19.53333,
            "name": "MOUNTAIN VIEW NUMBER 3 91., HI US",
            "datacoverage": 1,
            "id": "COOP:516546",
            "elevationUnit": "METERS",
            "longitude": -155.13333
        },
        {
            "elevation": 100.9,
            "mindate": "1972-06-01",
            "maxdate": "1977-08-31",
            "latitude": 21.41667,
            "name": "MOMILANI 835.1, HI US",
            "datacoverage": 0.0718,
            "id": "COOP:516547",
            "elevationUnit": "METERS",
            "longitude": -157.96667
        },
        {
            "elevation": 466.3,
            "mindate": "1919-01-01",
            "maxdate": "1985-10-01",
            "latitude": 19.5487,
            "name": "MOUNTAIN VIEW 91, HI US",
            "datacoverage": 1,
            "id": "COOP:516552",
            "elevationUnit": "METERS",
            "longitude": -155.1101
        },
        {
            "elevation": 1224.1,
            "mindate": "1965-05-01",
            "maxdate": "2013-12-12",
            "latitude": 21.5072,
            "name": "MOUNT KAALA 844, HI US",
            "datacoverage": 0.0616,
            "id": "COOP:516553",
            "elevationUnit": "METERS",
            "longitude": -158.1416
        },
        {
            "elevation": 481.6,
            "mindate": "1985-09-01",
            "maxdate": "1989-12-31",
            "latitude": 19.53333,
            "name": "MOUNTAIN VIEW NUMBER 2, HI US",
            "datacoverage": 0.9999,
            "id": "COOP:516560",
            "elevationUnit": "METERS",
            "longitude": -155.1
        },
        {
            "elevation": 1569.1,
            "mindate": "1953-01-01",
            "maxdate": "2014-12-01",
            "latitude": 22.06556,
            "name": "MOUNT WAIALEALE 1047, HI US",
            "datacoverage": 0.5269,
            "id": "COOP:516565",
            "elevationUnit": "METERS",
            "longitude": -159.50083
        },
        {
            "elevation": 201.2,
            "mindate": "1919-01-01",
            "maxdate": "2015-11-01",
            "latitude": 19.0614,
            "name": "NAALEHU 14, HI US",
            "datacoverage": 0.9983,
            "id": "COOP:516588",
            "elevationUnit": "METERS",
            "longitude": -155.5842
        },
        {
            "elevation": 106.7,
            "mindate": "1938-01-01",
            "maxdate": "2012-12-01",
            "latitude": 21.0249,
            "name": "NAKALELE FIELD 60 49, HI US",
            "datacoverage": 0.99,
            "id": "COOP:516645",
            "elevationUnit": "METERS",
            "longitude": -156.6013
        },
        {
            "elevation": 121.9,
            "mindate": "1919-01-01",
            "maxdate": "2015-11-01",
            "latitude": 19.4688,
            "name": "NAPOOPOO 28, HI US",
            "datacoverage": 0.9828,
            "id": "COOP:516697",
            "elevationUnit": "METERS",
            "longitude": -155.9094
        },