{
    "metadata": {
        "resultset": {
            "offset": 1,
            "count": 992,
            "limit": 1000
        }
    },
    "results": [
        {
            "elevation": 1869.9,
            "mindate": "1952-12-01",
            "maxdate": "1956-07-01",
            "latitude": 40.43333,
            "name": "ACHURRA RANCH, NV US",
            "datacoverage": 0.9093,
            "id": "COOP:260012",
            "elevationUnit": "METERS",
            "longitude": -115.58333
        },
        {
            "elevation": 1684,
            "mindate": "1949-12-01",
            "maxdate": "1958-12-01",
            "latitude": 37.51667,
            "name": "ACOMA, NV US",
            "datacoverage": 0.9554,
            "id": "COOP:260015",
            "elevationUnit": "METERS",
            "longitude": -114.16667
        },
        {
            "elevation": 1905,
            "mindate": "1931-01-01",
            "maxdate": "1982-02-01",
            "latitude": 38.11667,
            "name": "ADAVEN, NV US",
            "datacoverage": 0.9105,
            "id": "COOP:260046",
            "elevationUnit": "METERS",
            "longitude": -115.58333
        },
        {
            "mindate": "1931-01-01",
            "maxdate": "1963-10-01",
            "latitude": 37.36667,
            "name": "ALAMO, NV US",
            "datacoverage": 0.9266,
            "id": "COOP:260099",
            "longitude": -115.16667
        },
        {
            "elevation": 1250.9,
            "mindate": "1948-01-01",
            "maxdate": "1949-07-27",
            "latitude": 37.36667,
            "name": "ALAMO MNTC STATION, NV US",
            "datacoverage": 0.7234,
            "id": "COOP:260109",
            "elevationUnit": "METERS",
            "longitude": -115.15
        },
        {
            "elevation": 500.2,
            "mindate": "2007-05-01",
            "maxdate": "2015-11-01",
            "latitude": 36.01,
            "name": "ALAN BIBLE VISITOR CENTER, NV US",
            "datacoverage": 0.7376,
            "id": "COOP:260125",
            "elevationUnit": "METERS",
            "longitude": -114.7963
        },
        {
            "elevation": 746.8,
            "mindate": "1965-11-01",
            "maxdate": "2013-12-01",
            "latitude": 36.5716,
            "name": "AMARGOSA FARMS GAREY, NV US",
            "datacoverage": 0.782,
            "id": "COOP:260150",
            "elevationUnit": "METERS",
            "longitude": -116.4619
        },
        {
            "elevation": 1493.5,
            "mindate": "1984-09-01",
            "maxdate": "1998-04-01",
            "latitude": 39.96417,
            "name": "ANTELOPE VALLEY FARR, NV US",
            "datacoverage": 0.9699,
            "id": "COOP:260282",
            "elevationUnit": "METERS",
            "longitude": -117.43417
        },
        {
            "elevation": 1905,
            "mindate": "1931-01-01",
            "maxdate": "2015-11-01",
            "latitude": 40.7808,
            "name": "ARTHUR 4 NW, NV US",
            "datacoverage": 0.95,
            "id": "COOP:260438",
            "elevationUnit": "METERS",
            "longitude": -115.1853
        },
        {
            "elevation": 2072.9,
            "mindate": "1981-04-01",
            "maxdate": "1985-08-01",
            "latitude": 38.45,
            "name": "ATLANTA MINE, NV US",
            "datacoverage": 0.9618,
            "id": "COOP:260480",
            "elevationUnit": "METERS",
            "longitude": -114.33333
        },
        {
            "elevation": 2066.5,
            "mindate": "1931-01-01",
            "maxdate": "2015-11-01",
            "latitude": 39.493,
            "name": "AUSTIN NUMBER 2, NV US",
            "datacoverage": 0.9284,
            "id": "COOP:260507",
            "elevationUnit": "METERS",
            "longitude": -117.0675
        },
        {
            "elevation": 1677.9,
            "mindate": "1949-12-01",
            "maxdate": "1956-07-01",
            "latitude": 37.51667,
            "name": "BARCLAY CROSSING, NV US",
            "datacoverage": 0.5915,
            "id": "COOP:260645",
            "elevationUnit": "METERS",
            "longitude": -114.26667
        },
        {
            "elevation": 1937,
            "mindate": "1941-10-01",
            "maxdate": "1959-02-01",
            "latitude": 38,
            "name": "BASALT, NV US",
            "datacoverage": 0.9434,
            "id": "COOP:260668",
            "elevationUnit": "METERS",
            "longitude": -118.26667
        },
        {
            "elevation": 1375.9,
            "mindate": "1931-01-01",
            "maxdate": "1945-08-01",
            "latitude": 40.65,
            "name": "BATTLE MOUNTAIN, NV US",
            "datacoverage": 1,
            "id": "COOP:260688",
            "elevationUnit": "METERS",
            "longitude": -116.93333
        },
        {
            "elevation": 1373.1,
            "mindate": "1944-04-01",
            "maxdate": "2015-11-01",
            "latitude": 40.6118,
            "name": "BATTLE MOUNTAIN 4 SE, NV US",
            "datacoverage": 0.9872,
            "id": "COOP:260691",
            "elevationUnit": "METERS",
            "longitude": -116.8917
        },
        {
            "elevation": 1007.1,
            "mindate": "1931-01-01",
            "maxdate": "1972-12-01",
            "latitude": 36.91667,
            "name": "BEATTY, NV US",
            "datacoverage": 0.9105,
            "id": "COOP:260714",
            "elevationUnit": "METERS",
            "longitude": -116.75
        },
        {
            "elevation": 1082,
            "mindate": "1972-11-01",
            "maxdate": "2009-01-01",
            "latitude": 36.995,
            "name": "BEATTY 8 N, NV US",
            "datacoverage": 0.9837,
            "id": "COOP:260718",
            "elevationUnit": "METERS",
            "longitude": -116.7188
        },
        {
            "elevation": 1432.6,
            "mindate": "1931-01-01",
            "maxdate": "2015-11-01",
            "latitude": 40.5903,
            "name": "BEOWAWE, NV US",
            "datacoverage": 0.9529,
            "id": "COOP:260795",
            "elevationUnit": "METERS",
            "longitude": -116.4749
        },
        {
            "elevation": 1749.6,
            "mindate": "1972-09-01",
            "maxdate": "2015-11-01",
            "latitude": 39.9004,
            "name": "BEOWAWE 49 S U OF N RANCH, NV US",
            "datacoverage": 0.9615,
            "id": "COOP:260800",
            "elevationUnit": "METERS",
            "longitude": -116.5876
        },
        {
            "elevation": 2113.5,
            "mindate": "1985-10-01",
            "maxdate": "1988-04-01",
            "latitude": 38.86667,
            "name": "BERLIN STATE PARK, NV US",
            "datacoverage": 0.9683,
            "id": "COOP:260805",
            "elevationUnit": "METERS",
            "longitude": -117.58333
        },
        {
            "elevation": 1425.9,
            "mindate": "1978-04-01",
            "maxdate": "2015-11-01",
            "latitude": 38.5208,
            "name": "BLUE EAGLE RANCH CURRANT 12 SSW, NV US",
            "datacoverage": 0.9933,
            "id": "COOP:260955",
            "elevationUnit": "METERS",
            "longitude": -115.5444
        },
        {
            "elevation": 1622.1,
            "mindate": "1963-05-01",
            "maxdate": "1985-05-01",
            "latitude": 38.38333,
            "name": "BLUE JAY HIGHWAY STATION, NV US",
            "datacoverage": 0.6937,
            "id": "COOP:260961",
            "elevationUnit": "METERS",
            "longitude": -116.21667
        },
        {
            "elevation": 762,
            "mindate": "1931-09-01",
            "maxdate": "2004-07-01",
            "latitude": 35.98,
            "name": "BOULDER CITY, NV US",
            "datacoverage": 0.9714,
            "id": "COOP:261071",
            "elevationUnit": "METERS",
            "longitude": -114.84639
        },
        {
            "elevation": 1115.9,
            "mindate": "1966-07-01",
            "maxdate": "1981-06-01",
            "latitude": 40.08333,
            "name": "BRINKERHOFF RANCH, NV US",
            "datacoverage": 0.8222,
            "id": "COOP:261160",
            "elevationUnit": "METERS",
            "longitude": -117.66667
        },
        {
            "elevation": 1655.1,
            "mindate": "1966-07-01",
            "maxdate": "1981-08-01",
            "latitude": 40.38333,
            "name": "BUFFALO RANCH, NV US",
            "datacoverage": 0.9228,
            "id": "COOP:261311",
            "elevationUnit": "METERS",
            "longitude": -117.46667
        },
        {
            "elevation": 1800.1,
            "mindate": "1963-08-01",
            "maxdate": "1965-07-01",
            "latitude": 39.05,
            "name": "BULL CREEK RANCH, NV US",
            "datacoverage": 0.9993,
            "id": "COOP:261317",
            "elevationUnit": "METERS",
            "longitude": -115.61667
        },
        {
            "elevation": 470,
            "mindate": "1952-04-01",
            "maxdate": "1952-12-01",
            "latitude": 36.76667,
            "name": "BUNKERVILLE, NV US",
            "datacoverage": 0.8855,
            "id": "COOP:261324",
            "elevationUnit": "METERS",
            "longitude": -114.13333
        },
        {
            "elevation": 487.7,
            "mindate": "1979-12-01",
            "maxdate": "2015-11-01",
            "latitude": 36.7755,
            "name": "BUNKERVILLE, NV US",
            "datacoverage": 0.8333,
            "id": "COOP:261327",
            "elevationUnit": "METERS",
            "longitude": -114.11
        },
        {
            "elevation": 1158.8,
            "mindate": "1973-01-01",
            "maxdate": "1973-03-01",
            "latitude": 36.15,
            "name": "CALICO BASIN, NV US",
            "datacoverage": 1,
            "id": "COOP:261355",
            "elevationUnit": "METERS",
            "longitude": -115.41667
        },
        {
            "elevation": 1334.7,
            "mindate": "1931-01-01",
            "maxdate": "2015-11-01",
            "latitude": 37.6128,
            "name": "CALIENTE, NV US",
            "datacoverage": 0.9755,
            "id": "COOP:261358",
            "elevationUnit": "METERS",
            "longitude": -114.5265
        },
        {
            "elevation": 387.1,
            "mindate": "1989-07-01",
            "maxdate": "2008-08-01",
            "latitude": 36.1413,
            "name": "CALLVILLE BAY, NV US",
            "datacoverage": 0.9346,
            "id": "COOP:261371",
            "elevationUnit": "METERS",
            "longitude": -114.7275
        },
        {
            "elevation": 1987.3,
            "mindate": "1966-11-01",
            "maxdate": "2002-01-01",
            "latitude": 40.915,
            "name": "CARLIN NEWMONT MINE, NV US",
            "datacoverage": 0.9385,
            "id": "COOP:261415",
            "elevationUnit": "METERS",
            "longitude": -116.3175
        },
        {
            "elevation": 1531.6,
            "mindate": "2000-01-01",
            "maxdate": "2001-12-01",
            "latitude": 40.71167,
            "name": "CARLIN 1 SW, NV US",
            "datacoverage": 0.6246,
            "id": "COOP:261417",
            "elevationUnit": "METERS",
            "longitude": -116.10889
        },
        {
            "elevation": 793.1,
            "mindate": "1949-04-01",
            "maxdate": "1962-12-01",
            "latitude": 37.11667,
            "name": "CARP, NV US",
            "datacoverage": 0.5696,
            "id": "COOP:261443",
            "elevationUnit": "METERS",
            "longitude": -114.5
        },
        {
            "elevation": 1451.2,
            "mindate": "1931-01-01",
            "maxdate": "2015-11-01",
            "latitude": 39.1254,
            "name": "CARSON CITY, NV US",
            "datacoverage": 0.9765,
            "id": "COOP:261485",
            "elevationUnit": "METERS",
            "longitude": -119.7679
        },
        {
            "elevation": 1472.2,
            "mindate": "2003-01-01",
            "maxdate": "2015-11-01",
            "latitude": 37.8044,
            "name": "CATHEDRAL GORGE STATE PARK, NV US",
            "datacoverage": 0.9937,
            "id": "COOP:261590",
            "elevationUnit": "METERS",
            "longitude": -114.4069
        },
        {
            "elevation": 1813.6,
            "mindate": "1965-11-01",
            "maxdate": "1986-06-01",
            "latitude": 39.38333,
            "name": "CENTRAL NEVADA FIELD, NV US",
            "datacoverage": 0.9236,
            "id": "COOP:261630",
            "elevationUnit": "METERS",
            "longitude": -117.31667
        },
        {
            "elevation": 1819,
            "mindate": "1961-07-01",
            "maxdate": "2015-11-01",
            "latitude": 41.6814,
            "name": "CHARLESTON JARBIDGE 17 SSW, NV US",
            "datacoverage": 0.3614,
            "id": "COOP:261660",
            "elevationUnit": "METERS",
            "longitude": -115.5289
        },
        {
            "elevation": 1863.5,
            "mindate": "1966-12-01",
            "maxdate": "2011-12-01",
            "latitude": 39.90056,
            "name": "CHERRY CREEK, NV US",
            "datacoverage": 0.2111,
            "id": "COOP:261684",
            "elevationUnit": "METERS",
            "longitude": -114.88611
        },
        {
            "elevation": 668.1,
            "mindate": "1931-01-01",
            "maxdate": "1937-02-01",
            "latitude": 36.43333,
            "name": "CLAY CITY, NV US",
            "datacoverage": 0.8654,
            "id": "COOP:261718",
            "elevationUnit": "METERS",
            "longitude": -116.4
        },
        {
            "elevation": 1730,
            "mindate": "1931-01-01",
            "maxdate": "2011-12-01",
            "latitude": 40.8796,
            "name": "CLOVER VALLEY, NV US",
            "datacoverage": 0.5689,
            "id": "COOP:261740",
            "elevationUnit": "METERS",
            "longitude": -114.9697
        },
        {
            "elevation": 1403,
            "mindate": "1941-11-01",
            "maxdate": "1965-02-01",
            "latitude": 38.05,
            "name": "COALDALE JUNCTION, NV US",
            "datacoverage": 0.6287,
            "id": "COOP:261755",
            "elevationUnit": "METERS",
            "longitude": -117.9
        },
        {
            "elevation": 1630.7,
            "mindate": "1948-01-01",
            "maxdate": "2001-05-01",
            "latitude": 41.77056,
            "name": "CONTACT, NV US",
            "datacoverage": 0.9453,
            "id": "COOP:261905",
            "elevationUnit": "METERS",
            "longitude": -114.75278
        },
        {
            "elevation": 1495,
            "mindate": "1968-10-01",
            "maxdate": "1979-09-01",
            "latitude": 40.18333,
            "name": "CORTEZ GOLD MINE, NV US",
            "datacoverage": 0.9848,
            "id": "COOP:261975",
            "elevationUnit": "METERS",
            "longitude": -116.63333
        },
        {
            "elevation": 1647.1,
            "mindate": "1948-06-01",
            "maxdate": "1948-09-01",
            "latitude": 40.1,
            "name": "COTTONWOOD RANCH, NV US",
            "datacoverage": 0.9925,
            "id": "COOP:262020",
            "elevationUnit": "METERS",
            "longitude": -117.35
        },
        {
            "elevation": 1469.1,
            "mindate": "2005-03-01",
            "maxdate": "2006-05-01",
            "latitude": 40.41667,
            "name": "CRESCENT VALLEY, NV US",
            "datacoverage": 0.7992,
            "id": "COOP:262032",
            "elevationUnit": "METERS",
            "longitude": -116.57528
        },
        {
            "elevation": 1580.1,
            "mindate": "1941-11-01",
            "maxdate": "1949-07-01",
            "latitude": 38.75,
            "name": "CURRANT, NV US",
            "datacoverage": 0.8712,
            "id": "COOP:262078",
            "elevationUnit": "METERS",
            "longitude": -115.46667
        },
        {
            "elevation": 1902.9,
            "mindate": "1963-04-01",
            "maxdate": "1977-06-01",
            "latitude": 38.8,
            "name": "CURRANT HIGHWAY STATION, NV US",
            "datacoverage": 0.9122,
            "id": "COOP:262091",
            "elevationUnit": "METERS",
            "longitude": -115.35
        },
        {
            "elevation": 1773.9,
            "mindate": "1961-11-01",
            "maxdate": "1991-04-01",
            "latitude": 40.26667,
            "name": "CURRIE HIGHWAY STATION, NV US",
            "datacoverage": 0.5029,
            "id": "COOP:262096",
            "elevationUnit": "METERS",
            "longitude": -114.75
        },
        {
            "elevation": 2235.4,
            "mindate": "1988-12-01",
            "maxdate": "2015-11-01",
            "latitude": 38.9783,
            "name": "DAGGET PASS, NV US",
            "datacoverage": 0.9167,
            "id": "COOP:262119",
            "elevationUnit": "METERS",
            "longitude": -119.8914
        },
        {
            "elevation": 1627.6,
            "mindate": "1951-12-01",
            "maxdate": "2006-05-01",
            "latitude": 41.06611,
            "name": "DEETH, NV US",
            "datacoverage": 0.9893,
            "id": "COOP:262189",
            "elevationUnit": "METERS",
            "longitude": -115.27111
        },
        {
            "elevation": 1277.1,
            "mindate": "1951-11-01",
            "maxdate": "2015-11-01",
            "latitude": 41.9897,
            "name": "DENIO, NV US",
            "datacoverage": 0.9259,
            "id": "COOP:262229",
            "elevationUnit": "METERS",
            "longitude": -118.6335
        },
        {
            "elevation": 888.2,
            "mindate": "1940-04-01",
            "maxdate": "2015-11-01",
            "latitude": 36.4381,
            "name": "DESERT NATIONAL WILDLIFE REFUGE, NV US",
            "datacoverage": 0.9868,
            "id": "COOP:262243",
            "elevationUnit": "METERS",
            "longitude": -115.3601
        },
        {
            "elevation": 984.5,
            "mindate": "1984-04-01",
            "maxdate": "2015-11-01",
            "latitude": 36.6206,
            "name": "MERCURY DESERT ROCK AIRPORT, NV US",
            "datacoverage": 0.9105,
            "id": "COOP:262251",
            "elevationUnit": "METERS",
            "longitude": -116.0278
        },
        {
            "elevation": 1556,
            "mindate": "1959-09-01",
            "maxdate": "1979-03-01",
            "latitude": 37.91667,
            "name": "DIABLO, NV US",
            "datacoverage": 0.9916,
            "id": "COOP:262276",
            "elevationUnit": "METERS",
            "longitude": -116.05
        },
        {
            "elevation": 1795.3,
            "mindate": "1979-07-01",
            "maxdate": "2015-11-01",
            "latitude": 39.7086,
            "name": "DIAMOND VALLEY EUREKA 14 NNW, NV US",
            "datacoverage": 0.8581,
            "id": "COOP:262296",
            "elevationUnit": "METERS",
            "longitude": -116.0494
        },
        {
            "elevation": 1800.1,
            "mindate": "1963-04-01",
            "maxdate": "1971-08-01",
            "latitude": 39.8,
            "name": "DIAMOND VALLEY HALL, NV US",
            "datacoverage": 0.8512,
            "id": "COOP:262301",
            "elevationUnit": "METERS",
            "longitude": -115.93333
        },
        {
            "elevation": 1115.9,
            "mindate": "1965-05-01",
            "maxdate": "1965-07-01",
            "latitude": 40.08333,
            "name": "BRINKERHOFF RANCH, NV US",
            "datacoverage": 0.9925,
            "id": "COOP:262311",
            "elevationUnit": "METERS",
            "longitude": -117.66667
        },
        {
            "elevation": 1079.9,
            "mindate": "1972-04-01",
            "maxdate": "1979-08-01",
            "latitude": 39.71667,
            "name": "DIXIE VALLEY ANDERSO, NV US",
            "datacoverage": 0.6741,
            "id": "COOP:262315",
            "elevationUnit": "METERS",
            "longitude": -118.18333
        },
        {
            "elevation": 1097,
            "mindate": "1982-01-01",
            "maxdate": "1982-12-01",
            "latitude": 39.95,
            "name": "DIXIE VALLEY BOYER, NV US",
            "datacoverage": 0.8339,
            "id": "COOP:262318",
            "elevationUnit": "METERS",
            "longitude": -117.86667
        },
        {
            "elevation": 2015.3,
            "mindate": "1981-11-01",
            "maxdate": "1985-01-22",
            "latitude": 40.33333,
            "name": "DOLLY VARDEN, NV US",
            "datacoverage": 0.9736,
            "id": "COOP:262350",
            "elevationUnit": "METERS",
            "longitude": -114.51667
        },
        {
            "elevation": 1691.6,
            "mindate": "1966-09-01",
            "maxdate": "2003-03-01",
            "latitude": 38.85222,
            "name": "DUCKWATER, NV US",
            "datacoverage": 0.8474,
            "id": "COOP:262390",
            "elevationUnit": "METERS",
            "longitude": -115.63611
        },
        {
            "elevation": 1472.2,
            "mindate": "1959-09-01",
            "maxdate": "2015-11-01",
            "latitude": 41.8679,
            "name": "DUFURRENA DENIO 22 WSW, NV US",
            "datacoverage": 0.9259,
            "id": "COOP:262394",
            "elevationUnit": "METERS",
            "longitude": -119.0147
        },
        {
            "elevation": 1493.5,
            "mindate": "1948-01-01",
            "maxdate": "2015-11-01",
            "latitude": 37.6065,
            "name": "DYER 5 S, NV US",
            "datacoverage": 0.9632,
            "id": "COOP:262431",
            "elevationUnit": "METERS",
            "longitude": -118
        },
        {
            "elevation": 1815.1,
            "mindate": "1973-09-01",
            "maxdate": "1974-05-01",
            "latitude": 38.03333,
            "name": "EAGLE VALLEY STATE P, NV US",
            "datacoverage": 1,
            "id": "COOP:262436",
            "elevationUnit": "METERS",
            "longitude": -114.18333
        },
        {
            "elevation": 1531,
            "mindate": "1948-01-01",
            "maxdate": "1969-08-01",
            "latitude": 39.3,
            "name": "EASTGATE, NV US",
            "datacoverage": 0.6568,
            "id": "COOP:262477",
            "elevationUnit": "METERS",
            "longitude": -117.88333
        },
        {
            "elevation": 381,
            "mindate": "1989-08-01",
            "maxdate": "2010-10-01",
            "latitude": 36.3091,
            "name": "ECHO BAY, NV US",
            "datacoverage": 0.8862,
            "id": "COOP:262497",
            "elevationUnit": "METERS",
            "longitude": -114.4255
        },
        {
            "elevation": 1043,
            "mindate": "1951-03-01",
            "maxdate": "2013-01-01",
            "latitude": 37.3476,
            "name": "ELGIN, NV US",
            "datacoverage": 0.4245,
            "id": "COOP:262557",
            "elevationUnit": "METERS",
            "longitude": -114.541
        },
        {
            "elevation": 1006.1,
            "mindate": "1965-05-01",
            "maxdate": "1985-08-01",
            "latitude": 37.31667,
            "name": "ELGIN 3 SE, NV US",
            "datacoverage": 0.938,
            "id": "COOP:262562",
            "elevationUnit": "METERS",
            "longitude": -114.5
        },
        {
            "elevation": 1595.6,
            "mindate": "1999-11-01",
            "maxdate": "2015-11-01",
            "latitude": 40.8602,
            "name": "ELKO NWS OFFICE, NV US",
            "datacoverage": 1,
            "id": "COOP:262570",
            "elevationUnit": "METERS",
            "longitude": -115.7426
        },
        {
            "elevation": 1533.1,
            "mindate": "1948-01-01",
            "maxdate": "2015-11-01",
            "latitude": 40.8288,
            "name": "ELKO REGIONAL AIRPORT, NV US",
            "datacoverage": 0.9914,
            "id": "COOP:262573",
            "elevationUnit": "METERS",
            "longitude": -115.7886
        },
        {
            "elevation": 1909,
            "mindate": "1999-04-01",
            "maxdate": "2005-10-01",
            "latitude": 39.2994,
            "name": "ELY 6 NE, NV US",
            "datacoverage": 0.9994,
            "id": "COOP:262626",
            "elevationUnit": "METERS",
            "longitude": -114.8355
        },
        {
            "elevation": 1908.7,
            "mindate": "1948-01-01",
            "maxdate": "2015-11-01",
            "latitude": 39.2952,
            "name": "ELY AIRPORT, NV US",
            "datacoverage": 0.9963,
            "id": "COOP:262631",
            "elevationUnit": "METERS",
            "longitude": -114.8466
        },
        {
            "elevation": 1755.6,
            "mindate": "1954-08-01",
            "maxdate": "2001-02-01",
            "latitude": 40.64972,
            "name": "EMIGRANT PASS HIGHWAY, NV US",
            "datacoverage": 0.9589,
            "id": "COOP:262656",
            "elevationUnit": "METERS",
            "longitude": -116.30222
        },
        {
            "elevation": 1204.9,
            "mindate": "1951-01-01",
            "maxdate": "1976-01-01",
            "latitude": 40.58333,
            "name": "EMPIRE, NV US",
            "datacoverage": 0.3455,
            "id": "COOP:262662",
            "elevationUnit": "METERS",
            "longitude": -119.35
        },
        {
            "elevation": 1959.9,
            "mindate": "1952-10-01",
            "maxdate": "2015-11-01",
            "latitude": 39.517,
            "name": "EUREKA, NV US",
            "datacoverage": 0.9235,
            "id": "COOP:262708",
            "elevationUnit": "METERS",
            "longitude": -115.9621
        },
        {
            "elevation": 1809.3,
            "mindate": "2008-06-01",
            "maxdate": "2015-11-01",
            "latitude": 39.6013,
            "name": "EUREKA AIRPORT, NV US",
            "datacoverage": 1,
            "id": "COOP:262710",
            "elevationUnit": "METERS",
            "longitude": -116.0055
        },
        {
            "elevation": 1200,
            "mindate": "1950-03-01",
            "maxdate": "1954-12-01",
            "latitude": 39.41667,
            "name": "FALLON CAA AIRPORT, NV US",
            "datacoverage": 0.9994,
            "id": "COOP:262770",
            "elevationUnit": "METERS",
            "longitude": -118.71667
        },
        {
            "elevation": 1208.5,
            "mindate": "1931-01-01",
            "maxdate": "2015-11-01",
            "latitude": 39.4572,
            "name": "FALLON EXPERIMENT STATION, NV US",
            "datacoverage": 0.9745,
            "id": "COOP:262780",
            "elevationUnit": "METERS",
            "longitude": -118.7811
        },
        {
            "elevation": 1780,
            "mindate": "1972-09-01",
            "maxdate": "1983-07-01",
            "latitude": 40.41667,
            "name": "FERGUSON SPRINGS HMS, NV US",
            "datacoverage": 0.9918,
            "id": "COOP:262820",
            "elevationUnit": "METERS",
            "longitude": -114.18333
        },
        {
            "elevation": 1268.9,
            "mindate": "1949-06-01",
            "maxdate": "1974-09-01",
            "latitude": 39.61667,
            "name": "FERNLEY, NV US",
            "datacoverage": 0.9067,
            "id": "COOP:262840",
            "elevationUnit": "METERS",
            "longitude": -119.25
        },
        {
            "elevation": 1268.9,
            "mindate": "1948-01-01",
            "maxdate": "1954-08-01",
            "latitude": 39.61667,
            "name": "FERNLEY MNTC STATION, NV US",
            "datacoverage": 0.6977,
            "id": "COOP:262849",
            "elevationUnit": "METERS",
            "longitude": -119.26667
        },
        {
            "elevation": 1845,
            "mindate": "1943-06-01",
            "maxdate": "1966-09-01",
            "latitude": 39.26667,
            "name": "FISH CREEK RANCH, NV US",
            "datacoverage": 0.9766,
            "id": "COOP:262860",
            "elevationUnit": "METERS",
            "longitude": -116
        },
        {
            "elevation": 1524.9,
            "mindate": "1958-12-01",
            "maxdate": "1959-12-01",
            "latitude": 39.48333,
            "name": "FLEISH POWER HOUSE, NV US",
            "datacoverage": 0.6918,
            "id": "COOP:262903",
            "elevationUnit": "METERS",
            "longitude": -119.98333
        },
        {
            "elevation": 1430.7,
            "mindate": "1979-05-01",
            "maxdate": "2015-11-01",
            "latitude": 38.8695,
            "name": "GABBS 1 NE, NV US",
            "datacoverage": 0.1822,
            "id": "COOP:262948",
            "elevationUnit": "METERS",
            "longitude": -117.9231
        },
        {
            "elevation": 1205.2,
            "mindate": "1931-01-01",
            "maxdate": "2015-11-01",
            "latitude": 40.6517,
            "name": "GERLACH, NV US",
            "datacoverage": 0.6968,
            "id": "COOP:263090",
            "elevationUnit": "METERS",
            "longitude": -119.3579
        },
        {
            "elevation": 1834.9,
            "mindate": "1941-12-01",
            "maxdate": "2002-01-01",
            "latitude": 38.66833,
            "name": "GEYSER RANCH, NV US",
            "datacoverage": 0.4502,
            "id": "COOP:263101",
            "elevationUnit": "METERS",
            "longitude": -114.63611
        },
        {
            "elevation": 1816.6,
            "mindate": "1952-11-01",
            "maxdate": "2015-11-01",
            "latitude": 41.5697,
            "name": "GIBBS RANCH JARBIDGE 24 SE, NV US",
            "datacoverage": 0.9789,
            "id": "COOP:263114",
            "elevationUnit": "METERS",
            "longitude": -115.2111
        },
        {
            "elevation": 1935.5,
            "mindate": "1944-12-01",
            "maxdate": "2015-11-01",
            "latitude": 39.0753,
            "name": "GLENBROOK, NV US",
            "datacoverage": 0.966,
            "id": "COOP:263205",
            "elevationUnit": "METERS",
            "longitude": -119.9411
        },
        {
            "elevation": 1339.3,
            "mindate": "1931-01-01",
            "maxdate": "2008-03-01",
            "latitude": 40.95667,
            "name": "GOLCONDA, NV US",
            "datacoverage": 0.9267,
            "id": "COOP:263245",
            "elevationUnit": "METERS",
            "longitude": -117.49222
        },
        {
            "elevation": 1417,
            "mindate": "1978-12-01",
            "maxdate": "1982-10-01",
            "latitude": 40.75,
            "name": "GOLCONDA TIPTON RANC, NV US",
            "datacoverage": 0.8083,
            "id": "COOP:263250",
            "elevationUnit": "METERS",
            "longitude": -117.5
        },
        {
            "elevation": 1734.3,
            "mindate": "1931-01-01",
            "maxdate": "2009-11-01",
            "latitude": 37.708,
            "name": "GOLDFIELD, NV US",
            "datacoverage": 0.8532,
            "id": "COOP:263285",
            "elevationUnit": "METERS",
            "longitude": -117.233
        },
        {
            "elevation": 1132.6,
            "mindate": "1999-03-01",
            "maxdate": "2013-12-01",
            "latitude": 35.8387,
            "name": "GOODSPRINGS, NV US",
            "datacoverage": 0.9659,
            "id": "COOP:263316",
            "elevationUnit": "METERS",
            "longitude": -115.4278
        },
        {
            "elevation": 2087.9,
            "mindate": "1987-08-01",
            "maxdate": "2015-11-01",
            "latitude": 39.0055,
            "name": "GREAT BASIN NATIONAL PARK, NV US",
            "datacoverage": 0.9617,
            "id": "COOP:263340",
            "elevationUnit": "METERS",
            "longitude": -114.2205
        },
        {
            "elevation": 1341.1,
            "mindate": "1954-08-01",
            "maxdate": "2015-11-01",
            "latitude": 38.5155,
            "name": "HAWTHORNE, NV US",
            "datacoverage": 0.4497,
            "id": "COOP:263512",
            "elevationUnit": "METERS",
            "longitude": -118.6208
        },
        {
            "elevation": 1286.3,
            "mindate": "1937-03-01",
            "maxdate": "1991-09-10",
            "latitude": 38.55,
            "name": "HAWTHORNE AIRPORT, NV US",
            "datacoverage": 0.8455,
            "id": "COOP:263515",
            "elevationUnit": "METERS",
            "longitude": -118.66667
        },
        {
            "elevation": 1188.7,
            "mindate": "1989-09-01",
            "maxdate": "2015-11-01",
            "latitude": 37.5581,
            "name": "HIKO, NV US",
            "datacoverage": 0.9906,
            "id": "COOP:263671",
            "elevationUnit": "METERS",
            "longitude": -115.2236
        },
        {
            "elevation": 1260,
            "mindate": "1969-01-01",
            "maxdate": "1970-01-01",
            "latitude": 40.9,
            "name": "HUALAPAI VALLEY FITT, NV US",
            "datacoverage": 0.9992,
            "id": "COOP:263816",
            "elevationUnit": "METERS",
            "longitude": -119.3
        },
        {
            "elevation": 1268,
            "mindate": "1939-12-01",
            "maxdate": "1947-10-01",
            "latitude": 40.08333,
            "name": "HUMBOLDT FIELD, NV US",
            "datacoverage": 0.9998,
            "id": "COOP:263853",
            "elevationUnit": "METERS",
            "longitude": -118.15
        },
        {
            "elevation": 1585.9,
            "mindate": "1962-07-01",
            "maxdate": "1969-08-01",
            "latitude": 41.56667,
            "name": "I L RANCH, NV US",
            "datacoverage": 0.8717,
            "id": "COOP:263940",
            "elevationUnit": "METERS",
            "longitude": -116.4
        },
        {
            "elevation": 1298.4,
            "mindate": "1931-01-01",
            "maxdate": "2015-11-01",
            "latitude": 40.6564,
            "name": "IMLAY, NV US",
            "datacoverage": 0.9441,
            "id": "COOP:263957",
            "elevationUnit": "METERS",
            "longitude": -118.1631
        },
        {
            "elevation": 1937.3,
            "mindate": "2014-01-01",
            "maxdate": "2015-11-01",
            "latitude": 39.2472,
            "name": "INCLINE VILLAGE, NV US",
            "datacoverage": 1,
            "id": "COOP:263960",
            "elevationUnit": "METERS",
            "longitude": -119.9419
        },
        {
            "elevation": 2273.8,
            "mindate": "2003-06-01",
            "maxdate": "2012-12-01",
            "latitude": 39.1039,
            "name": "INDIAN CREEK RANCH DUCKWATER 29 WNW, NV US",
            "datacoverage": 0.9908,
            "id": "COOP:263964",
            "elevationUnit": "METERS",
            "longitude": -116.2037
        },
        {
            "elevation": 955.9,
            "mindate": "1939-01-01",
            "maxdate": "1964-10-01",
            "latitude": 36.58333,
            "name": "INDIAN SPRINGS, NV US",
            "datacoverage": 0.9903,
            "id": "COOP:263980",
            "elevationUnit": "METERS",
            "longitude": -115.66667
        },
        {
            "elevation": 1595,
            "mindate": "1986-04-01",
            "maxdate": "2015-11-01",
            "latitude": 41.9829,
            "name": "JACKPOT, NV US",
            "datacoverage": 0.955,
            "id": "COOP:264016",
            "elevationUnit": "METERS",
            "longitude": -114.6586
        },
        {
            "elevation": 1880.6,
            "mindate": "1931-06-01",
            "maxdate": "1995-06-01",
            "latitude": 41.93333,
            "name": "JARBIDGE 4 N, NV US",
            "datacoverage": 0.4668,
            "id": "COOP:264038",
            "elevationUnit": "METERS",
            "longitude": -115.43333
        },
        {
            "elevation": 1844,
            "mindate": "1995-04-01",
            "maxdate": "2015-11-01",
            "latitude": 41.9797,
            "name": "JARBIDGE 7 N, NV US",
            "datacoverage": 0.9838,
            "id": "COOP:264039",
            "elevationUnit": "METERS",
            "longitude": -115.4327
        },
        {
            "elevation": 1652.9,
            "mindate": "1931-01-01",
            "maxdate": "1972-04-01",
            "latitude": 40.45,
            "name": "JIGGS 3 N, NV US",
            "datacoverage": 0.9394,
            "id": "COOP:264086",
            "elevationUnit": "METERS",
            "longitude": -115.65
        },
        {
            "elevation": 1647.1,
            "mindate": "1972-03-01",
            "maxdate": "1975-11-01",
            "latitude": 40.6,
            "name": "JIGGS 13 N, NV US",
            "datacoverage": 0.9765,
            "id": "COOP:264090",
            "elevationUnit": "METERS",
            "longitude": -115.7
        },
        {
            "elevation": 1719.7,
            "mindate": "1978-09-01",
            "maxdate": "2015-11-01",
            "latitude": 40.44474,
            "name": "JIGGS 2 NE, NV US",
            "datacoverage": 0.917,
            "id": "COOP:264095",
            "elevationUnit": "METERS",
            "longitude": -115.65798
        },
        {
            "elevation": 1280.2,
            "mindate": "1968-10-01",
            "maxdate": "1986-05-01",
            "latitude": 40.88333,
            "name": "JUNGO MEYER RANCH, NV US",
            "datacoverage": 0.9435,
            "id": "COOP:264108",
            "elevationUnit": "METERS",
            "longitude": -118.43333
        },
        {
            "elevation": 1204,
            "mindate": "1964-03-01",
            "maxdate": "1989-06-01",
            "latitude": 37.61667,
            "name": "KEY PITTMAN WMA, NV US",
            "datacoverage": 0.9672,
            "id": "COOP:264143",
            "elevationUnit": "METERS",
            "longitude": -115.21667
        },
        {
            "elevation": 2204.9,
            "mindate": "1931-01-01",
            "maxdate": "1958-05-01",
            "latitude": 39.26667,
            "name": "KIMBERLY, NV US",
            "datacoverage": 0.9819,
            "id": "COOP:264199",
            "elevationUnit": "METERS",
            "longitude": -115.03333
        },
        {
            "elevation": 1292.4,
            "mindate": "1956-11-01",
            "maxdate": "2015-11-01",
            "latitude": 41.7437,
            "name": "KINGS RIVER VALLEY OROVADA 26 NW, NV US",
            "datacoverage": 0.914,
            "id": "COOP:264236",
            "elevationUnit": "METERS",
            "longitude": -118.2259
        },
        {
            "elevation": 2020.2,
            "mindate": "1999-04-01",
            "maxdate": "2010-09-01",
            "latitude": 39.20361,
            "name": "KINGSTON, NV US",
            "datacoverage": 0.4927,
            "id": "COOP:264253",
            "elevationUnit": "METERS",
            "longitude": -117.08917
        },
        {
            "elevation": 1830,
            "mindate": "1971-12-01",
            "maxdate": "1979-10-01",
            "latitude": 41.63333,
            "name": "KNOLL CREEK FIELD ST, NV US",
            "datacoverage": 0.9998,
            "id": "COOP:264268",
            "elevationUnit": "METERS",
            "longitude": -114.73333
        },
        {
            "elevation": 2196.1,
            "mindate": "1939-04-01",
            "maxdate": "1948-12-01",
            "latitude": 36.25,
            "name": "KYLE CANYON RANGER STATION, NV US",
            "datacoverage": 0.897,
            "id": "COOP:264314",
            "elevationUnit": "METERS",
            "longitude": -115.6
        },
        {
            "elevation": 1816.6,
            "mindate": "1984-01-01",
            "maxdate": "2015-11-01",
            "latitude": 40.0634,
            "name": "LAGES, NV US",
            "datacoverage": 0.987,
            "id": "COOP:264341",
            "elevationUnit": "METERS",
            "longitude": -114.6148
        },
        {
            "elevation": 1270.1,
            "mindate": "1931-01-01",
            "maxdate": "2015-11-01",
            "latitude": 39.4688,
            "name": "LAHONTAN DAM, NV US",
            "datacoverage": 0.8989,
            "id": "COOP:264349",
            "elevationUnit": "METERS",
            "longitude": -119.0644
        },
        {
            "elevation": 1823.9,
            "mindate": "1966-09-01",
            "maxdate": "1972-04-01",
            "latitude": 38.36667,
            "name": "LAKE VALLEY, NV US",
            "datacoverage": 0.6032,
            "id": "COOP:264379",
            "elevationUnit": "METERS",
            "longitude": -114.61667
        },
        {
            "elevation": 1935.5,
            "mindate": "1971-01-01",
            "maxdate": "1998-11-01",
            "latitude": 38.31667,
            "name": "LAKE VALLEY STEWARD, NV US",
            "datacoverage": 1,
            "id": "COOP:264384",
            "elevationUnit": "METERS",
            "longitude": -114.65
        },
        {
            "elevation": 1752.6,
            "mindate": "1999-04-01",
            "maxdate": "2015-11-01",
            "latitude": 40.7441,
            "name": "LAMOILLE 2 N, NV US",
            "datacoverage": 0.9899,
            "id": "COOP:264391",
            "elevationUnit": "METERS",
            "longitude": -115.4856
        },
        {
            "elevation": 1922.1,
            "mindate": "1972-12-01",
            "maxdate": "1975-09-01",
            "latitude": 40.73333,
            "name": "LAMOILLE 3 E, NV US",
            "datacoverage": 0.9714,
            "id": "COOP:264392",
            "elevationUnit": "METERS",
            "longitude": -115.43333
        },
        {
            "elevation": 1780,
            "mindate": "1975-10-01",
            "maxdate": "2005-03-01",
            "latitude": 40.71778,
            "name": "LAMOILLE YOST, NV US",
            "datacoverage": 0.9771,
            "id": "COOP:264394",
            "elevationUnit": "METERS",
            "longitude": -115.52306
        },
        {
            "elevation": 1918.1,
            "mindate": "1931-01-01",
            "maxdate": "1972-03-01",
            "latitude": 40.68333,
            "name": "LAMOILLE PH, NV US",
            "datacoverage": 0.998,
            "id": "COOP:264395",
            "elevationUnit": "METERS",
            "longitude": -115.46667
        },
        {
            "elevation": 613,
            "mindate": "1931-01-01",
            "maxdate": "1956-08-01",
            "latitude": 36.16667,
            "name": "LAS VEGAS, NV US",
            "datacoverage": 0.948,
            "id": "COOP:264429",
            "elevationUnit": "METERS",
            "longitude": -115.13333
        },
        {
            "elevation": 573.9,
            "mindate": "1948-01-01",
            "maxdate": "1948-12-27",
            "latitude": 36.23333,
            "name": "LAS VEGAS WEATHER BUREAU AIRPORT, NV US",
            "datacoverage": 0.998,
            "id": "COOP:264434",
            "elevationUnit": "METERS",
            "longitude": -115.03333
        },
        {
            "elevation": 664.5,
            "mindate": "1949-01-01",
            "maxdate": "2015-11-01",
            "latitude": 36.0719,
            "name": "MCCARRAN INTERNATIONAL AIRPORT, NV US",
            "datacoverage": 0.9988,
            "id": "COOP:264436",
            "elevationUnit": "METERS",
            "longitude": -115.1634
        },
        {
            "elevation": 693.4,
            "mindate": "1996-10-01",
            "maxdate": "2015-11-01",
            "latitude": 36.0469,
            "name": "LAS VEGAS WEATHER FORECAST OFFICE, NV US",
            "datacoverage": 0.9957,
            "id": "COOP:264439",
            "elevationUnit": "METERS",
            "longitude": -115.1848
        },
        {
            "elevation": 814.1,
            "mindate": "1941-12-01",
            "maxdate": "1963-01-01",
            "latitude": 36.65,
            "name": "LATHROP WELLS, NV US",
            "datacoverage": 0.7401,
            "id": "COOP:264457",
            "elevationUnit": "METERS",
            "longitude": -116.4
        },
        {
            "elevation": 665.1,
            "mindate": "1970-11-01",
            "maxdate": "1977-12-01",
            "latitude": 36.41667,
            "name": "LATHROP WELLS 16 SSE, NV US",
            "datacoverage": 0.9999,
            "id": "COOP:264473",
            "elevationUnit": "METERS",
            "longitude": -116.35
        },
        {
            "elevation": 184.4,
            "mindate": "1988-02-01",
            "maxdate": "2015-11-01",
            "latitude": 35.1691,
            "name": "LAUGHLIN, NV US",
            "datacoverage": 0.9732,
            "id": "COOP:264480",
            "elevationUnit": "METERS",
            "longitude": -114.5805
        },
        {
            "elevation": 1770.3,
            "mindate": "2005-02-01",
            "maxdate": "2012-12-01",
            "latitude": 40.5591,
            "name": "LEE, NV US",
            "datacoverage": 0.4211,
            "id": "COOP:264491",
            "elevationUnit": "METERS",
            "longitude": -115.6055
        },
        {
            "elevation": 2482.6,
            "mindate": "2006-12-01",
            "maxdate": "2009-12-01",
            "latitude": 36.32083,
            "name": "LEE CANYON F S, NV US",
            "datacoverage": 0.9993,
            "id": "COOP:264501",
            "elevationUnit": "METERS",
            "longitude": -115.6725
        },
        {
            "elevation": 2087.9,
            "mindate": "1937-10-01",
            "maxdate": "1987-07-01",
            "latitude": 39.0055,
            "name": "GREAT BASIN NATIONAL PARK, NV US",
            "datacoverage": 0.9766,
            "id": "COOP:264514",
            "elevationUnit": "METERS",
            "longitude": -114.2205
        },
        {
            "elevation": 1292,
            "mindate": "1954-12-01",
            "maxdate": "2015-11-01",
            "latitude": 41.5167,
            "name": "LEONARD CREEK RANCH DENIO 33 S, NV US",
            "datacoverage": 0.9686,
            "id": "COOP:264527",
            "elevationUnit": "METERS",
            "longitude": -118.7193
        },
        {
            "elevation": 1585.9,
            "mindate": "1931-01-01",
            "maxdate": "1944-10-01",
            "latitude": 39.23333,
            "name": "LEWERS RANCH, NV US",
            "datacoverage": 0.9819,
            "id": "COOP:264542",
            "elevationUnit": "METERS",
            "longitude": -119.85
        },
        {
            "elevation": 1158.8,
            "mindate": "1965-03-01",
            "maxdate": "1970-12-01",
            "latitude": 36.15,
            "name": "CALICO BASIN, NV US",
            "datacoverage": 0.9994,
            "id": "COOP:264600",
            "elevationUnit": "METERS",
            "longitude": -115.41667
        },
        {
            "elevation": 427,
            "mindate": "1931-01-01",
            "maxdate": "1938-02-01",
            "latitude": 36.6,
            "name": "LOGANDALE, NV US",
            "datacoverage": 1,
            "id": "COOP:264646",
            "elevationUnit": "METERS",
            "longitude": -114.48333
        },
        {
            "elevation": 429.8,
            "mindate": "1968-02-01",
            "maxdate": "1992-01-06",
            "latitude": 36.61667,
            "name": "LOGANDALE, NV US",
            "datacoverage": 0.9688,
            "id": "COOP:264651",
            "elevationUnit": "METERS",
            "longitude": -114.48333
        },
        {
            "elevation": 1211,
            "mindate": "1931-01-01",
            "maxdate": "2015-11-01",
            "latitude": 40.17,
            "name": "LOVELOCK, NV US",
            "datacoverage": 0.9588,
            "id": "COOP:264698",
            "elevationUnit": "METERS",
            "longitude": -118.4776
        },
        {
            "elevation": 1189.3,
            "mindate": "1947-12-01",
            "maxdate": "2015-11-01",
            "latitude": 40.0681,
            "name": "LOVELOCK DERBY FIELD AIRPORT, NV US",
            "datacoverage": 0.9363,
            "id": "COOP:264700",
            "elevationUnit": "METERS",
            "longitude": -118.5692
        },
        {
            "elevation": 1690.4,
            "mindate": "1957-08-01",
            "maxdate": "2015-11-01",
            "latitude": 38.8677,
            "name": "LUND, NV US",
            "datacoverage": 0.9972,
            "id": "COOP:264745",
            "elevationUnit": "METERS",
            "longitude": -115.0166
        },
        {
            "elevation": 841.2,
            "mindate": "2003-09-01",
            "maxdate": "2006-01-01",
            "latitude": 37.1599,
            "name": "LYMAN CROSSING, NV US",
            "datacoverage": 0.5853,
            "id": "COOP:264748",
            "elevationUnit": "METERS",
            "longitude": -114.468
        },
        {
            "elevation": 1981.2,
            "mindate": "1988-05-01",
            "maxdate": "1988-06-01",
            "latitude": 39.01667,
            "name": "MAJOR S PLACE, NV US",
            "datacoverage": 0.998,
            "id": "COOP:264789",
            "elevationUnit": "METERS",
            "longitude": -114.61667
        },
        {
            "elevation": 1705.1,
            "mindate": "1939-06-01",
            "maxdate": "1968-05-01",
            "latitude": 41.31667,
            "name": "MALA VISTA RANCH, NV US",
            "datacoverage": 0.9265,
            "id": "COOP:264824",
            "elevationUnit": "METERS",
            "longitude": -115.25
        },
        {
            "elevation": 2108,
            "mindate": "1948-01-01",
            "maxdate": "1953-06-01",
            "latitude": 38.53333,
            "name": "MANHATTAN POWER HOUSE, NV US",
            "datacoverage": 0.7214,
            "id": "COOP:264835",
            "elevationUnit": "METERS",
            "longitude": -117.08333
        },
        {
            "elevation": 2204.9,
            "mindate": "1950-06-01",
            "maxdate": "1955-09-01",
            "latitude": 38.18333,
            "name": "MARK TWAIN CAMP, NV US",
            "datacoverage": 0.7969,
            "id": "COOP:264852",
            "elevationUnit": "METERS",
            "longitude": -118.75
        },
        {
            "elevation": 2439.9,
            "mindate": "1931-01-01",
            "maxdate": "1952-12-01",
            "latitude": 39.16667,
            "name": "MARLETTE LAKE, NV US",
            "datacoverage": 0.8787,
            "id": "COOP:264858",
            "elevationUnit": "METERS",
            "longitude": -119.91667
        },
        {
            "mindate": "1949-04-01",
            "maxdate": "1949-07-15",
            "latitude": 37.5,
            "name": "MATHEWS RANCH, NV US",
            "datacoverage": 0.9819,
            "id": "COOP:264888",
            "longitude": -114.21667
        },
        {
            "elevation": 1350.3,
            "mindate": "1950-03-01",
            "maxdate": "2015-11-01",
            "latitude": 41.9954,
            "name": "MCDERMITT, NV US",
            "datacoverage": 0.6599,
            "id": "COOP:264935",
            "elevationUnit": "METERS",
            "longitude": -117.7201
        },
        {
            "elevation": 1556,
            "mindate": "1948-02-01",
            "maxdate": "1949-06-05",
            "latitude": 41.96667,
            "name": "MC DERMITT INDIAN RE, NV US",
            "datacoverage": 0.3131,
            "id": "COOP:264939",
            "elevationUnit": "METERS",
            "longitude": -117.63333
        },
        {
            "elevation": 1911.1,
            "mindate": "1931-01-01",
            "maxdate": "2015-11-01",
            "latitude": 39.4136,
            "name": "MCGILL, NV US",
            "datacoverage": 0.9892,
            "id": "COOP:264950",
            "elevationUnit": "METERS",
            "longitude": -114.7734
        },
        {
            "elevation": 1905.9,
            "mindate": "1955-11-01",
            "maxdate": "1960-01-01",
            "latitude": 41.68333,
            "name": "MENDIVE RANCH, NV US",
            "datacoverage": 0.5488,
            "id": "COOP:265078",
            "elevationUnit": "METERS",
            "longitude": -115.75
        },
        {
            "elevation": 478.5,
            "mindate": "1942-01-01",
            "maxdate": "2006-06-01",
            "latitude": 36.8024,
            "name": "MESQUITE, NV US",
            "datacoverage": 0.2842,
            "id": "COOP:265085",
            "elevationUnit": "METERS",
            "longitude": -114.0736
        },
        {
            "elevation": 552,
            "mindate": "2006-09-01",
            "maxdate": "2015-11-01",
            "latitude": 36.8239,
            "name": "MESQUITE 2 NE, NV US",
            "datacoverage": 1,
            "id": "COOP:265087",
            "elevationUnit": "METERS",
            "longitude": -114.0525
        },
        {
            "elevation": 1767.8,
            "mindate": "1965-08-01",
            "maxdate": "1996-02-01",
            "latitude": 41.28333,
            "name": "METROPOLIS, NV US",
            "datacoverage": 0.9448,
            "id": "COOP:265092",
            "elevationUnit": "METERS",
            "longitude": -115.01667
        },
        {
            "elevation": 1585.9,
            "mindate": "1952-12-01",
            "maxdate": "1969-06-01",
            "latitude": 41.2,
            "name": "MIDAS 4 SE, NV US",
            "datacoverage": 1,
            "id": "COOP:265105",
            "elevationUnit": "METERS",
            "longitude": -116.73333
        },
        {
            "elevation": 1402.1,
            "mindate": "1988-05-01",
            "maxdate": "2014-12-01",
            "latitude": 39.293,
            "name": "MIDDLEGATE LOWERY, NV US",
            "datacoverage": 0.978,
            "id": "COOP:265132",
            "elevationUnit": "METERS",
            "longitude": -118.0196
        },
        {
            "elevation": 1396,
            "mindate": "1931-01-01",
            "maxdate": "2015-11-01",
            "latitude": 38.3878,
            "name": "MINA, NV US",
            "datacoverage": 0.9794,
            "id": "COOP:265168",
            "elevationUnit": "METERS",
            "longitude": -118.1091
        },
        {
            "elevation": 1435.3,
            "mindate": "1931-01-01",
            "maxdate": "2015-11-01",
            "latitude": 38.9547,
            "name": "MINDEN, NV US",
            "datacoverage": 0.9784,
            "id": "COOP:265191",
            "elevationUnit": "METERS",
            "longitude": -119.7758
        },
        {
            "elevation": 1487.4,
            "mindate": "2009-02-01",
            "maxdate": "2015-11-01",
            "latitude": 39.0199,
            "name": "MINDEN 6 NE, NV US",
            "datacoverage": 1,
            "id": "COOP:265194",
            "elevationUnit": "METERS",
            "longitude": -119.7088
        },
        {
            "elevation": 1442.9,
            "mindate": "1949-12-01",
            "maxdate": "1950-08-13",
            "latitude": 37.58333,
            "name": "MINTO, NV US",
            "datacoverage": 0.9998,
            "id": "COOP:265239",
            "elevationUnit": "METERS",
            "longitude": -114.36667
        },
        {
            "elevation": 1472.2,
            "mindate": "1931-01-01",
            "maxdate": "2015-11-01",
            "latitude": 41.278,
            "name": "MONTELLO 2 NE, NV US",
            "datacoverage": 0.9431,
            "id": "COOP:265352",
            "elevationUnit": "METERS",
            "longitude": -114.1705
        },
        {
            "elevation": 2164.1,
            "mindate": "1960-05-01",
            "maxdate": "1984-09-01",
            "latitude": 37.96667,
            "name": "MONTGOMERY MNTC STATION, NV US",
            "datacoverage": 0.9217,
            "id": "COOP:265362",
            "elevationUnit": "METERS",
            "longitude": -118.31667
        },
        {
            "elevation": 1993.1,
            "mindate": "2002-02-01",
            "maxdate": "2015-11-01",
            "latitude": 39.35836,
            "name": "MOORMAN RANCH RUTH 16 WNW, NV US",
            "datacoverage": 1,
            "id": "COOP:265371",
            "elevationUnit": "METERS",
            "longitude": -115.32959
        },
        {
            "elevation": 1722.1,
            "mindate": "1955-02-01",
            "maxdate": "1999-11-01",
            "latitude": 41.8375,
            "name": "MOUNTAIN CITY R S, NV US",
            "datacoverage": 0.9926,
            "id": "COOP:265392",
            "elevationUnit": "METERS",
            "longitude": -115.96528
        },
        {
            "elevation": 2273.8,
            "mindate": "1949-01-01",
            "maxdate": "2015-11-01",
            "latitude": 36.2599,
            "name": "MOUNT CHARLESTON FIRE STATION, NV US",
            "datacoverage": 0.2889,
            "id": "COOP:265400",
            "elevationUnit": "METERS",
            "longitude": -115.645
        },
        {
            "elevation": 2164.1,
            "mindate": "1959-06-01",
            "maxdate": "1960-04-27",
            "latitude": 37.96667,
            "name": "MONTGOMERY MNTC STATION, NV US",
            "datacoverage": 0.9994,
            "id": "COOP:265436",
            "elevationUnit": "METERS",
            "longitude": -118.31667
        },
        {
            "elevation": 2286,
            "mindate": "1973-11-01",
            "maxdate": "1987-10-01",
            "latitude": 39.35,
            "name": "MOUNT ROSE BOWL, NV US",
            "datacoverage": 0.7977,
            "id": "COOP:265440",
            "elevationUnit": "METERS",
            "longitude": -119.86667
        },
        {
            "elevation": 2205.2,
            "mindate": "1968-07-01",
            "maxdate": "2014-01-01",
            "latitude": 39.3422,
            "name": "MOUNT ROSE CHRISTMAS TREE, NV US",
            "datacoverage": 0.998,
            "id": "COOP:265441",
            "elevationUnit": "METERS",
            "longitude": -119.8636
        },
        {
            "elevation": 2244.9,
            "mindate": "1959-06-01",
            "maxdate": "1966-10-01",
            "latitude": 39.33333,
            "name": "MOUNT ROSE HIGHWAY S, NV US",
            "datacoverage": 0.8087,
            "id": "COOP:265445",
            "elevationUnit": "METERS",
            "longitude": -119.88333
        },
        {
            "elevation": 2286,
            "mindate": "1970-10-01",
            "maxdate": "1973-09-01",
            "latitude": 39.35,
            "name": "MOUNT ROSE BOWL, NV US",
            "datacoverage": 0.9998,
            "id": "COOP:265447",
            "elevationUnit": "METERS",
            "longitude": -119.86667
        },
        {
            "elevation": 1189.9,
            "mindate": "1931-01-01",
            "maxdate": "1974-07-01",
            "latitude": 39.83333,
            "name": "NIXON, NV US",
            "datacoverage": 0.761,
            "id": "COOP:265605",
            "elevationUnit": "METERS",
            "longitude": -119.35
        },
        {
            "elevation": 1866.9,
            "mindate": "1971-08-01",
            "maxdate": "1971-10-01",
            "latitude": 41.33333,
            "name": "NORTH FORK 10 S, NV US",
            "datacoverage": 0.9925,
            "id": "COOP:265683",
            "elevationUnit": "METERS",
            "longitude": -115.76667
        },
        {
            "elevation": 1915.1,
            "mindate": "1973-01-01",
            "maxdate": "1973-12-01",
            "latitude": 41.68333,
            "name": "NORTH FORK 13 N, NV US",
            "datacoverage": 0.5003,
            "id": "COOP:265687",
            "elevationUnit": "METERS",
            "longitude": -115.78333
        },
        {
            "elevation": 2012.9,
            "mindate": "1974-12-01",
            "maxdate": "1982-07-01",
            "latitude": 41.56667,
            "name": "NORTH FORK 7 NW, NV US",
            "datacoverage": 0.9566,
            "id": "COOP:265688",
            "elevationUnit": "METERS",
            "longitude": -115.9
        },
        {
            "elevation": 1891,
            "mindate": "1931-01-01",
            "maxdate": "1970-10-01",
            "latitude": 41.48333,
            "name": "NORTH FORK MNTC STATION, NV US",
            "datacoverage": 0.7176,
            "id": "COOP:265691",
            "elevationUnit": "METERS",
            "longitude": -115.81667
        },
        {
            "elevation": 1943.1,
            "mindate": "1951-10-01",
            "maxdate": "1953-09-01",
            "latitude": 41.51667,
            "name": "NORTH FORK SPRING CREEK RANCH, NV US",
            "datacoverage": 0.801,
            "id": "COOP:265695",
            "elevationUnit": "METERS",
            "longitude": -115.86667
        },
        {
            "elevation": 578.5,
            "mindate": "1951-02-01",
            "maxdate": "2015-11-01",
            "latitude": 36.2347,
            "name": "NORTH LAS VEGAS, NV US",
            "datacoverage": 0.5424,
            "id": "COOP:265705",
            "elevationUnit": "METERS",
            "longitude": -115.1163
        },
        {
            "elevation": 1737.4,
            "mindate": "1985-10-01",
            "maxdate": "1987-05-01",
            "latitude": 40.95,
            "name": "OASIS 5 S, NV US",
            "datacoverage": 1,
            "id": "COOP:265718",
            "elevationUnit": "METERS",
            "longitude": -114.51667
        },
        {
            "elevation": 1778.5,
            "mindate": "1987-06-01",
            "maxdate": "2011-12-01",
            "latitude": 41.0333,
            "name": "OASIS, NV US",
            "datacoverage": 0.9694,
            "id": "COOP:265722",
            "elevationUnit": "METERS",
            "longitude": -114.4713
        },
        {
            "elevation": 2144,
            "mindate": "1978-09-01",
            "maxdate": "1985-11-01",
            "latitude": 39.26667,
            "name": "OLD RUTH, NV US",
            "datacoverage": 1,
            "id": "COOP:265760",
            "elevationUnit": "METERS",
            "longitude": -114.98333
        },
        {
            "elevation": 1280.2,
            "mindate": "1931-01-01",
            "maxdate": "2015-11-01",
            "latitude": 41.5684,
            "name": "OROVADA 3 W, NV US",
            "datacoverage": 0.9461,
            "id": "COOP:265818",
            "elevationUnit": "METERS",
            "longitude": -117.8388
        },
        {
            "elevation": 1266.1,
            "mindate": "1971-03-01",
            "maxdate": "1974-06-01",
            "latitude": 41.45,
            "name": "OROVADA 9 SSW, NV US",
            "datacoverage": 0.8497,
            "id": "COOP:265819",
            "elevationUnit": "METERS",
            "longitude": -117.83333
        },
        {
            "elevation": 381,
            "mindate": "1939-05-01",
            "maxdate": "2015-11-01",
            "latitude": 36.5508,
            "name": "OVERTON, NV US",
            "datacoverage": 0.6822,
            "id": "COOP:265846",
            "elevationUnit": "METERS",
            "longitude": -114.458
        },
        {
            "elevation": 1645,
            "mindate": "1931-01-01",
            "maxdate": "1985-07-01",
            "latitude": 41.95,
            "name": "OWYHEE, NV US",
            "datacoverage": 0.8967,
            "id": "COOP:265869",
            "elevationUnit": "METERS",
            "longitude": -116.1
        },
        {
            "elevation": 1016.2,
            "mindate": "1964-03-01",
            "maxdate": "2013-07-28",
            "latitude": 37.2689,
            "name": "PAHRANAGAT WILDLIFE REFUGE, NV US",
            "datacoverage": 0.959,
            "id": "COOP:265880",
            "elevationUnit": "METERS",
            "longitude": -115.1217
        },
        {
            "elevation": 784.3,
            "mindate": "1948-11-01",
            "maxdate": "2015-11-01",
            "latitude": 36.2615,
            "name": "PAHRUMP 4 NW, NV US",
            "datacoverage": 0.8609,
            "id": "COOP:265890",
            "elevationUnit": "METERS",
            "longitude": -116.0563
        },
        {
            "elevation": 1335.9,
            "mindate": "1963-07-01",
            "maxdate": "1976-07-01",
            "latitude": 41.3,
            "name": "PAHUTE MEADOWS RANCH, NV US",
            "datacoverage": 0.9361,
            "id": "COOP:265907",
            "elevationUnit": "METERS",
            "longitude": -118.93333
        },
        {
            "elevation": 1800.1,
            "mindate": "1948-01-01",
            "maxdate": "1956-03-01",
            "latitude": 37.46667,
            "name": "PALMETTO, NV US",
            "datacoverage": 0.9116,
            "id": "COOP:265931",
            "elevationUnit": "METERS",
            "longitude": -117.76667
        },
        {
            "elevation": 1373.1,
            "mindate": "1960-04-01",
            "maxdate": "1968-10-01",
            "latitude": 41.28333,
            "name": "PARADISE HILL, NV US",
            "datacoverage": 0.8541,
            "id": "COOP:265990",
            "elevationUnit": "METERS",
            "longitude": -117.7
        },
        {
            "elevation": 1417.9,
            "mindate": "1948-01-01",
            "maxdate": "1951-07-21",
            "latitude": 41.5,
            "name": "PARADISE VALLEY, NV US",
            "datacoverage": 0.8581,
            "id": "COOP:266000",
            "elevationUnit": "METERS",
            "longitude": -117.53333
        },
        {
            "elevation": 1389.9,
            "mindate": "1931-01-01",
            "maxdate": "2010-04-01",
            "latitude": 41.50222,
            "name": "PARADISE VALLEY 1 NW, NV US",
            "datacoverage": 0.9528,
            "id": "COOP:266005",
            "elevationUnit": "METERS",
            "longitude": -117.54778
        },
        {
            "elevation": 1261.9,
            "mindate": "1966-07-01",
            "maxdate": "1991-10-01",
            "latitude": 40.21667,
            "name": "PARIS RANCH, NV US",
            "datacoverage": 0.9966,
            "id": "COOP:266055",
            "elevationUnit": "METERS",
            "longitude": -117.68333
        },
        {
            "elevation": 1800.1,
            "mindate": "1970-02-01",
            "maxdate": "1971-11-01",
            "latitude": 40.08333,
            "name": "PARKER RANCH, NV US",
            "datacoverage": 0.7745,
            "id": "COOP:266068",
            "elevationUnit": "METERS",
            "longitude": -114.61667
        },
        {
            "elevation": 1463,
            "mindate": "1967-03-01",
            "maxdate": "2006-09-01",
            "latitude": 37.6486,
            "name": "PENOYER VALLEY, NV US",
            "datacoverage": 0.4547,
            "id": "COOP:266130",
            "elevationUnit": "METERS",
            "longitude": -115.8008
        },
        {
            "elevation": 1838.9,
            "mindate": "1948-01-01",
            "maxdate": "1989-04-01",
            "latitude": 41.06667,
            "name": "PEQUOP, NV US",
            "datacoverage": 0.765,
            "id": "COOP:266148",
            "elevationUnit": "METERS",
            "longitude": -114.53333
        },
        {
            "elevation": 1498.4,
            "mindate": "2000-01-01",
            "maxdate": "2008-11-01",
            "latitude": 41.10944,
            "name": "PILOT VALLEY MONTELLO 11 SSE, NV US",
            "datacoverage": 0.9999,
            "id": "COOP:266228",
            "elevationUnit": "METERS",
            "longitude": -114.12083
        },
        {
            "elevation": 1577.6,
            "mindate": "1982-06-01",
            "maxdate": "2015-11-01",
            "latitude": 40.4369,
            "name": "PINE VALLEY CARLIN 20 S, NV US",
            "datacoverage": 0.8035,
            "id": "COOP:266242",
            "elevationUnit": "METERS",
            "longitude": -116.119
        },
        {
            "elevation": 1825.8,
            "mindate": "1939-01-01",
            "maxdate": "2015-11-01",
            "latitude": 37.9338,
            "name": "PIOCHE, NV US",
            "datacoverage": 0.9177,
            "id": "COOP:266252",
            "elevationUnit": "METERS",
            "longitude": -114.4522
        },
        {
            "elevation": 1464,
            "mindate": "1950-01-01",
            "maxdate": "1951-09-01",
            "latitude": 39.35,
            "name": "PLEASANT VALLEY, NV US",
            "datacoverage": 0.9064,
            "id": "COOP:266290",
            "elevationUnit": "METERS",
            "longitude": -119.76667
        },
        {
            "elevation": 1755.6,
            "mindate": "1944-07-01",
            "maxdate": "1954-07-01",
            "latitude": 40.64972,
            "name": "EMIGRANT PASS HIGHWAY, NV US",
            "datacoverage": 0.9173,
            "id": "COOP:266349",
            "elevationUnit": "METERS",
            "longitude": -116.30222
        },
        {
            "elevation": 1246.9,
            "mindate": "1945-06-01",
            "maxdate": "1954-11-01",
            "latitude": 41.56667,
            "name": "QUINN RIVER CROSSING, NV US",
            "datacoverage": 0.6514,
            "id": "COOP:266504",
            "elevationUnit": "METERS",
            "longitude": -118.43333
        },
        {
            "elevation": 1469.1,
            "mindate": "2008-06-01",
            "maxdate": "2015-11-01",
            "latitude": 37.6467,
            "name": "RACHEL, NV US",
            "datacoverage": 0.8668,
            "id": "COOP:266514",
            "elevationUnit": "METERS",
            "longitude": -115.746
        },
        {
            "elevation": 1538,
            "mindate": "1956-11-01",
            "maxdate": "1982-05-01",
            "latitude": 40.43333,
            "name": "RAND RANCH PALISADE, NV US",
            "datacoverage": 1,
            "id": "COOP:266574",
            "elevationUnit": "METERS",
            "longitude": -116.11667
        },
        {
            "elevation": 1802.9,
            "mindate": "1941-10-01",
            "maxdate": "1963-06-01",
            "latitude": 38.45,
            "name": "RATTLESNAKE, NV US",
            "datacoverage": 0.9568,
            "id": "COOP:266630",
            "elevationUnit": "METERS",
            "longitude": -116.16667
        },
        {
            "elevation": 1152.1,
            "mindate": "1977-05-01",
            "maxdate": "2015-11-01",
            "latitude": 36.0686,
            "name": "RED ROCK CANYON SPRING MOUNT RANCH STATE PARK, NV US",
            "datacoverage": 0.9805,
            "id": "COOP:266691",
            "elevationUnit": "METERS",
            "longitude": -115.4602
        },
        {
            "elevation": 1954.7,
            "mindate": "1972-04-01",
            "maxdate": "2011-12-01",
            "latitude": 39.06333,
            "name": "REESE RIVER, NV US",
            "datacoverage": 0.9476,
            "id": "COOP:266746",
            "elevationUnit": "METERS",
            "longitude": -117.41306
        },
        {
            "elevation": 1492.9,
            "mindate": "1976-07-01",
            "maxdate": "1983-12-01",
            "latitude": 40.05,
            "name": "REESE VALLEY CARPER, NV US",
            "datacoverage": 0.9887,
            "id": "COOP:266748",
            "elevationUnit": "METERS",
            "longitude": -117.23333
        },
        {
            "elevation": 1495,
            "mindate": "1972-04-01",
            "maxdate": "1972-04-01",
            "latitude": 40.01667,
            "name": "REESE VALLEY POWERS, NV US",
            "datacoverage": 1,
            "id": "COOP:266750",
            "elevationUnit": "METERS",
            "longitude": -117.26667
        },
        {
            "elevation": 1464,
            "mindate": "1972-05-01",
            "maxdate": "1976-06-01",
            "latitude": 40.13333,
            "name": "REESE VALLEY SMITH, NV US",
            "datacoverage": 0.9599,
            "id": "COOP:266754",
            "elevationUnit": "METERS",
            "longitude": -117.26667
        },
        {
            "elevation": 1344.2,
            "mindate": "1948-07-01",
            "maxdate": "2015-11-01",
            "latitude": 39.4838,
            "name": "RENO AIRPORT, NV US",
            "datacoverage": 1,
            "id": "COOP:266779",
            "elevationUnit": "METERS",
            "longitude": -119.7711
        },
        {
            "elevation": 1520,
            "mindate": "1996-05-01",
            "maxdate": "2015-11-01",
            "latitude": 39.5683,
            "name": "RENO WEATHER FORECAST OFFICE, NV US",
            "datacoverage": 1,
            "id": "COOP:266791",
            "elevationUnit": "METERS",
            "longitude": -119.7956
        },
        {
            "elevation": 1902.9,
            "mindate": "1968-08-01",
            "maxdate": "1970-03-01",
            "latitude": 39.96667,
            "name": "ROBIN RANCH, NV US",
            "datacoverage": 0.998,
            "id": "COOP:266912",
            "elevationUnit": "METERS",
            "longitude": -114.68333
        },
        {
            "elevation": 1834.6,
            "mindate": "1940-01-01",
            "maxdate": "2015-11-01",
            "latitude": 40.2022,
            "name": "RUBY LAKE NWR, NV US",
            "datacoverage": 0.9825,
            "id": "COOP:267123",
            "elevationUnit": "METERS",
            "longitude": -115.4931
        },
        {
            "elevation": 2090.3,
            "mindate": "1958-06-01",
            "maxdate": "2015-11-01",
            "latitude": 39.2763,
            "name": "RUTH, NV US",
            "datacoverage": 0.8174,
            "id": "COOP:267175",
            "elevationUnit": "METERS",
            "longitude": -114.9911
        },
        {
            "elevation": 1611.8,
            "mindate": "1999-04-01",
            "maxdate": "2013-12-01",
            "latitude": 40.9711,
            "name": "RYNDON, NV US",
            "datacoverage": 0.7399,
            "id": "COOP:267188",
            "elevationUnit": "METERS",
            "longitude": -115.61355
        },
        {
            "elevation": 1260.3,
            "mindate": "1935-06-01",
            "maxdate": "2015-11-01",
            "latitude": 40.4661,
            "name": "RYE PATCH DAM, NV US",
            "datacoverage": 0.97,
            "id": "COOP:267192",
            "elevationUnit": "METERS",
            "longitude": -118.3047
        },
        {
            "elevation": 1189.9,
            "mindate": "1931-01-01",
            "maxdate": "1971-09-01",
            "latitude": 40.31667,
            "name": "SAND PASS, NV US",
            "datacoverage": 0.8712,
            "id": "COOP:267261",
            "elevationUnit": "METERS",
            "longitude": -119.8
        },
        {
            "elevation": 1585.9,
            "mindate": "1931-01-01",
            "maxdate": "1948-09-01",
            "latitude": 41.88333,
            "name": "SAN JACINTO, NV US",
            "datacoverage": 0.9343,
            "id": "COOP:267284",
            "elevationUnit": "METERS",
            "longitude": -114.68333
        },
        {
            "elevation": 1225.9,
            "mindate": "1941-11-01",
            "maxdate": "1961-06-01",
            "latitude": 37.26667,
            "name": "SARCOBATUS, NV US",
            "datacoverage": 0.9281,
            "id": "COOP:267319",
            "elevationUnit": "METERS",
            "longitude": -117.01667
        },
        {
            "elevation": 1940.1,
            "mindate": "1960-07-01",
            "maxdate": "1967-08-01",
            "latitude": 41.28333,
            "name": "SAVAL RANCH, NV US",
            "datacoverage": 0.8255,
            "id": "COOP:267324",
            "elevationUnit": "METERS",
            "longitude": -115.91667
        },
        {
            "elevation": 1866.9,
            "mindate": "1948-01-01",
            "maxdate": "1967-01-01",
            "latitude": 39.8,
            "name": "SCHELLBOURNE, NV US",
            "datacoverage": 0.5646,
            "id": "COOP:267330",
            "elevationUnit": "METERS",
            "longitude": -114.73333
        },
        {
            "elevation": 1257,
            "mindate": "1931-01-01",
            "maxdate": "1957-04-01",
            "latitude": 38.95,
            "name": "SCHURZ, NV US",
            "datacoverage": 0.9843,
            "id": "COOP:267358",
            "elevationUnit": "METERS",
            "longitude": -118.81667
        },
        {
            "elevation": 1079,
            "mindate": "1931-01-01",
            "maxdate": "2015-11-01",
            "latitude": 35.4661,
            "name": "SEARCHLIGHT, NV US",
            "datacoverage": 0.9725,
            "id": "COOP:267369",
            "elevationUnit": "METERS",
            "longitude": -114.9216
        },
        {
            "elevation": 1662.1,
            "mindate": "1939-06-01",
            "maxdate": "1978-10-01",
            "latitude": 40.9,
            "name": "SEVENTY ONE RANCH, NV US",
            "datacoverage": 0.7727,
            "id": "COOP:267397",
            "elevationUnit": "METERS",
            "longitude": -115.31667
        },
        {
            "elevation": 1983,
            "mindate": "1933-07-01",
            "maxdate": "1972-02-01",
            "latitude": 41.85,
            "name": "SHELDON, NV US",
            "datacoverage": 0.9914,
            "id": "COOP:267443",
            "elevationUnit": "METERS",
            "longitude": -119.63333
        },
        {
            "elevation": 1789.2,
            "mindate": "1988-10-01",
            "maxdate": "2011-02-01",
            "latitude": 38.9162,
            "name": "SHOSHONE 5 N, NV US",
            "datacoverage": 0.9957,
            "id": "COOP:267450",
            "elevationUnit": "METERS",
            "longitude": -114.4022
        },
        {
            "elevation": 1302.7,
            "mindate": "1968-01-01",
            "maxdate": "2015-11-01",
            "latitude": 37.7617,
            "name": "SILVERPEAK, NV US",
            "datacoverage": 0.9861,
            "id": "COOP:267463",
            "elevationUnit": "METERS",
            "longitude": -117.5658
        },
        {
            "elevation": 1449,
            "mindate": "1931-01-01",
            "maxdate": "1966-09-01",
            "latitude": 38.81667,
            "name": "SMITH 1 N, NV US",
            "datacoverage": 0.9744,
            "id": "COOP:267609",
            "elevationUnit": "METERS",
            "longitude": -119.33333
        },
        {
            "elevation": 1524,
            "mindate": "1973-07-01",
            "maxdate": "2015-11-01",
            "latitude": 38.8822,
            "name": "SMITH 6 N, NV US",
            "datacoverage": 0.9803,
            "id": "COOP:267612",
            "elevationUnit": "METERS",
            "longitude": -119.3511
        },
        {
            "elevation": 1173.5,
            "mindate": "1987-12-01",
            "maxdate": "2006-07-01",
            "latitude": 40.60444,
            "name": "SMOKE CREEK ESPIL, NV US",
            "datacoverage": 0.9241,
            "id": "COOP:267618",
            "elevationUnit": "METERS",
            "longitude": -119.7475
        },
        {
            "elevation": 1721.2,
            "mindate": "1949-07-01",
            "maxdate": "2015-11-01",
            "latitude": 38.784,
            "name": "SMOKY VALLEY CARVERS, NV US",
            "datacoverage": 0.9724,
            "id": "COOP:267620",
            "elevationUnit": "METERS",
            "longitude": -117.1739
        },
        {
            "elevation": 2182.4,
            "mindate": "1966-09-01",
            "maxdate": "2002-09-01",
            "latitude": 39.04028,
            "name": "SNOWBALL RANCH, NV US",
            "datacoverage": 0.9931,
            "id": "COOP:267640",
            "elevationUnit": "METERS",
            "longitude": -116.19889
        },
        {
            "elevation": 1388.1,
            "mindate": "1962-06-01",
            "maxdate": "1966-12-01",
            "latitude": 41.35,
            "name": "SOLDIERS MEADOW, NV US",
            "datacoverage": 0.9813,
            "id": "COOP:267682",
            "elevationUnit": "METERS",
            "longitude": -119.16667
        },
        {
            "elevation": 1606.3,
            "mindate": "1993-08-01",
            "maxdate": "2015-11-01",
            "latitude": 40.6764,
            "name": "SOUTH FORK STATE RECREATION AREA, NV US",
            "datacoverage": 0.959,
            "id": "COOP:267690",
            "elevationUnit": "METERS",
            "longitude": -115.7451
        },
        {
            "elevation": 1368.2,
            "mindate": "2009-03-01",
            "maxdate": "2015-11-01",
            "latitude": 39.6372,
            "name": "SPANISH SPRINGS, NV US",
            "datacoverage": 0.9998,
            "id": "COOP:267691",
            "elevationUnit": "METERS",
            "longitude": -119.7094
        },
        {
            "elevation": 1340.2,
            "mindate": "1996-11-01",
            "maxdate": "2005-08-01",
            "latitude": 39.5236,
            "name": "SPARKS HUMANE SOCIETY, NV US",
            "datacoverage": 1,
            "id": "COOP:267693",
            "elevationUnit": "METERS",
            "longitude": -119.7386
        },
        {
            "elevation": 1328,
            "mindate": "1988-11-01",
            "maxdate": "2015-11-01",
            "latitude": 39.5558,
            "name": "SPARKS, NV US",
            "datacoverage": 0.9447,
            "id": "COOP:267697",
            "elevationUnit": "METERS",
            "longitude": -119.7333
        },
        {
            "elevation": 2144,
            "mindate": "1939-08-01",
            "maxdate": "1945-10-01",
            "latitude": 39.1,
            "name": "SPOONERS STATION, NV US",
            "datacoverage": 0.8929,
            "id": "COOP:267710",
            "elevationUnit": "METERS",
            "longitude": -119.91667
        },
        {
            "elevation": 1635.9,
            "mindate": "2010-10-01",
            "maxdate": "2011-12-01",
            "latitude": 40.7941,
            "name": "SPRING CREEK, NV US",
            "datacoverage": 0.999,
            "id": "COOP:267740",
            "elevationUnit": "METERS",
            "longitude": -115.6619
        },
        {
            "elevation": 1813.6,
            "mindate": "1974-09-01",
            "maxdate": "2015-11-01",
            "latitude": 38.0405,
            "name": "SPRING VALLEY STATE PARK, NV US",
            "datacoverage": 0.9879,
            "id": "COOP:267750",
            "elevationUnit": "METERS",
            "longitude": -114.18
        },
        {
            "elevation": 1904.4,
            "mindate": "1984-03-01",
            "maxdate": "1998-12-01",
            "latitude": 38.96667,
            "name": "STATELINE HARRAH S, NV US",
            "datacoverage": 0.9998,
            "id": "COOP:267806",
            "elevationUnit": "METERS",
            "longitude": -119.95
        },
        {
            "elevation": 1554.8,
            "mindate": "1985-03-01",
            "maxdate": "2015-11-01",
            "latitude": 39.6253,
            "name": "STEAD, NV US",
            "datacoverage": 0.9674,
            "id": "COOP:267820",
            "elevationUnit": "METERS",
            "longitude": -119.8836
        },
        {
            "elevation": 1711.1,
            "mindate": "1968-08-01",
            "maxdate": "1971-07-01",
            "latitude": 38.15,
            "name": "STONE CABIN VALLEY, NV US",
            "datacoverage": 0.6115,
            "id": "COOP:267855",
            "elevationUnit": "METERS",
            "longitude": -116.58333
        },
        {
            "elevation": 1232,
            "mindate": "1931-01-01",
            "maxdate": "1953-01-01",
            "latitude": 40.9,
            "name": "SULPHUR, NV US",
            "datacoverage": 0.898,
            "id": "COOP:267873",
            "elevationUnit": "METERS",
            "longitude": -118.66667
        },
        {
            "elevation": 1614.5,
            "mindate": "1948-01-01",
            "maxdate": "2015-11-01",
            "latitude": 38.4231,
            "name": "SUNNYSIDE LUND 31 S, NV US",
            "datacoverage": 0.7448,
            "id": "COOP:267908",
            "elevationUnit": "METERS",
            "longitude": -115.0226
        },
        {
            "elevation": 555,
            "mindate": "1961-07-01",
            "maxdate": "1989-10-01",
            "latitude": 36.2,
            "name": "SUNRISE MNR LAS VGAS, NV US",
            "datacoverage": 0.9616,
            "id": "COOP:267925",
            "elevationUnit": "METERS",
            "longitude": -115.08333
        },
        {
            "elevation": 1188.7,
            "mindate": "1967-06-01",
            "maxdate": "2015-11-01",
            "latitude": 39.9508,
            "name": "SUTCLIFFE, NV US",
            "datacoverage": 0.8952,
            "id": "COOP:267953",
            "elevationUnit": "METERS",
            "longitude": -119.5986
        },
        {
            "elevation": 1490.5,
            "mindate": "1972-04-01",
            "maxdate": "1985-12-01",
            "latitude": 37.68333,
            "name": "TEMPIUTE 4 NW, NV US",
            "datacoverage": 0.9998,
            "id": "COOP:267983",
            "elevationUnit": "METERS",
            "longitude": -115.71667
        },
        {
            "elevation": 1281.1,
            "mindate": "1931-01-01",
            "maxdate": "1950-05-01",
            "latitude": 38.6,
            "name": "THORNE, NV US",
            "datacoverage": 0.9744,
            "id": "COOP:268034",
            "elevationUnit": "METERS",
            "longitude": -118.6
        },
        {
            "elevation": 1831.8,
            "mindate": "1931-01-01",
            "maxdate": "2015-11-01",
            "latitude": 38.0694,
            "name": "TONOPAH, NV US",
            "datacoverage": 0.317,
            "id": "COOP:268160",
            "elevationUnit": "METERS",
            "longitude": -117.2355
        },
        {
            "elevation": 1656,
            "mindate": "1975-05-01",
            "maxdate": "1976-07-01",
            "latitude": 38.06667,
            "name": "TONOPAH 7 E, NV US",
            "datacoverage": 0.007,
            "id": "COOP:268165",
            "elevationUnit": "METERS",
            "longitude": -117.08333
        },
        {
            "elevation": 1644.4,
            "mindate": "1954-06-01",
            "maxdate": "2015-11-01",
            "latitude": 38.0511,
            "name": "TONOPAH AIRPORT, NV US",
            "datacoverage": 0.9973,
            "id": "COOP:268170",
            "elevationUnit": "METERS",
            "longitude": -117.0902
        },
        {
            "elevation": 1613,
            "mindate": "1957-07-01",
            "maxdate": "2015-11-01",
            "latitude": 38.7395,
            "name": "TOPAZ LAKE, NV US",
            "datacoverage": 0.6377,
            "id": "COOP:268186",
            "elevationUnit": "METERS",
            "longitude": -119.518
        },
        {
            "elevation": 1699.9,
            "mindate": "1986-12-01",
            "maxdate": "2000-08-01",
            "latitude": 38.74556,
            "name": "TOPAZ LAKE 4 N, NV US",
            "datacoverage": 0.9514,
            "id": "COOP:268202",
            "elevationUnit": "METERS",
            "longitude": -119.51
        },
        {
            "elevation": 1880.6,
            "mindate": "1957-05-01",
            "maxdate": "2015-11-01",
            "latitude": 41.3144,
            "name": "TUSCARORA, NV US",
            "datacoverage": 0.9417,
            "id": "COOP:268346",
            "elevationUnit": "METERS",
            "longitude": -116.2226
        },
        {
            "elevation": 1787,
            "mindate": "1931-01-01",
            "maxdate": "1956-12-01",
            "latitude": 41.4,
            "name": "TUSCARORA ANDRAE RAN, NV US",
            "datacoverage": 0.923,
            "id": "COOP:268349",
            "elevationUnit": "METERS",
            "longitude": -116.08333
        },
        {
            "elevation": 1615.4,
            "mindate": "1985-10-01",
            "maxdate": "2005-05-01",
            "latitude": 38.2033,
            "name": "TWIN SPRINGS FALLINI, NV US",
            "datacoverage": 0.9492,
            "id": "COOP:268443",
            "elevationUnit": "METERS",
            "longitude": -116.1758
        },
        {
            "elevation": 1375.9,
            "mindate": "1949-01-01",
            "maxdate": "1954-12-01",
            "latitude": 39.51667,
            "name": "UNIVERSITY OF NEVADA EXPER, NV US",
            "datacoverage": 0.9447,
            "id": "COOP:268500",
            "elevationUnit": "METERS",
            "longitude": -119.78333
        },
        {
            "elevation": 1777.9,
            "mindate": "1964-04-01",
            "maxdate": "1972-04-01",
            "latitude": 37.98333,
            "name": "URSINE, NV US",
            "datacoverage": 0.9177,
            "id": "COOP:268538",
            "elevationUnit": "METERS",
            "longitude": -114.21667
        },
        {
            "elevation": 1769.1,
            "mindate": "1954-11-01",
            "maxdate": "1955-01-01",
            "latitude": 38.05,
            "name": "URSINE SPRING VALLEY, NV US",
            "datacoverage": 0.9925,
            "id": "COOP:268543",
            "elevationUnit": "METERS",
            "longitude": -114.16667
        },
        {
            "elevation": 609.6,
            "mindate": "1972-12-01",
            "maxdate": "2015-11-01",
            "latitude": 36.4302,
            "name": "VALLEY OF FIRE STATE PARK, NV US",
            "datacoverage": 0.9981,
            "id": "COOP:268588",
            "elevationUnit": "METERS",
            "longitude": -114.514
        },
        {
            "elevation": 1488,
            "mindate": "1951-05-01",
            "maxdate": "1956-01-01",
            "latitude": 39.51667,
            "name": "VERDI, NV US",
            "datacoverage": 0.2103,
            "id": "COOP:268689",
            "elevationUnit": "METERS",
            "longitude": -119.98333
        },
        {
            "elevation": 1932.4,
            "mindate": "1951-05-01",
            "maxdate": "2015-11-01",
            "latitude": 39.3128,
            "name": "VIRGINIA CITY, NV US",
            "datacoverage": 0.9084,
            "id": "COOP:268761",
            "elevationUnit": "METERS",
            "longitude": -119.6483
        },
        {
            "elevation": 1472.2,
            "mindate": "1951-11-01",
            "maxdate": "1956-12-01",
            "latitude": 41.8679,
            "name": "DUFURRENA DENIO 22 WSW, NV US",
            "datacoverage": 0.9834,
            "id": "COOP:268776",
            "elevationUnit": "METERS",
            "longitude": -119.0147
        },
        {
            "elevation": 1726.1,
            "mindate": "1959-09-01",
            "maxdate": "1980-07-01",
            "latitude": 41.58333,
            "name": "VYA, NV US",
            "datacoverage": 0.8286,
            "id": "COOP:268810",
            "elevationUnit": "METERS",
            "longitude": -119.91667
        },
        {
            "elevation": 1310.6,
            "mindate": "1972-01-01",
            "maxdate": "2015-11-01",
            "latitude": 39.0747,
            "name": "WABUSKA 6 SE, NV US",
            "datacoverage": 0.979,
            "id": "COOP:268822",
            "elevationUnit": "METERS",
            "longitude": -119.1189
        },
        {
            "elevation": 1243.9,
            "mindate": "1941-01-01",
            "maxdate": "1948-09-01",
            "latitude": 39.63333,
            "name": "WADSWORTH, NV US",
            "datacoverage": 1,
            "id": "COOP:268834",
            "elevationUnit": "METERS",
            "longitude": -119.28333
        },
        {
            "elevation": 1219.2,
            "mindate": "1974-08-01",
            "maxdate": "2014-01-01",
            "latitude": 39.6915,
            "name": "WADSWORTH 4 N, NV US",
            "datacoverage": 0.8288,
            "id": "COOP:268838",
            "elevationUnit": "METERS",
            "longitude": -119.29
        },
        {
            "elevation": 1476.1,
            "mindate": "1942-07-01",
            "maxdate": "1973-06-01",
            "latitude": 38.75,
            "name": "WELLINGTON RANGER STATION, NV US",
            "datacoverage": 0.9757,
            "id": "COOP:268977",
            "elevationUnit": "METERS",
            "longitude": -119.36667
        },
        {
            "elevation": 1737.4,
            "mindate": "1934-10-01",
            "maxdate": "2005-04-01",
            "latitude": 41.1006,
            "name": "WELLS, NV US",
            "datacoverage": 0.9988,
            "id": "COOP:268988",
            "elevationUnit": "METERS",
            "longitude": -114.9736
        },
        {
            "elevation": 1901.6,
            "mindate": "1982-11-01",
            "maxdate": "2015-11-01",
            "latitude": 41.6358,
            "name": "WILD HORSE RESERVOIR, NV US",
            "datacoverage": 0.9925,
            "id": "COOP:269072",
            "elevationUnit": "METERS",
            "longitude": -115.8008
        },
        {
            "elevation": 1720,
            "mindate": "1948-06-01",
            "maxdate": "1970-03-01",
            "latitude": 41.43333,
            "name": "WILKINS, NV US",
            "datacoverage": 0.9161,
            "id": "COOP:269122",
            "elevationUnit": "METERS",
            "longitude": -114.75
        },
        {
            "elevation": 1738,
            "mindate": "1980-06-01",
            "maxdate": "1980-09-01",
            "latitude": 41.4,
            "name": "WILKINS WINE CUP RAN, NV US",
            "datacoverage": 0.7485,
            "id": "COOP:269126",
            "elevationUnit": "METERS",
            "longitude": -114.66667
        },
        {
            "elevation": 1866.9,
            "mindate": "1941-10-01",
            "maxdate": "1948-10-01",
            "latitude": 38.43333,
            "name": "WILLOW SPRINGS, NV US",
            "datacoverage": 0.9879,
            "id": "COOP:269137",
            "elevationUnit": "METERS",
            "longitude": -117.2
        },
        {
            "elevation": 1327.4,
            "mindate": "1999-05-01",
            "maxdate": "2015-11-01",
            "latitude": 40.9386,
            "name": "WINNEMUCCA 3 SSW, NV US",
            "datacoverage": 0.9898,
            "id": "COOP:269168",
            "elevationUnit": "METERS",
            "longitude": -117.7513
        },
        {
            "elevation": 1309.4,
            "mindate": "1948-07-01",
            "maxdate": "2015-11-01",
            "latitude": 40.9017,
            "name": "WINNEMUCCA AIRPORT, NV US",
            "datacoverage": 1,
            "id": "COOP:269171",
            "elevationUnit": "METERS",
            "longitude": -117.808
        },
        {
            "elevation": 1335,
            "mindate": "1931-01-01",
            "maxdate": "2015-11-01",
            "latitude": 38.9991,
            "name": "YERINGTON, NV US",
            "datacoverage": 0.9657,
            "id": "COOP:269229",
            "elevationUnit": "METERS",
            "longitude": -119.1575
        },
        {
            "elevation": 1335.9,
            "mindate": "1948-01-01",
            "maxdate": "1971-12-27",
            "latitude": 39,
            "name": "YERINGTON 2, NV US",
            "datacoverage": 0.8726,
            "id": "COOP:269234",
            "elevationUnit": "METERS",
            "longitude": -119.16667
        },
        {
            "elevation": 1421.9,
            "mindate": "2007-06-01",
            "maxdate": "2011-02-18",
            "latitude": 39.162658,
            "name": "CARSON CITY 1.3 NW, NV US",
            "datacoverage": 0.956,
            "id": "GHCND:US1NVCC0002",
            "elevationUnit": "METERS",
            "longitude": -119.758614
        },
        {
            "elevation": 1430.1,
            "mindate": "2008-06-01",
            "maxdate": "2011-10-14",
            "latitude": 39.176661,
            "name": "CARSON CITY 2.1 NNW, NV US",
            "datacoverage": 0.7804,
            "id": "GHCND:US1NVCC0005",
            "elevationUnit": "METERS",
            "longitude": -119.75487
        },
        {
            "elevation": 1418.2,
            "mindate": "2008-12-01",
            "maxdate": "2012-04-05",
            "latitude": 39.1789578,
            "name": "CARSON CITY 3.2 NE, NV US",
            "datacoverage": 0.9438,
            "id": "GHCND:US1NVCC0006",
            "elevationUnit": "METERS",
            "longitude": -119.6975968
        },
        {
            "elevation": 1409.4,
            "mindate": "2010-10-01",
            "maxdate": "2013-06-11",
            "latitude": 39.175868,
            "name": "CARSON CITY 2.3 NNE, NV US",
            "datacoverage": 0.4851,
            "id": "GHCND:US1NVCC0007",
            "elevationUnit": "METERS",
            "longitude": -119.719622
        },
        {
            "elevation": 1410.6,
            "mindate": "2009-11-01",
            "maxdate": "2012-02-13",
            "latitude": 39.1597,
            "name": "CARSON CITY 1.5 ENE, NV US",
            "datacoverage": 1,
            "id": "GHCND:US1NVCC0008",
            "elevationUnit": "METERS",
            "longitude": -119.7183
        },