{
    "metadata": {
        "resultset": {
            "offset": 1,
            "count": 627,
            "limit": 1000
        }
    },
    "results": [
        {
            "elevation": 224.3,
            "mindate": "2006-11-01",
            "maxdate": "2015-11-01",
            "latitude": 41.9984,
            "name": "STAFFORDVILLE, CT US",
            "datacoverage": 1,
            "id": "COOP:067958",
            "elevationUnit": "METERS",
            "longitude": -72.2606
        },
        {
            "elevation": 417.9,
            "mindate": "1941-01-01",
            "maxdate": "1954-06-01",
            "latitude": 43.65,
            "name": "ALEXANDRIA, NH US",
            "datacoverage": 0.8831,
            "id": "COOP:270038",
            "elevationUnit": "METERS",
            "longitude": -71.86667
        },
        {
            "elevation": 292.6,
            "mindate": "1991-06-01",
            "maxdate": "1993-11-01",
            "latitude": 43.6,
            "name": "ALEXANDRIA 3, NH US",
            "datacoverage": 0.999,
            "id": "COOP:270040",
            "elevationUnit": "METERS",
            "longitude": -71.76667
        },
        {
            "elevation": 353.6,
            "mindate": "1996-05-01",
            "maxdate": "2013-12-01",
            "latitude": 43.6333,
            "name": "ALEXANDRIA 4, NH US",
            "datacoverage": 0.9857,
            "id": "COOP:270045",
            "elevationUnit": "METERS",
            "longitude": -71.8
        },
        {
            "elevation": 219.5,
            "mindate": "1979-01-01",
            "maxdate": "1986-12-01",
            "latitude": 43.43333,
            "name": "ALTON, NH US",
            "datacoverage": 0.9792,
            "id": "COOP:270100",
            "elevationUnit": "METERS",
            "longitude": -71.25
        },
        {
            "elevation": 249.9,
            "mindate": "1956-01-01",
            "maxdate": "1957-10-01",
            "latitude": 42.93333,
            "name": "AMHERST, NH US",
            "datacoverage": 0.064,
            "id": "COOP:270146",
            "elevationUnit": "METERS",
            "longitude": -71.61667
        },
        {
            "elevation": 211.8,
            "mindate": "2004-03-01",
            "maxdate": "2010-10-01",
            "latitude": 43.38333,
            "name": "BARNSTEAD 5 N, NH US",
            "datacoverage": 0.9996,
            "id": "COOP:270315",
            "elevationUnit": "METERS",
            "longitude": -71.25028
        },
        {
            "elevation": 193.5,
            "mindate": "2010-06-01",
            "maxdate": "2015-11-01",
            "latitude": 44.1473,
            "name": "BATH 3, NH US",
            "datacoverage": 0.9848,
            "id": "COOP:270493",
            "elevationUnit": "METERS",
            "longitude": -71.9656
        },
        {
            "elevation": 149,
            "mindate": "1944-08-01",
            "maxdate": "1957-09-01",
            "latitude": 44.15,
            "name": "BATH 2 SW, NH US",
            "datacoverage": 0.9747,
            "id": "COOP:270496",
            "elevationUnit": "METERS",
            "longitude": -71.98333
        },
        {
            "elevation": 70.1,
            "mindate": "1956-01-01",
            "maxdate": "1957-10-01",
            "latitude": 42.91667,
            "name": "BEDFORD, NH US",
            "datacoverage": 0.061,
            "id": "COOP:270522",
            "elevationUnit": "METERS",
            "longitude": -71.51667
        },
        {
            "elevation": 170.7,
            "mindate": "2009-08-01",
            "maxdate": "2011-12-01",
            "latitude": 43.6055,
            "name": "NEW HAMPTON 2, NH US",
            "datacoverage": 0.9996,
            "id": "COOP:270610",
            "elevationUnit": "METERS",
            "longitude": -71.6561
        },
        {
            "elevation": 399.9,
            "mindate": "1940-10-01",
            "maxdate": "1964-11-01",
            "latitude": 44.1,
            "name": "BENTON, NH US",
            "datacoverage": 0.8828,
            "id": "COOP:270675",
            "elevationUnit": "METERS",
            "longitude": -71.88333
        },
        {
            "elevation": 365.8,
            "mindate": "1964-11-01",
            "maxdate": "2011-12-01",
            "latitude": 44.0341,
            "name": "BENTON 5 SW, NH US",
            "datacoverage": 0.9859,
            "id": "COOP:270681",
            "elevationUnit": "METERS",
            "longitude": -71.9486
        },
        {
            "elevation": 280.4,
            "mindate": "1931-01-01",
            "maxdate": "2015-11-01",
            "latitude": 44.4535,
            "name": "BERLIN, NH US",
            "datacoverage": 0.9618,
            "id": "COOP:270690",
            "elevationUnit": "METERS",
            "longitude": -71.18552
        },
        {
            "elevation": 420.6,
            "mindate": "1931-01-01",
            "maxdate": "1991-11-01",
            "latitude": 44.28333,
            "name": "BETHLEHEM, NH US",
            "datacoverage": 0.9918,
            "id": "COOP:270703",
            "elevationUnit": "METERS",
            "longitude": -71.68333
        },
        {
            "elevation": 359.7,
            "mindate": "1992-08-01",
            "maxdate": "2012-12-01",
            "latitude": 44.3063,
            "name": "BETHLEHEM 2, NH US",
            "datacoverage": 0.9999,
            "id": "COOP:270706",
            "elevationUnit": "METERS",
            "longitude": -71.6575
        },
        {
            "elevation": 325.2,
            "mindate": "2013-01-01",
            "maxdate": "2015-11-01",
            "latitude": 44.3154,
            "name": "BETHLEHEM 3, NH US",
            "datacoverage": 0.8582,
            "id": "COOP:270707",
            "elevationUnit": "METERS",
            "longitude": -71.6673
        },
        {
            "elevation": 137.2,
            "mindate": "1948-05-01",
            "maxdate": "1992-09-01",
            "latitude": 43.3,
            "name": "WEBSTER, NH US",
            "datacoverage": 0.9962,
            "id": "COOP:270741",
            "elevationUnit": "METERS",
            "longitude": -71.7
        },
        {
            "elevation": 66.1,
            "mindate": "1938-09-01",
            "maxdate": "1960-08-01",
            "latitude": 43.16667,
            "name": "BOW GARVINS FALLS, NH US",
            "datacoverage": 0.6515,
            "id": "COOP:270834",
            "elevationUnit": "METERS",
            "longitude": -71.51667
        },
        {
            "elevation": 286.5,
            "mindate": "1938-09-01",
            "maxdate": "1998-04-01",
            "latitude": 43.25861,
            "name": "BRADFORD, NH US",
            "datacoverage": 0.9554,
            "id": "COOP:270910",
            "elevationUnit": "METERS",
            "longitude": -71.98
        },
        {
            "elevation": 248.4,
            "mindate": "1998-07-01",
            "maxdate": "2015-11-01",
            "latitude": 43.25886,
            "name": "BRADFORD 2, NH US",
            "datacoverage": 0.9999,
            "id": "COOP:270913",
            "elevationUnit": "METERS",
            "longitude": -72.0021
        },
        {
            "elevation": 146.9,
            "mindate": "1944-04-01",
            "maxdate": "2014-01-01",
            "latitude": 43.5984,
            "name": "BRISTOL, NH US",
            "datacoverage": 0.9616,
            "id": "COOP:270998",
            "elevationUnit": "METERS",
            "longitude": -71.7185
        },
        {
            "elevation": 179.8,
            "mindate": "1983-06-01",
            "maxdate": "1991-01-01",
            "latitude": 43.58333,
            "name": "BRISTOL 2, NH US",
            "datacoverage": 0.9885,
            "id": "COOP:271001",
            "elevationUnit": "METERS",
            "longitude": -71.73333
        },
        {
            "elevation": 430.1,
            "mindate": "1945-01-01",
            "maxdate": "1957-10-01",
            "latitude": 43.73333,
            "name": "BUCKS CORNER, NH US",
            "datacoverage": 0.9676,
            "id": "COOP:271048",
            "elevationUnit": "METERS",
            "longitude": -71.98333
        },
        {
            "elevation": 189,
            "mindate": "1942-08-01",
            "maxdate": "1968-12-01",
            "latitude": 43.85,
            "name": "CAMPTON, NH US",
            "datacoverage": 0.9809,
            "id": "COOP:271099",
            "elevationUnit": "METERS",
            "longitude": -71.63333
        },
        {
            "elevation": 1220.1,
            "mindate": "1952-07-01",
            "maxdate": "1972-12-01",
            "latitude": 44.16667,
            "name": "CANNON MOUNTAIN, NH US",
            "datacoverage": 0.9998,
            "id": "COOP:271187",
            "elevationUnit": "METERS",
            "longitude": -71.7
        },
        {
            "elevation": 274.9,
            "mindate": "1944-11-01",
            "maxdate": "1952-04-01",
            "latitude": 43.71667,
            "name": "CENTER HARBOR, NH US",
            "datacoverage": 0.9672,
            "id": "COOP:271338",
            "elevationUnit": "METERS",
            "longitude": -71.48333
        },
        {
            "elevation": 182.9,
            "mindate": "1952-05-01",
            "maxdate": "1973-11-01",
            "latitude": 43.73333,
            "name": "MOULTONBORO 5 WSW, NH US",
            "datacoverage": 0.9381,
            "id": "COOP:271339",
            "elevationUnit": "METERS",
            "longitude": -71.48333
        },
        {
            "elevation": 131.1,
            "mindate": "1947-10-01",
            "maxdate": "1973-06-01",
            "latitude": 43.36667,
            "name": "CLAREMONT JUNCTION, NH US",
            "datacoverage": 0.9612,
            "id": "COOP:271552",
            "elevationUnit": "METERS",
            "longitude": -72.38333
        },
        {
            "elevation": 488,
            "mindate": "1948-06-01",
            "maxdate": "1949-10-01",
            "latitude": 44.06667,
            "name": "CLEAR BROOK, NH US",
            "datacoverage": 0.235,
            "id": "COOP:271590",
            "elevationUnit": "METERS",
            "longitude": -71.63333
        },
        {
            "elevation": 341.4,
            "mindate": "1960-07-01",
            "maxdate": "2015-11-01",
            "latitude": 44.86102,
            "name": "COLEBROOK 3 SW, NH US",
            "datacoverage": 0.9383,
            "id": "COOP:271647",
            "elevationUnit": "METERS",
            "longitude": -71.53921
        },
        {
            "elevation": 298.7,
            "mindate": "1997-10-01",
            "maxdate": "1999-02-26",
            "latitude": 44.78972,
            "name": "COLUMBIA, NH US",
            "datacoverage": 0.9438,
            "id": "COOP:271662",
            "elevationUnit": "METERS",
            "longitude": -71.57167
        },
        {
            "elevation": 104.5,
            "mindate": "1948-05-01",
            "maxdate": "2015-11-01",
            "latitude": 43.2049,
            "name": "CONCORD ASOS, NH US",
            "datacoverage": 0.9988,
            "id": "COOP:271683",
            "elevationUnit": "METERS",
            "longitude": -71.50274
        },
        {
            "elevation": 146,
            "mindate": "1959-01-01",
            "maxdate": "1973-09-01",
            "latitude": 44,
            "name": "CONWAY 1 N, NH US",
            "datacoverage": 1,
            "id": "COOP:271732",
            "elevationUnit": "METERS",
            "longitude": -71.11667
        },
        {
            "elevation": 259.1,
            "mindate": "1978-05-01",
            "maxdate": "1985-03-01",
            "latitude": 43.5,
            "name": "CORNISH FLAT, NH US",
            "datacoverage": 0.8552,
            "id": "COOP:271797",
            "elevationUnit": "METERS",
            "longitude": -72.28333
        },
        {
            "elevation": 325.2,
            "mindate": "1976-05-01",
            "maxdate": "2004-10-01",
            "latitude": 43.09083,
            "name": "DEERING, NH US",
            "datacoverage": 0.9999,
            "id": "COOP:271950",
            "elevationUnit": "METERS",
            "longitude": -71.86778
        },
        {
            "elevation": 91.4,
            "mindate": "2004-03-01",
            "maxdate": "2007-04-01",
            "latitude": 42.8661,
            "name": "DERRY, NH US",
            "datacoverage": 0.9742,
            "id": "COOP:271960",
            "elevationUnit": "METERS",
            "longitude": -71.3247
        },
        {
            "elevation": 670.6,
            "mindate": "1997-12-01",
            "maxdate": "2011-12-01",
            "latitude": 44.9541,
            "name": "DIAMOND POND, NH US",
            "datacoverage": 1,
            "id": "COOP:271968",
            "elevationUnit": "METERS",
            "longitude": -71.3205
        },
        {
            "elevation": 515.1,
            "mindate": "1931-01-01",
            "maxdate": "2011-12-01",
            "latitude": 44.86889,
            "name": "DIXVILLE NOTCH, NH US",
            "datacoverage": 0.8549,
            "id": "COOP:272023",
            "elevationUnit": "METERS",
            "longitude": -71.32472
        },
        {
            "elevation": 454.2,
            "mindate": "1944-11-01",
            "maxdate": "1976-06-01",
            "latitude": 42.91667,
            "name": "DUBLIN, NH US",
            "datacoverage": 0.9922,
            "id": "COOP:272136",
            "elevationUnit": "METERS",
            "longitude": -72.06667
        },
        {
            "elevation": 22.9,
            "mindate": "1931-01-01",
            "maxdate": "2015-11-01",
            "latitude": 43.1432,
            "name": "DURHAM, NH US",
            "datacoverage": 0.9951,
            "id": "COOP:272174",
            "elevationUnit": "METERS",
            "longitude": -70.9501
        },
        {
            "elevation": 241.1,
            "mindate": "1948-06-01",
            "maxdate": "1976-06-01",
            "latitude": 43.06667,
            "name": "EAST DEERING, NH US",
            "datacoverage": 0.9911,
            "id": "COOP:272284",
            "elevationUnit": "METERS",
            "longitude": -71.81667
        },
        {
            "elevation": 164.6,
            "mindate": "1997-03-01",
            "maxdate": "1997-07-01",
            "latitude": 42.88333,
            "name": "EAST DERRY, NH US",
            "datacoverage": 0.9947,
            "id": "COOP:272290",
            "elevationUnit": "METERS",
            "longitude": -71.26667
        },
        {
            "elevation": 73.2,
            "mindate": "2008-07-01",
            "maxdate": "2015-11-01",
            "latitude": 42.8266,
            "name": "EAST MILFORD, NH US",
            "datacoverage": 1,
            "id": "COOP:272302",
            "elevationUnit": "METERS",
            "longitude": -71.626
        },
        {
            "elevation": 134.1,
            "mindate": "1940-08-01",
            "maxdate": "1960-01-01",
            "latitude": 43.45,
            "name": "WEBSTER SUBSTN, NH US",
            "datacoverage": 0.9956,
            "id": "COOP:272427",
            "elevationUnit": "METERS",
            "longitude": -71.68333
        },
        {
            "elevation": 48.8,
            "mindate": "1963-11-01",
            "maxdate": "2015-11-01",
            "latitude": 43.0302,
            "name": "EPPING, NH US",
            "datacoverage": 0.9856,
            "id": "COOP:272800",
            "elevationUnit": "METERS",
            "longitude": -71.0838
        },
        {
            "elevation": 387.1,
            "mindate": "1931-01-01",
            "maxdate": "2014-01-01",
            "latitude": 44.7888,
            "name": "ERROL, NH US",
            "datacoverage": 0.9898,
            "id": "COOP:272842",
            "elevationUnit": "METERS",
            "longitude": -71.123
        },
        {
            "elevation": 378,
            "mindate": "2015-01-01",
            "maxdate": "2015-11-01",
            "latitude": 44.7925,
            "name": "ERROL AIRPORT, NH US",
            "datacoverage": 1,
            "id": "COOP:272846",
            "elevationUnit": "METERS",
            "longitude": -71.1634
        },
        {
            "elevation": 132.6,
            "mindate": "1963-06-01",
            "maxdate": "1986-11-01",
            "latitude": 43.1,
            "name": "EVERETT LAKE, NH US",
            "datacoverage": 0.0837,
            "id": "COOP:272870",
            "elevationUnit": "METERS",
            "longitude": -71.65
        },
        {
            "elevation": 502.9,
            "mindate": "1946-08-01",
            "maxdate": "1970-07-01",
            "latitude": 44.26667,
            "name": "BRETTON WOODS, NH US",
            "datacoverage": 0.8924,
            "id": "COOP:272898",
            "elevationUnit": "METERS",
            "longitude": -71.45
        },
        {
            "elevation": 502.9,
            "mindate": "1931-01-01",
            "maxdate": "2015-11-01",
            "latitude": 45.0899,
            "name": "FIRST CONNECTICUT LAKE, NH US",
            "datacoverage": 0.999,
            "id": "COOP:272999",
            "elevationUnit": "METERS",
            "longitude": -71.2906
        },
        {
            "elevation": 362.7,
            "mindate": "1931-01-01",
            "maxdate": "2013-12-01",
            "latitude": 42.7798,
            "name": "FITZWILLIAM 2 W, NH US",
            "datacoverage": 0.9307,
            "id": "COOP:273024",
            "elevationUnit": "METERS",
            "longitude": -72.1788
        },
        {
            "elevation": 415.1,
            "mindate": "1941-10-01",
            "maxdate": "1949-07-01",
            "latitude": 42.78333,
            "name": "FITZWILLIAM, NH US",
            "datacoverage": 0.8617,
            "id": "COOP:273029",
            "elevationUnit": "METERS",
            "longitude": -72.15
        },
        {
            "elevation": 228.6,
            "mindate": "2008-07-01",
            "maxdate": "2014-12-01",
            "latitude": 42.9849,
            "name": "FRANCESTOWN, NH US",
            "datacoverage": 0.9996,
            "id": "COOP:273055",
            "elevationUnit": "METERS",
            "longitude": -71.796
        },
        {
            "elevation": 287.4,
            "mindate": "1949-10-01",
            "maxdate": "1981-12-01",
            "latitude": 44.23333,
            "name": "FRANCONIA, NH US",
            "datacoverage": 0.0232,
            "id": "COOP:273160",
            "elevationUnit": "METERS",
            "longitude": -71.75
        },
        {
            "elevation": 118.9,
            "mindate": "1931-01-01",
            "maxdate": "1971-06-01",
            "latitude": 43.45,
            "name": "FRANKLIN, NH US",
            "datacoverage": 0.998,
            "id": "COOP:273177",
            "elevationUnit": "METERS",
            "longitude": -71.66667
        },
        {
            "elevation": 137.2,
            "mindate": "1948-05-01",
            "maxdate": "2015-11-01",
            "latitude": 43.4703,
            "name": "FRANKLIN FALLS DAM, NH US",
            "datacoverage": 0.6803,
            "id": "COOP:273182",
            "elevationUnit": "METERS",
            "longitude": -71.6537
        },
        {
            "elevation": 313.9,
            "mindate": "1944-11-01",
            "maxdate": "1964-06-01",
            "latitude": 43.45,
            "name": "GILMANTON, NH US",
            "datacoverage": 0.9747,
            "id": "COOP:273359",
            "elevationUnit": "METERS",
            "longitude": -71.41667
        },
        {
            "elevation": 244.1,
            "mindate": "1964-08-01",
            "maxdate": "1976-06-01",
            "latitude": 43.43333,
            "name": "GILMANTON 2 E, NH US",
            "datacoverage": 1,
            "id": "COOP:273367",
            "elevationUnit": "METERS",
            "longitude": -71.36667
        },
        {
            "elevation": 502.9,
            "mindate": "1931-01-01",
            "maxdate": "1954-04-01",
            "latitude": 43.98333,
            "name": "GLENCLIFF, NH US",
            "datacoverage": 0.9716,
            "id": "COOP:273409",
            "elevationUnit": "METERS",
            "longitude": -71.9
        },
        {
            "elevation": 329.2,
            "mindate": "1978-05-01",
            "maxdate": "2011-12-01",
            "latitude": 43.9847,
            "name": "GLENCLIFF 2, NH US",
            "datacoverage": 0.985,
            "id": "COOP:273415",
            "elevationUnit": "METERS",
            "longitude": -71.8947
        },
        {
            "elevation": 281,
            "mindate": "1948-05-01",
            "maxdate": "1951-10-29",
            "latitude": 44.38333,
            "name": "GORHAM, NH US",
            "datacoverage": 0.9744,
            "id": "COOP:273485",
            "elevationUnit": "METERS",
            "longitude": -71.18333
        },
        {
            "elevation": 335.3,
            "mindate": "2003-09-01",
            "maxdate": "2003-12-01",
            "latitude": 44.39028,
            "name": "GORHAM 2, NH US",
            "datacoverage": 0.998,
            "id": "COOP:273486",
            "elevationUnit": "METERS",
            "longitude": -71.22694
        },
        {
            "elevation": 249.9,
            "mindate": "2005-04-01",
            "maxdate": "2012-12-01",
            "latitude": 44.3863,
            "name": "GORHAM 3, NH US",
            "datacoverage": 0.9995,
            "id": "COOP:273487",
            "elevationUnit": "METERS",
            "longitude": -71.1802
        },
        {
            "elevation": 253,
            "mindate": "1955-01-01",
            "maxdate": "2004-06-01",
            "latitude": 43.56667,
            "name": "GRAFTON, NH US",
            "datacoverage": 0.9664,
            "id": "COOP:273530",
            "elevationUnit": "METERS",
            "longitude": -71.95
        },
        {
            "elevation": 29,
            "mindate": "1973-06-01",
            "maxdate": "2014-12-01",
            "latitude": 43.021,
            "name": "GREENLAND, NH US",
            "datacoverage": 0.9959,
            "id": "COOP:273626",
            "elevationUnit": "METERS",
            "longitude": -70.8257
        },
        {
            "elevation": 267.9,
            "mindate": "1955-12-01",
            "maxdate": "1971-04-01",
            "latitude": 42.78333,
            "name": "GREENVILLE, NH US",
            "datacoverage": 0.9839,
            "id": "COOP:273656",
            "elevationUnit": "METERS",
            "longitude": -71.81667
        },
        {
            "elevation": 274.3,
            "mindate": "1992-05-01",
            "maxdate": "2015-11-01",
            "latitude": 42.78273,
            "name": "GREENVILLE 1 NNE, NH US",
            "datacoverage": 0.9682,
            "id": "COOP:273658",
            "elevationUnit": "METERS",
            "longitude": -71.79853
        },
        {
            "elevation": 320,
            "mindate": "1971-05-01",
            "maxdate": "1988-05-01",
            "latitude": 42.76667,
            "name": "GREENVILLE 2 NNE, NH US",
            "datacoverage": 0.8827,
            "id": "COOP:273660",
            "elevationUnit": "METERS",
            "longitude": -71.78333
        },
        {
            "elevation": 217,
            "mindate": "1940-01-01",
            "maxdate": "1948-10-01",
            "latitude": 42.78333,
            "name": "GREENVILLE 1 NW, NH US",
            "datacoverage": 0.9432,
            "id": "COOP:273661",
            "elevationUnit": "METERS",
            "longitude": -71.8
        },
        {
            "elevation": 3,
            "mindate": "1931-01-01",
            "maxdate": "1945-11-01",
            "latitude": 42.91845,
            "name": "HAMPTON, NH US",
            "datacoverage": 0.9274,
            "id": "COOP:273800",
            "elevationUnit": "METERS",
            "longitude": -70.79971
        },
        {
            "elevation": 227.1,
            "mindate": "2014-01-01",
            "maxdate": "2015-11-01",
            "latitude": 42.9694,
            "name": "HANCOCK, NH US",
            "datacoverage": 1,
            "id": "COOP:273825",
            "elevationUnit": "METERS",
            "longitude": -71.9529
        },
        {
            "elevation": 178,
            "mindate": "1931-01-01",
            "maxdate": "2015-11-01",
            "latitude": 43.7052,
            "name": "HANOVER, NH US",
            "datacoverage": 0.9941,
            "id": "COOP:273850",
            "elevationUnit": "METERS",
            "longitude": -72.2855
        },
        {
            "elevation": 256,
            "mindate": "1948-01-01",
            "maxdate": "1949-10-01",
            "latitude": 43.1,
            "name": "HILLSBORO, NH US",
            "datacoverage": 0.9086,
            "id": "COOP:274057",
            "elevationUnit": "METERS",
            "longitude": -71.95
        },
        {
            "elevation": 247.5,
            "mindate": "1936-04-01",
            "maxdate": "1943-07-01",
            "latitude": 43.15,
            "name": "HILLSBORO, NH US",
            "datacoverage": 0.8638,
            "id": "COOP:274059",
            "elevationUnit": "METERS",
            "longitude": -71.916667
        },
        {
            "elevation": 182.9,
            "mindate": "1948-06-01",
            "maxdate": "1979-05-01",
            "latitude": 43.11667,
            "name": "HILLSBORO 2 W, NH US",
            "datacoverage": 0.9254,
            "id": "COOP:274062",
            "elevationUnit": "METERS",
            "longitude": -71.93333
        },
        {
            "elevation": 131.1,
            "mindate": "1963-06-01",
            "maxdate": "2015-11-01",
            "latitude": 43.189,
            "name": "HOPKINTON LAKE, NH US",
            "datacoverage": 1,
            "id": "COOP:274218",
            "elevationUnit": "METERS",
            "longitude": -71.746
        },
        {
            "elevation": 56.4,
            "mindate": "1950-09-01",
            "maxdate": "2015-11-01",
            "latitude": 42.783,
            "name": "HUDSON 1 SSE, NH US",
            "datacoverage": 0.1427,
            "id": "COOP:274234",
            "elevationUnit": "METERS",
            "longitude": -71.4148
        },
        {
            "elevation": 329.2,
            "mindate": "1993-04-01",
            "maxdate": "1996-12-01",
            "latitude": 42.8,
            "name": "JAFFREY, NH US",
            "datacoverage": 0.9768,
            "id": "COOP:274303",
            "elevationUnit": "METERS",
            "longitude": -72.01667
        },
        {
            "elevation": 313.9,
            "mindate": "2011-01-01",
            "maxdate": "2015-11-01",
            "latitude": 42.8088,
            "name": "JAFFREY SILVER RANCH AIRPARK, NH US",
            "datacoverage": 1,
            "id": "COOP:274304",
            "elevationUnit": "METERS",
            "longitude": -72.0053
        },
        {
            "elevation": 442,
            "mindate": "1940-10-01",
            "maxdate": "1961-05-01",
            "latitude": 44.4,
            "name": "JEFFERSON, NH US",
            "datacoverage": 0.9033,
            "id": "COOP:274314",
            "elevationUnit": "METERS",
            "longitude": -71.45
        },
        {
            "elevation": 426.7,
            "mindate": "1996-01-01",
            "maxdate": "1996-06-01",
            "latitude": 44.35,
            "name": "JEFFERSON NUMBER 2, NH US",
            "datacoverage": 1,
            "id": "COOP:274318",
            "elevationUnit": "METERS",
            "longitude": -71.5
        },
        {
            "elevation": 427,
            "mindate": "1967-09-01",
            "maxdate": "1976-10-01",
            "latitude": 44.35,
            "name": "JEFFERSON 5 SSW, NH US",
            "datacoverage": 0.9997,
            "id": "COOP:274321",
            "elevationUnit": "METERS",
            "longitude": -71.51667
        },
        {
            "elevation": 376.4,
            "mindate": "1963-08-01",
            "maxdate": "2015-11-01",
            "latitude": 44.4169,
            "name": "JEFFERSON, NH US",
            "datacoverage": 0.7388,
            "id": "COOP:274329",
            "elevationUnit": "METERS",
            "longitude": -71.5008
        },
        {
            "elevation": 155.8,
            "mindate": "1931-01-01",
            "maxdate": "2015-11-01",
            "latitude": 42.939,
            "name": "KEENE, NH US",
            "datacoverage": 0.9843,
            "id": "COOP:274399",
            "elevationUnit": "METERS",
            "longitude": -72.3247
        },
        {
            "elevation": 170.7,
            "mindate": "1938-08-01",
            "maxdate": "1982-06-01",
            "latitude": 43.55,
            "name": "LAKEPORT, NH US",
            "datacoverage": 0.9943,
            "id": "COOP:274475",
            "elevationUnit": "METERS",
            "longitude": -71.46667
        },
        {
            "elevation": 152.4,
            "mindate": "1931-01-01",
            "maxdate": "2015-11-01",
            "latitude": 43.54914,
            "name": "LAKEPORT 2, NH US",
            "datacoverage": 0.9323,
            "id": "COOP:274480",
            "elevationUnit": "METERS",
            "longitude": -71.46456
        },
        {
            "elevation": 262.1,
            "mindate": "1931-01-01",
            "maxdate": "2015-11-01",
            "latitude": 44.49576,
            "name": "LANCASTER, NH US",
            "datacoverage": 0.898,
            "id": "COOP:274556",
            "elevationUnit": "METERS",
            "longitude": -71.57668
        },
        {
            "elevation": 320,
            "mindate": "1948-05-01",
            "maxdate": "1969-06-01",
            "latitude": 44.16667,
            "name": "LANDAFF, NH US",
            "datacoverage": 0.9004,
            "id": "COOP:274568",
            "elevationUnit": "METERS",
            "longitude": -71.88333
        },
        {
            "elevation": 216.1,
            "mindate": "1969-05-01",
            "maxdate": "1984-03-01",
            "latitude": 44.18333,
            "name": "LANDAFF 2, NH US",
            "datacoverage": 0.0502,
            "id": "COOP:274570",
            "elevationUnit": "METERS",
            "longitude": -71.93333
        },
        {
            "elevation": 182.3,
            "mindate": "1943-08-01",
            "maxdate": "1989-07-01",
            "latitude": 43.62639,
            "name": "LEBANON MUNICIPAL AIRPORT, NH US",
            "datacoverage": 0.9637,
            "id": "COOP:274656",
            "elevationUnit": "METERS",
            "longitude": -72.30472
        },
        {
            "elevation": 266.7,
            "mindate": "1931-01-01",
            "maxdate": "2004-05-01",
            "latitude": 44.05,
            "name": "LINCOLN, NH US",
            "datacoverage": 0.9809,
            "id": "COOP:274732",
            "elevationUnit": "METERS",
            "longitude": -71.66667
        },
        {
            "elevation": 246,
            "mindate": "2015-01-01",
            "maxdate": "2015-11-01",
            "latitude": 44.0425,
            "name": "LINCOLN NEPP, NH US",
            "datacoverage": 1,
            "id": "COOP:274734",
            "elevationUnit": "METERS",
            "longitude": -71.6727
        },
        {
            "elevation": 211.8,
            "mindate": "1998-09-01",
            "maxdate": "2014-01-01",
            "latitude": 44.28137,
            "name": "LITTLETON 4, NH US",
            "datacoverage": 0.0235,
            "id": "COOP:274806",
            "elevationUnit": "METERS",
            "longitude": -71.80725
        },
        {
            "elevation": 272.8,
            "mindate": "1984-06-01",
            "maxdate": "1998-08-01",
            "latitude": 44.31667,
            "name": "LITTLETON 3 NW, NH US",
            "datacoverage": 0.0301,
            "id": "COOP:274808",
            "elevationUnit": "METERS",
            "longitude": -71.85
        },
        {
            "elevation": 295.7,
            "mindate": "1950-07-01",
            "maxdate": "2006-05-01",
            "latitude": 42.8941,
            "name": "EDWARD MACDOWELL LAKE, NH US",
            "datacoverage": 0.9919,
            "id": "COOP:275013",
            "elevationUnit": "METERS",
            "longitude": -71.9842
        },
        {
            "elevation": 64,
            "mindate": "1931-01-01",
            "maxdate": "1999-03-01",
            "latitude": 43.03333,
            "name": "MANCHESTER, NH US",
            "datacoverage": 0.6435,
            "id": "COOP:275072",
            "elevationUnit": "METERS",
            "longitude": -71.48333
        },
        {
            "elevation": 359.7,
            "mindate": "1941-06-01",
            "maxdate": "2011-12-01",
            "latitude": 43.1175,
            "name": "MARLOW, NH US",
            "datacoverage": 0.8678,
            "id": "COOP:275150",
            "elevationUnit": "METERS",
            "longitude": -72.2004
        },
        {
            "elevation": 274.3,
            "mindate": "1988-09-01",
            "maxdate": "1991-05-01",
            "latitude": 42.78273,
            "name": "GREENVILLE 1 NNE, NH US",
            "datacoverage": 0.9407,
            "id": "COOP:275196",
            "elevationUnit": "METERS",
            "longitude": -71.79853
        },
        {
            "elevation": 77.1,
            "mindate": "1940-12-01",
            "maxdate": "2015-11-01",
            "latitude": 42.9891,
            "name": "MASSABESIC LAKE, NH US",
            "datacoverage": 0.9867,
            "id": "COOP:275211",
            "elevationUnit": "METERS",
            "longitude": -71.3932
        },
        {
            "elevation": 262.4,
            "mindate": "1994-02-01",
            "maxdate": "2015-11-01",
            "latitude": 43.69307,
            "name": "MEREDITH 3 NNE, NH US",
            "datacoverage": 1,
            "id": "COOP:275350",
            "elevationUnit": "METERS",
            "longitude": -71.47342
        },
        {
            "elevation": 296,
            "mindate": "1944-06-01",
            "maxdate": "1957-09-01",
            "latitude": 43.55,
            "name": "MERIDEN, NH US",
            "datacoverage": 0.7813,
            "id": "COOP:275362",
            "elevationUnit": "METERS",
            "longitude": -72.26667
        },
        {
            "elevation": 73.2,
            "mindate": "1991-09-01",
            "maxdate": "1994-08-01",
            "latitude": 42.85,
            "name": "MERRIMACK, NH US",
            "datacoverage": 0.9998,
            "id": "COOP:275371",
            "elevationUnit": "METERS",
            "longitude": -71.55
        },
        {
            "elevation": 360,
            "mindate": "1931-01-01",
            "maxdate": "1981-12-01",
            "latitude": 44.66667,
            "name": "MILAN 7 NNW, NH US",
            "datacoverage": 0.9902,
            "id": "COOP:275400",
            "elevationUnit": "METERS",
            "longitude": -71.21667
        },
        {
            "elevation": 97.5,
            "mindate": "1944-11-01",
            "maxdate": "2008-05-01",
            "latitude": 42.83944,
            "name": "MILFORD, NH US",
            "datacoverage": 0.9542,
            "id": "COOP:275412",
            "elevationUnit": "METERS",
            "longitude": -71.64861
        },
        {
            "elevation": 201.2,
            "mindate": "1931-01-01",
            "maxdate": "1998-08-01",
            "latitude": 44.31667,
            "name": "MONROE 5 NNE, NH US",
            "datacoverage": 0.7586,
            "id": "COOP:275500",
            "elevationUnit": "METERS",
            "longitude": -72
        },
        {
            "elevation": 182.9,
            "mindate": "1973-12-01",
            "maxdate": "1993-11-01",
            "latitude": 43.73333,
            "name": "MOULTONBORO 5 WSW, NH US",
            "datacoverage": 1,
            "id": "COOP:275532",
            "elevationUnit": "METERS",
            "longitude": -71.48333
        },
        {
            "elevation": 388.6,
            "mindate": "1957-10-01",
            "maxdate": "2014-12-01",
            "latitude": 43.3325,
            "name": "MOUNT SUNAPEE, NH US",
            "datacoverage": 0.9869,
            "id": "COOP:275629",
            "elevationUnit": "METERS",
            "longitude": -72.0791
        },
        {
            "elevation": 1911.7,
            "mindate": "1948-01-01",
            "maxdate": "2015-11-01",
            "latitude": 44.27018,
            "name": "MOUNT WASHINGTON, NH US",
            "datacoverage": 1,
            "id": "COOP:275639",
            "elevationUnit": "METERS",
            "longitude": -71.30336
        },
        {
            "elevation": 54.9,
            "mindate": "2014-01-01",
            "maxdate": "2015-11-01",
            "latitude": 42.7346,
            "name": "NASHUA CWSU, NH US",
            "datacoverage": 1,
            "id": "COOP:275703",
            "elevationUnit": "METERS",
            "longitude": -71.4802
        },
        {
            "elevation": 57.3,
            "mindate": "1972-12-01",
            "maxdate": "1985-03-01",
            "latitude": 42.78333,
            "name": "NASHUA 2, NH US",
            "datacoverage": 0.0496,
            "id": "COOP:275705",
            "elevationUnit": "METERS",
            "longitude": -71.5
        },
        {
            "elevation": 41.1,
            "mindate": "1931-01-01",
            "maxdate": "2015-11-01",
            "latitude": 42.7913,
            "name": "NASHUA 2 NNW, NH US",
            "datacoverage": 0.9853,
            "id": "COOP:275712",
            "elevationUnit": "METERS",
            "longitude": -71.4735
        },
        {
            "elevation": 463.9,
            "mindate": "1948-06-01",
            "maxdate": "1951-10-01",
            "latitude": 42.98333,
            "name": "NELSON, NH US",
            "datacoverage": 0.9756,
            "id": "COOP:275730",
            "elevationUnit": "METERS",
            "longitude": -72.13333
        },
        {
            "elevation": 4.3,
            "mindate": "1943-11-01",
            "maxdate": "1954-03-01",
            "latitude": 43.06667,
            "name": "NEW CASTLE, NH US",
            "datacoverage": 0.8001,
            "id": "COOP:275768",
            "elevationUnit": "METERS",
            "longitude": -70.716667
        },
        {
            "elevation": 195.1,
            "mindate": "1931-01-01",
            "maxdate": "2014-01-01",
            "latitude": 43.47576,
            "name": "NEW DURHAM 3 NNW, NH US",
            "datacoverage": 0.9507,
            "id": "COOP:275780",
            "elevationUnit": "METERS",
            "longitude": -71.17884
        },
        {
            "elevation": 201.2,
            "mindate": "1993-07-01",
            "maxdate": "2006-06-01",
            "latitude": 43.5,
            "name": "NEW DURHAM 4 N, NH US",
            "datacoverage": 0.8847,
            "id": "COOP:275783",
            "elevationUnit": "METERS",
            "longitude": -71.15
        },
        {
            "elevation": 213.4,
            "mindate": "1998-09-01",
            "maxdate": "2005-08-01",
            "latitude": 43.6,
            "name": "NEW HAMPTON, NH US",
            "datacoverage": 0.9999,
            "id": "COOP:275813",
            "elevationUnit": "METERS",
            "longitude": -71.63111
        },
        {
            "elevation": 396.2,
            "mindate": "2012-01-01",
            "maxdate": "2012-12-01",
            "latitude": 42.7701,
            "name": "NEW IPSWICH, NH US",
            "datacoverage": 0.998,
            "id": "COOP:275820",
            "elevationUnit": "METERS",
            "longitude": -71.9226
        },
        {
            "elevation": 390.1,
            "mindate": "1947-01-01",
            "maxdate": "1957-05-01",
            "latitude": 43.41667,
            "name": "NEW LONDON, NH US",
            "datacoverage": 0.8241,
            "id": "COOP:275843",
            "elevationUnit": "METERS",
            "longitude": -72.01667
        },
        {
            "elevation": 234.7,
            "mindate": "1931-01-01",
            "maxdate": "2015-11-01",
            "latitude": 43.3772,
            "name": "NEWPORT, NH US",
            "datacoverage": 0.9932,
            "id": "COOP:275868",
            "elevationUnit": "METERS",
            "longitude": -72.1812
        },
        {
            "elevation": 110,
            "mindate": "1944-09-01",
            "maxdate": "1961-03-01",
            "latitude": 43.25,
            "name": "NORTH CHICHESTER, NH US",
            "datacoverage": 0.7539,
            "id": "COOP:275982",
            "elevationUnit": "METERS",
            "longitude": -71.38333
        },
        {
            "elevation": 159.1,
            "mindate": "1974-01-01",
            "maxdate": "2015-11-01",
            "latitude": 44.0562,
            "name": "NORTH CONWAY, NH US",
            "datacoverage": 0.9961,
            "id": "COOP:275995",
            "elevationUnit": "METERS",
            "longitude": -71.1297
        },
        {
            "elevation": 393.2,
            "mindate": "1989-06-01",
            "maxdate": "1999-09-01",
            "latitude": 43.76111,
            "name": "NORTH GROTON, NH US",
            "datacoverage": 0.7339,
            "id": "COOP:276055",
            "elevationUnit": "METERS",
            "longitude": -71.87139
        },
        {
            "elevation": 18.3,
            "mindate": "2003-09-01",
            "maxdate": "2015-11-01",
            "latitude": 42.9588,
            "name": "NORTH HAMPTON, NH US",
            "datacoverage": 0.9933,
            "id": "COOP:276070",
            "elevationUnit": "METERS",
            "longitude": -70.8227
        },
        {
            "elevation": 289.6,
            "mindate": "1936-10-01",
            "maxdate": "2015-11-01",
            "latitude": 44.68199,
            "name": "NORTH STRATFORD, NH US",
            "datacoverage": 0.78,
            "id": "COOP:276234",
            "elevationUnit": "METERS",
            "longitude": -71.58575
        },
        {
            "elevation": 214,
            "mindate": "1942-08-01",
            "maxdate": "1953-09-01",
            "latitude": 42.93333,
            "name": "NORTH VILLAGE, NH US",
            "datacoverage": 0.9551,
            "id": "COOP:276302",
            "elevationUnit": "METERS",
            "longitude": -71.91667
        },
        {
            "elevation": 164.9,
            "mindate": "1956-01-01",
            "maxdate": "1975-07-01",
            "latitude": 43.2,
            "name": "NORTHWOOD, NH US",
            "datacoverage": 0.8426,
            "id": "COOP:276368",
            "elevationUnit": "METERS",
            "longitude": -71.15
        },
        {
            "elevation": 241.1,
            "mindate": "1970-10-01",
            "maxdate": "1971-06-01",
            "latitude": 43.23333,
            "name": "NORTHWOOD CENTER, NH US",
            "datacoverage": 1,
            "id": "COOP:276390",
            "elevationUnit": "METERS",
            "longitude": -71.18333
        },
        {
            "elevation": 207.3,
            "mindate": "1958-09-01",
            "maxdate": "2008-05-01",
            "latitude": 42.9453,
            "name": "OTTER BROOK LAKE, NH US",
            "datacoverage": 0.6846,
            "id": "COOP:276550",
            "elevationUnit": "METERS",
            "longitude": -72.237
        },
        {
            "elevation": 310.9,
            "mindate": "1948-06-01",
            "maxdate": "1994-11-01",
            "latitude": 42.85,
            "name": "PETERBORO 2 S, NH US",
            "datacoverage": 0.9391,
            "id": "COOP:276697",
            "elevationUnit": "METERS",
            "longitude": -71.95
        },
        {
            "elevation": 426.7,
            "mindate": "2012-01-01",
            "maxdate": "2015-11-01",
            "latitude": 44.0626,
            "name": "PIKE 4 NE, NH US",
            "datacoverage": 0.9578,
            "id": "COOP:276800",
            "elevationUnit": "METERS",
            "longitude": -71.9497
        },
        {
            "elevation": 617.2,
            "mindate": "1931-01-01",
            "maxdate": "2015-11-01",
            "latitude": 44.258,
            "name": "PINKHAM NOTCH, NH US",
            "datacoverage": 0.9961,
            "id": "COOP:276818",
            "elevationUnit": "METERS",
            "longitude": -71.2525
        },
        {
            "elevation": 405.4,
            "mindate": "1948-05-01",
            "maxdate": "2014-01-01",
            "latitude": 45.04693,
            "name": "PITTSBURG RESERVOIR, NH US",
            "datacoverage": 0.9754,
            "id": "COOP:276856",
            "elevationUnit": "METERS",
            "longitude": -71.38301
        },
        {
            "elevation": 153,
            "mindate": "1931-01-01",
            "maxdate": "1951-03-01",
            "latitude": 43.75,
            "name": "PLYMOUTH, NH US",
            "datacoverage": 0.9796,
            "id": "COOP:276944",
            "elevationUnit": "METERS",
            "longitude": -71.68333
        },
        {
            "elevation": 201.2,
            "mindate": "1951-06-01",
            "maxdate": "2007-06-01",
            "latitude": 43.78333,
            "name": "PLYMOUTH, NH US",
            "datacoverage": 0.9896,
            "id": "COOP:276945",
            "elevationUnit": "METERS",
            "longitude": -71.65
        },
        {
            "elevation": 198.1,
            "mindate": "1948-06-01",
            "maxdate": "1949-03-01",
            "latitude": 43.76667,
            "name": "PLYMOUTH 1 SW, NH US",
            "datacoverage": 1,
            "id": "COOP:276949",
            "elevationUnit": "METERS",
            "longitude": -71.68333
        },
        {
            "elevation": 18,
            "mindate": "1954-05-01",
            "maxdate": "1973-06-01",
            "latitude": 43.06667,
            "name": "PORTSMOUTH, NH US",
            "datacoverage": 0.9912,
            "id": "COOP:276980",
            "elevationUnit": "METERS",
            "longitude": -70.71667
        },
        {
            "elevation": 381,
            "mindate": "1940-05-01",
            "maxdate": "1949-09-01",
            "latitude": 44.36667,
            "name": "RANDOLPH, NH US",
            "datacoverage": 0.991,
            "id": "COOP:277088",
            "elevationUnit": "METERS",
            "longitude": -71.31667
        },
        {
            "elevation": 70.1,
            "mindate": "1989-10-01",
            "maxdate": "2011-12-01",
            "latitude": 43.3002,
            "name": "ROCHESTER, NH US",
            "datacoverage": 1,
            "id": "COOP:277253",
            "elevationUnit": "METERS",
            "longitude": -70.9827
        },
        {
            "elevation": 155.4,
            "mindate": "1987-11-01",
            "maxdate": "1988-04-01",
            "latitude": 43.8,
            "name": "RUMNEY, NH US",
            "datacoverage": 1,
            "id": "COOP:277747",
            "elevationUnit": "METERS",
            "longitude": -71.81667
        },
        {
            "elevation": 167.6,
            "mindate": "1996-09-01",
            "maxdate": "2012-12-01",
            "latitude": 43.3544,
            "name": "SALISBURY, NH US",
            "datacoverage": 0.9927,
            "id": "COOP:277833",
            "elevationUnit": "METERS",
            "longitude": -71.7363
        },
        {
            "elevation": 284.1,
            "mindate": "1942-08-01",
            "maxdate": "1981-12-01",
            "latitude": 43.5,
            "name": "SOUTH DANBURY, NH US",
            "datacoverage": 0.9746,
            "id": "COOP:277967",
            "elevationUnit": "METERS",
            "longitude": -71.9
        },
        {
            "elevation": 198.1,
            "mindate": "1944-11-01",
            "maxdate": "1999-01-01",
            "latitude": 42.88333,
            "name": "SOUTH LYNDEBORO, NH US",
            "datacoverage": 0.9631,
            "id": "COOP:278081",
            "elevationUnit": "METERS",
            "longitude": -71.78333
        },
        {
            "elevation": 214,
            "mindate": "1948-06-01",
            "maxdate": "1969-09-01",
            "latitude": 43.05,
            "name": "SOUTH WEARE 1 SE, NH US",
            "datacoverage": 0.9493,
            "id": "COOP:278194",
            "elevationUnit": "METERS",
            "longitude": -71.71667
        },
        {
            "elevation": 427,
            "mindate": "1948-06-01",
            "maxdate": "1951-04-01",
            "latitude": 43.08333,
            "name": "STODDARD, NH US",
            "datacoverage": 1,
            "id": "COOP:278350",
            "elevationUnit": "METERS",
            "longitude": -72.11667
        },
        {
            "elevation": 313.9,
            "mindate": "1941-07-01",
            "maxdate": "1969-11-01",
            "latitude": 43.38333,
            "name": "SUNAPEE, NH US",
            "datacoverage": 0.9477,
            "id": "COOP:278502",
            "elevationUnit": "METERS",
            "longitude": -72.08333
        },
        {
            "elevation": 170.7,
            "mindate": "1948-05-01",
            "maxdate": "2008-05-01",
            "latitude": 42.99666,
            "name": "SURRY MOUNTAIN LAKE, NH US",
            "datacoverage": 0.7375,
            "id": "COOP:278539",
            "elevationUnit": "METERS",
            "longitude": -72.31275
        },
        {
            "elevation": 201.2,
            "mindate": "1954-04-01",
            "maxdate": "1956-12-01",
            "latitude": 43.86667,
            "name": "TAMWORTH, NH US",
            "datacoverage": 0.9682,
            "id": "COOP:278606",
            "elevationUnit": "METERS",
            "longitude": -71.26667
        },
        {
            "elevation": 153,
            "mindate": "1962-07-01",
            "maxdate": "1969-12-01",
            "latitude": 43.85,
            "name": "TAMWORTH 2, NH US",
            "datacoverage": 0.9883,
            "id": "COOP:278610",
            "elevationUnit": "METERS",
            "longitude": -71.26667
        },
        {
            "elevation": 240.8,
            "mindate": "1974-07-01",
            "maxdate": "2000-03-01",
            "latitude": 43.9,
            "name": "TAMWORTH 3, NH US",
            "datacoverage": 0.9967,
            "id": "COOP:278612",
            "elevationUnit": "METERS",
            "longitude": -71.3
        },
        {
            "elevation": 164.9,
            "mindate": "2000-11-01",
            "maxdate": "2015-11-01",
            "latitude": 43.86434,
            "name": "TAMWORTH 4, NH US",
            "datacoverage": 1,
            "id": "COOP:278614",
            "elevationUnit": "METERS",
            "longitude": -71.26628
        },
        {
            "elevation": 646.2,
            "mindate": "1948-06-01",
            "maxdate": "1949-10-01",
            "latitude": 43.983333,
            "name": "THORNTON GAP, NH US",
            "datacoverage": 0.1175,
            "id": "COOP:278678",
            "elevationUnit": "METERS",
            "longitude": -71.55
        },
        {
            "elevation": 305.1,
            "mindate": "1953-11-01",
            "maxdate": "1957-09-01",
            "latitude": 42.81667,
            "name": "TROY, NH US",
            "datacoverage": 0.8939,
            "id": "COOP:278741",
            "elevationUnit": "METERS",
            "longitude": -72.18333
        },
        {
            "elevation": 1158.8,
            "mindate": "1948-01-01",
            "maxdate": "1950-09-01",
            "latitude": 44.26667,
            "name": "TUCKERMAN RAVINE, NH US",
            "datacoverage": 0.8185,
            "id": "COOP:278754",
            "elevationUnit": "METERS",
            "longitude": -71.28333
        },
        {
            "elevation": 92,
            "mindate": "1939-01-01",
            "maxdate": "1952-02-01",
            "latitude": 43.05,
            "name": "WALPOLE 2, NH US",
            "datacoverage": 0.7217,
            "id": "COOP:278854",
            "elevationUnit": "METERS",
            "longitude": -72.45
        },
        {
            "elevation": 92,
            "mindate": "1952-06-01",
            "maxdate": "1979-03-01",
            "latitude": 43.05,
            "name": "WALPOLE 2, NH US",
            "datacoverage": 1,
            "id": "COOP:278855",
            "elevationUnit": "METERS",
            "longitude": -72.45
        },
        {
            "elevation": 283.5,
            "mindate": "1979-04-01",
            "maxdate": "2014-12-01",
            "latitude": 43.0739,
            "name": "WALPOLE 3, NH US",
            "datacoverage": 0.9906,
            "id": "COOP:278858",
            "elevationUnit": "METERS",
            "longitude": -72.4053
        },
        {
            "elevation": 216.4,
            "mindate": "1940-08-01",
            "maxdate": "2014-01-01",
            "latitude": 43.90994,
            "name": "WARREN, NH US",
            "datacoverage": 0.2402,
            "id": "COOP:278885",
            "elevationUnit": "METERS",
            "longitude": -71.88781
        },
        {
            "elevation": 458.1,
            "mindate": "1948-06-01",
            "maxdate": "1949-10-01",
            "latitude": 43.95,
            "name": "WATERVILLE VALLEY, NH US",
            "datacoverage": 0.235,
            "id": "COOP:278960",
            "elevationUnit": "METERS",
            "longitude": -71.5
        },
        {
            "elevation": 435.6,
            "mindate": "2015-01-01",
            "maxdate": "2015-11-01",
            "latitude": 43.9459,
            "name": "WATERVILLE VALLEY NEPP, NH US",
            "datacoverage": 1,
            "id": "COOP:278961",
            "elevationUnit": "METERS",
            "longitude": -71.511
        },
        {
            "elevation": 219.5,
            "mindate": "1969-07-01",
            "maxdate": "2005-12-01",
            "latitude": 43.0847,
            "name": "WEARE, NH US",
            "datacoverage": 0.9908,
            "id": "COOP:278972",
            "elevationUnit": "METERS",
            "longitude": -71.7383
        },
        {
            "elevation": 245.4,
            "mindate": "2012-01-01",
            "maxdate": "2015-11-01",
            "latitude": 43.099,
            "name": "WEARE 2 NE, NH US",
            "datacoverage": 1,
            "id": "COOP:278973",
            "elevationUnit": "METERS",
            "longitude": -71.7572
        },
        {
            "elevation": 137.2,
            "mindate": "1992-09-01",
            "maxdate": "1997-04-30",
            "latitude": 43.3,
            "name": "WEBSTER, NH US",
            "datacoverage": 0.9992,
            "id": "COOP:279045",
            "elevationUnit": "METERS",
            "longitude": -71.7
        },
        {
            "elevation": 134.1,
            "mindate": "1960-02-01",
            "maxdate": "1960-09-01",
            "latitude": 43.45,
            "name": "WEBSTER SUBSTN, NH US",
            "datacoverage": 1,
            "id": "COOP:279049",
            "elevationUnit": "METERS",
            "longitude": -71.68333
        },
        {
            "elevation": 287.1,
            "mindate": "1948-05-01",
            "maxdate": "1954-05-01",
            "latitude": 43.36667,
            "name": "WENDELL, NH US",
            "datacoverage": 0.944,
            "id": "COOP:279074",
            "elevationUnit": "METERS",
            "longitude": -72.11667
        },
        {
            "elevation": 199,
            "mindate": "1944-09-01",
            "maxdate": "2015-11-01",
            "latitude": 43.86687,
            "name": "WENTWORTH, NH US",
            "datacoverage": 0.3486,
            "id": "COOP:279091",
            "elevationUnit": "METERS",
            "longitude": -71.91652
        },
        {
            "elevation": 156.1,
            "mindate": "1950-07-01",
            "maxdate": "1951-10-01",
            "latitude": 43.55,
            "name": "WEST ALTON, NH US",
            "datacoverage": 0.5613,
            "id": "COOP:279104",
            "elevationUnit": "METERS",
            "longitude": -71.31667
        },
        {
            "elevation": 87.8,
            "mindate": "2006-12-01",
            "maxdate": "2015-11-01",
            "latitude": 42.91083,
            "name": "WEST HAMPSTEAD, NH US",
            "datacoverage": 1,
            "id": "COOP:279278",
            "elevationUnit": "METERS",
            "longitude": -71.20205
        },
        {
            "elevation": 153,
            "mindate": "1955-12-01",
            "maxdate": "1963-12-01",
            "latitude": 43.16667,
            "name": "WEST HENNIKER, NH US",
            "datacoverage": 0.9277,
            "id": "COOP:279291",
            "elevationUnit": "METERS",
            "longitude": -71.85
        },
        {
            "elevation": 115.8,
            "mindate": "1931-01-01",
            "maxdate": "1960-09-01",
            "latitude": 43.63333,
            "name": "WEST LEBANON, NH US",
            "datacoverage": 0.9888,
            "id": "COOP:279318",
            "elevationUnit": "METERS",
            "longitude": -72.31667
        },
        {
            "elevation": 155.4,
            "mindate": "1944-01-01",
            "maxdate": "1986-10-01",
            "latitude": 43.8,
            "name": "RUMNEY, NH US",
            "datacoverage": 1,
            "id": "COOP:279474",
            "elevationUnit": "METERS",
            "longitude": -71.81667
        },
        {
            "elevation": 328.9,
            "mindate": "1931-01-01",
            "maxdate": "1971-07-01",
            "latitude": 45,
            "name": "WEST STEWARTSTOWN, VT US",
            "datacoverage": 0.3922,
            "id": "COOP:279525",
            "elevationUnit": "METERS",
            "longitude": -71.53333
        },
        {
            "elevation": 396.8,
            "mindate": "1941-12-01",
            "maxdate": "1948-11-01",
            "latitude": 44.3,
            "name": "WHITEFIELD, NH US",
            "datacoverage": 0.5833,
            "id": "COOP:279613",
            "elevationUnit": "METERS",
            "longitude": -71.55
        },
        {
            "elevation": 331.9,
            "mindate": "1949-02-01",
            "maxdate": "1972-01-01",
            "latitude": 44.38333,
            "name": "WHITEFIELD, NH US",
            "datacoverage": 0.9711,
            "id": "COOP:279618",
            "elevationUnit": "METERS",
            "longitude": -71.6
        },
        {
            "elevation": 274.9,
            "mindate": "1945-01-01",
            "maxdate": "1957-09-01",
            "latitude": 43.45,
            "name": "WILMOT, NH US",
            "datacoverage": 0.8956,
            "id": "COOP:279676",
            "elevationUnit": "METERS",
            "longitude": -71.91667
        },
        {
            "elevation": 149,
            "mindate": "1948-05-01",
            "maxdate": "1985-03-31",
            "latitude": 42.76667,
            "name": "WINCHESTER, NH US",
            "datacoverage": 1,
            "id": "COOP:279726",
            "elevationUnit": "METERS",
            "longitude": -72.36667
        },
        {
            "elevation": 67.1,
            "mindate": "1948-06-01",
            "maxdate": "1976-07-01",
            "latitude": 42.81667,
            "name": "WINDHAM 3 NW, NH US",
            "datacoverage": 1,
            "id": "COOP:279740",
            "elevationUnit": "METERS",
            "longitude": -71.33333
        },
        {
            "elevation": 161.8,
            "mindate": "1931-05-01",
            "maxdate": "1961-09-01",
            "latitude": 43.58333,
            "name": "WOLFEBORO FALLS, NH US",
            "datacoverage": 0.9971,
            "id": "COOP:279865",
            "elevationUnit": "METERS",
            "longitude": -71.2
        },
        {
            "elevation": 219.2,
            "mindate": "1961-10-01",
            "maxdate": "1975-11-01",
            "latitude": 43.6,
            "name": "WOLFEBORO, NH US",
            "datacoverage": 0.9883,
            "id": "COOP:279866",
            "elevationUnit": "METERS",
            "longitude": -71.23333
        },
        {
            "elevation": 335.9,
            "mindate": "1970-01-01",
            "maxdate": "1974-07-01",
            "latitude": 43.91667,
            "name": "WONALANCET, NH US",
            "datacoverage": 1,
            "id": "COOP:279903",
            "elevationUnit": "METERS",
            "longitude": -71.35
        },
        {
            "elevation": 220.1,
            "mindate": "1942-08-01",
            "maxdate": "1980-12-01",
            "latitude": 43.98333,
            "name": "WOODSTOCK, NH US",
            "datacoverage": 0.9457,
            "id": "COOP:279940",
            "elevationUnit": "METERS",
            "longitude": -71.68333
        },
        {
            "elevation": 463,
            "mindate": "1931-01-01",
            "maxdate": "2015-11-01",
            "latitude": 44.50673,
            "name": "YORK POND, NH US",
            "datacoverage": 0.841,
            "id": "COOP:279966",
            "elevationUnit": "METERS",
            "longitude": -71.33357
        },
        {
            "elevation": 317,
            "mindate": "1931-01-01",
            "maxdate": "1968-08-20",
            "latitude": 44.78333,
            "name": "BLOOMFIELD, NH US",
            "datacoverage": 0.9978,
            "id": "COOP:430690",
            "elevationUnit": "METERS",
            "longitude": -71.58333
        },
        {
            "elevation": 146,
            "mindate": "1932-04-01",
            "maxdate": "1972-10-01",
            "latitude": 44.26667,
            "name": "MC INDOE FALLS, VT US",
            "datacoverage": 0.9938,
            "id": "COOP:435044",
            "elevationUnit": "METERS",
            "longitude": -72.06667
        },
        {
            "elevation": 111.3,
            "mindate": "1931-01-01",
            "maxdate": "1960-09-01",
            "latitude": 43.67028,
            "name": "WILDER, VT US",
            "datacoverage": 0.9972,
            "id": "COOP:439764",
            "elevationUnit": "METERS",
            "longitude": -72.30806
        },
        {
            "elevation": 207.3,
            "mindate": "2009-06-01",
            "maxdate": "2020-05-17",
            "latitude": 43.48,
            "name": "TILTON NORTHFIELD 3.3 NE, NH US",
            "datacoverage": 0.9999,
            "id": "GHCND:US1NHBK0001",
            "elevationUnit": "METERS",
            "longitude": -71.55
        },
        {
            "elevation": 214,
            "mindate": "2009-06-01",
            "maxdate": "2020-05-17",
            "latitude": 43.43556213,
            "name": "BELMONT 1.7 SW, NH US",
            "datacoverage": 0.9999,
            "id": "GHCND:US1NHBK0002",
            "elevationUnit": "METERS",
            "longitude": -71.50687408
        },
        {
            "elevation": 202.4,
            "mindate": "2010-07-01",
            "maxdate": "2013-11-18",
            "latitude": 43.6478762,
            "name": "NEW HAMPTON 5.3 NE, NH US",
            "datacoverage": 0.8286,
            "id": "GHCND:US1NHBK0005",
            "elevationUnit": "METERS",
            "longitude": -71.5682014
        },
        {
            "elevation": 171.9,
            "mindate": "2009-07-01",
            "maxdate": "2020-05-17",
            "latitude": 43.554149,
            "name": "LACONIA 7.9 E, NH US",
            "datacoverage": 1,
            "id": "GHCND:US1NHBK0007",
            "elevationUnit": "METERS",
            "longitude": -71.323108
        },
        {
            "elevation": 159.4,
            "mindate": "2009-07-01",
            "maxdate": "2011-01-13",
            "latitude": 43.553744,
            "name": "MEREDITH 7.3 S, NH US",
            "datacoverage": 0.6822,
            "id": "GHCND:US1NHBK0008",
            "elevationUnit": "METERS",
            "longitude": -71.483989
        },
        {
            "elevation": 206.3,
            "mindate": "2009-08-01",
            "maxdate": "2020-05-17",
            "latitude": 43.622449,
            "name": "MEREDITH 2.9 SSW, NH US",
            "datacoverage": 1,
            "id": "GHCND:US1NHBK0009",
            "elevationUnit": "METERS",
            "longitude": -71.535087
        },
        {
            "elevation": 151.2,
            "mindate": "1998-06-01",
            "maxdate": "2020-05-12",
            "latitude": 43.52867,
            "name": "LACONIA 2.8 S, NH US",
            "datacoverage": 1,
            "id": "GHCND:US1NHBK0010",
            "elevationUnit": "METERS",
            "longitude": -71.4791
        },
        {
            "elevation": 158.8,
            "mindate": "2009-08-01",
            "maxdate": "2010-12-12",
            "latitude": 43.563632,
            "name": "GILFORD 2.1 NW, NH US",
            "datacoverage": 0.9989,
            "id": "GHCND:US1NHBK0011",
            "elevationUnit": "METERS",
            "longitude": -71.443312
        },
        {
            "elevation": 234.4,
            "mindate": "2009-08-01",
            "maxdate": "2020-05-16",
            "latitude": 43.67578467,
            "name": "CENTER HARBOR 3.7 SW, NH US",
            "datacoverage": 0.9875,
            "id": "GHCND:US1NHBK0012",
            "elevationUnit": "METERS",
            "longitude": -71.52670405
        },
        {
            "elevation": 256.9,
            "mindate": "2009-09-01",
            "maxdate": "2010-09-08",
            "latitude": 43.547969,
            "name": "GILFORD 0.6 W, NH US",
            "datacoverage": 0.9819,
            "id": "GHCND:US1NHBK0013",
            "elevationUnit": "METERS",
            "longitude": -71.419753
        },
        {
            "elevation": 203.6,
            "mindate": "2010-09-01",
            "maxdate": "2013-10-05",
            "latitude": 43.571096,
            "name": "SANBORNTON 5.6 NNW, NH US",
            "datacoverage": 0.9997,
            "id": "GHCND:US1NHBK0017",
            "elevationUnit": "METERS",
            "longitude": -71.601936
        },
        {
            "elevation": 204.2,
            "mindate": "2010-12-01",
            "maxdate": "2020-05-16",
            "latitude": 43.6639715,
            "name": "NEW HAMPTON 4.1 N, NH US",
            "datacoverage": 1,
            "id": "GHCND:US1NHBK0018",
            "elevationUnit": "METERS",
            "longitude": -71.6427066
        },
        {
            "elevation": 324.3,
            "mindate": "1998-06-01",
            "maxdate": "2014-12-31",
            "latitude": 43.4549677,
            "name": "GILMANTON 2.1 N, NH US",
            "datacoverage": 0.3331,
            "id": "GHCND:US1NHBK0020",
            "elevationUnit": "METERS",
            "longitude": -71.40975
        },
        {
            "elevation": 190.8,
            "mindate": "2015-09-09",
            "maxdate": "2018-06-22",
            "latitude": 43.437745,
            "name": "ALTON 1.2 SSE, NH US",
            "datacoverage": 0.2151,
            "id": "GHCND:US1NHBK0024",
            "elevationUnit": "METERS",
            "longitude": -71.213297
        },
        {
            "elevation": 273.4,
            "mindate": "2016-06-16",
            "maxdate": "2017-11-17",
            "latitude": 43.698448233198,
            "name": "MEREDITH 3.3 NNE, NH US",
            "datacoverage": 0.998,
            "id": "GHCND:US1NHBK0026",
            "elevationUnit": "METERS",
            "longitude": -71.469307637959
        },
        {
            "elevation": 157.3,
            "mindate": "2016-09-16",
            "maxdate": "2020-05-17",
            "latitude": 43.4973,
            "name": "SANBORNTON 2.3 WNW, NH US",
            "datacoverage": 0.9724,
            "id": "GHCND:US1NHBK0029",
            "elevationUnit": "METERS",
            "longitude": -71.628
        },
        {
            "elevation": 155.1,
            "mindate": "2009-08-01",
            "maxdate": "2020-05-17",
            "latitude": 42.87850351,
            "name": "WEST SWANZEY 1.0 WNW, NH US",
            "datacoverage": 0.9995,
            "id": "GHCND:US1NHCH0001",
            "elevationUnit": "METERS",
            "longitude": -72.33825346
        },
        {
            "elevation": 120.7,
            "mindate": "2009-07-01",
            "maxdate": "2020-05-17",
            "latitude": 42.8988,
            "name": "WEST CHESTERFIELD 0.3 WNW, NH US",
            "datacoverage": 1,
            "id": "GHCND:US1NHCH0002",
            "elevationUnit": "METERS",
            "longitude": -72.5235
        },
        {
            "elevation": 168.6,
            "mindate": "2009-07-01",
            "maxdate": "2013-03-09",
            "latitude": 42.9395,
            "name": "KEENE 1.7 WSW, NH US",
            "datacoverage": 1,
            "id": "GHCND:US1NHCH0004",
            "elevationUnit": "METERS",
            "longitude": -72.3284
        },
        {
            "elevation": 156.4,
            "mindate": "2009-09-01",
            "maxdate": "2011-08-30",
            "latitude": 42.9404999,
            "name": "KEENE 0.5 NE, NH US",
            "datacoverage": 0.7859,
            "id": "GHCND:US1NHCH0006",
            "elevationUnit": "METERS",
            "longitude": -72.276076
        },
        {
            "elevation": 147.5,
            "mindate": "2009-09-01",
            "maxdate": "2019-10-18",
            "latitude": 42.8802298,
            "name": "WEST SWANZEY 2.0 ENE, NH US",
            "datacoverage": 0.8515,
            "id": "GHCND:US1NHCH0007",
            "elevationUnit": "METERS",
            "longitude": -72.2854098
        },
        {
            "elevation": 319.4,
            "mindate": "2009-09-01",
            "maxdate": "2010-03-30",
            "latitude": 42.7646615,
            "name": "RICHMOND 0.7 NE, NH US",
            "datacoverage": 1,
            "id": "GHCND:US1NHCH0010",
            "elevationUnit": "METERS",
            "longitude": -72.2686998
        },
        {
            "elevation": 139,
            "mindate": "2009-09-01",
            "maxdate": "2010-11-14",
            "latitude": 42.7719,
            "name": "WINCHESTER 0.4 SSE, NH US",
            "datacoverage": 1,
            "id": "GHCND:US1NHCH0011",
            "elevationUnit": "METERS",
            "longitude": -72.3808
        },
        {
            "elevation": 171.9,
            "mindate": "2009-11-01",
            "maxdate": "2012-03-18",
            "latitude": 42.8627,
            "name": "WEST SWANZEY 1.9 ESE, NH US",
            "datacoverage": 0.998,
            "id": "GHCND:US1NHCH0012",
            "elevationUnit": "METERS",
            "longitude": -72.2867
        },
        {
            "elevation": 346.9,
            "mindate": "2010-10-01",
            "maxdate": "2018-05-21",
            "latitude": 42.879513,
            "name": "DUBLIN 3.3 SE, NH US",
            "datacoverage": 0.606,
            "id": "GHCND:US1NHCH0013",
            "elevationUnit": "METERS",
            "longitude": -72.010268
        },
        {
            "elevation": 340.2,
            "mindate": "2011-09-01",
            "maxdate": "2013-04-17",
            "latitude": 43.067657,
            "name": "GILSUM 2.6 ENE, NH US",
            "datacoverage": 0.9011,
            "id": "GHCND:US1NHCH0015",
            "elevationUnit": "METERS",
            "longitude": -72.218724
        },
        {
            "elevation": 363.3,
            "mindate": "2014-10-01",
            "maxdate": "2020-05-17",
            "latitude": 42.731,
            "name": "RINDGE 3.2 ESE, NH US",
            "datacoverage": 1,
            "id": "GHCND:US1NHCH0020",
            "elevationUnit": "METERS",
            "longitude": -71.952
        },
        {
            "elevation": 148.7,
            "mindate": "2015-04-01",
            "maxdate": "2020-05-17",
            "latitude": 42.931338,
            "name": "KEENE 2.0 SE, NH US",
            "datacoverage": 0.998,
            "id": "GHCND:US1NHCH0021",
            "elevationUnit": "METERS",
            "longitude": -72.26822
        },
        {
            "elevation": 158.8,
            "mindate": "2017-05-31",
            "maxdate": "2020-05-16",
            "latitude": 42.98401,
            "name": "KEENE 2.5 NNW, NH US",
            "datacoverage": 1,
            "id": "GHCND:US1NHCH0024",
            "elevationUnit": "METERS",
            "longitude": -72.31399
        },
        {
            "elevation": 295,
            "mindate": "2018-05-24",
            "maxdate": "2018-11-11",
            "latitude": 42.822432,
            "name": "JAFFREY 0.7 NNE, NH US",
            "datacoverage": 0.7849,
            "id": "GHCND:US1NHCH0025",
            "elevationUnit": "METERS",
            "longitude": -72.01782
        },
        {
            "elevation": 145.1,
            "mindate": "2018-11-13",
            "maxdate": "2020-05-16",
            "latitude": 42.929292,
            "name": "KEENE 1.9 SE, NH US",
            "datacoverage": 0.8276,
            "id": "GHCND:US1NHCH0026",
            "elevationUnit": "METERS",
            "longitude": -72.272764
        },
        {
            "elevation": 188.1,
            "mindate": "2009-06-01",
            "maxdate": "2020-01-14",
            "latitude": 43.6037,
            "name": "EAST WAKEFIELD 1.2 SE, NH US",
            "datacoverage": 0.9999,
            "id": "GHCND:US1NHCR0001",
            "elevationUnit": "METERS",
            "longitude": -70.9867
        },
        {
            "elevation": 203.3,
            "mindate": "2009-07-01",
            "maxdate": "2020-05-17",
            "latitude": 43.5555,
            "name": "BROOKFIELD 0.9 WSW, NH US",
            "datacoverage": 0.7142,
            "id": "GHCND:US1NHCR0003",
            "elevationUnit": "METERS",
            "longitude": -71.0822
        },
        {
            "elevation": 260.9,
            "mindate": "2009-07-01",
            "maxdate": "2009-12-24",
            "latitude": 43.803,
            "name": "CENTER SANDWICH 3.1 WSW, NH US",
            "datacoverage": 0.998,
            "id": "GHCND:US1NHCR0004",
            "elevationUnit": "METERS",
            "longitude": -71.5
        },
        {
            "elevation": 165.2,
            "mindate": "2009-07-01",
            "maxdate": "2011-11-18",
            "latitude": 43.9294832,
            "name": "CONWAY 4.1 SSE, NH US",
            "datacoverage": 0.9925,
            "id": "GHCND:US1NHCR0007",
            "elevationUnit": "METERS",
            "longitude": -71.0840789
        },
        {
            "elevation": 185.9,
            "mindate": "2009-07-01",
            "maxdate": "2013-05-26",
            "latitude": 43.7197,
            "name": "OSSIPEE 2.3 NNW, NH US",
            "datacoverage": 0.6381,
            "id": "GHCND:US1NHCR0008",
            "elevationUnit": "METERS",
            "longitude": -71.1258
        },
        {
            "elevation": 285.3,
            "mindate": "2009-07-01",
            "maxdate": "2020-03-11",
            "latitude": 43.879283,
            "name": "MADISON 1.7 SE, NH US",
            "datacoverage": 0.9998,
            "id": "GHCND:US1NHCR0009",
            "elevationUnit": "METERS",
            "longitude": -71.126633
        },
        {
            "elevation": 150.6,
            "mindate": "2009-07-01",
            "maxdate": "2014-11-26",
            "latitude": 43.7743273,
            "name": "EFFINGHAM 0.9 NNW, NH US",
            "datacoverage": 0.9843,
            "id": "GHCND:US1NHCR0010",
            "elevationUnit": "METERS",
            "longitude": -70.999528
        },
        {
            "elevation": 156.1,
            "mindate": "2009-07-01",
            "maxdate": "2020-05-17",
            "latitude": 44.03556,
            "name": "NORTH CONWAY 1.4 SSW, NH US",
            "datacoverage": 0.9995,
            "id": "GHCND:US1NHCR0011",
            "elevationUnit": "METERS",
            "longitude": -71.140076
        },
        {
            "elevation": 209.7,
            "mindate": "2009-07-01",
            "maxdate": "2020-05-16",
            "latitude": 44.112796,
            "name": "INTERVALE 2.7 N, NH US",
            "datacoverage": 0.9998,
            "id": "GHCND:US1NHCR0012",
            "elevationUnit": "METERS",
            "longitude": -71.139602
        },
        {
            "elevation": 159.4,
            "mindate": "2009-07-01",
            "maxdate": "2010-11-14",
            "latitude": 43.7317693,
            "name": "MOULTONBOROUGH 2.0 SE, NH US",
            "datacoverage": 0.9989,
            "id": "GHCND:US1NHCR0013",
            "elevationUnit": "METERS",
            "longitude": -71.3732373
        },
        {
            "elevation": 147.2,
            "mindate": "2009-08-01",
            "maxdate": "2010-02-17",
            "latitude": 43.867273,
            "name": "SILVER LAKE 1.5 SSW, NH US",
            "datacoverage": 1,
            "id": "GHCND:US1NHCR0014",
            "elevationUnit": "METERS",
            "longitude": -71.182404
        },
        {
            "elevation": 355.4,
            "mindate": "2009-12-01",
            "maxdate": "2020-05-17",
            "latitude": 44.190694,
            "name": "JACKSON 3.7 NW, NH US",
            "datacoverage": 1,
            "id": "GHCND:US1NHCR0015",
            "elevationUnit": "METERS",
            "longitude": -71.225989
        },
        {
            "elevation": 169.5,
            "mindate": "2009-11-01",
            "maxdate": "2020-05-16",
            "latitude": 43.584639,
            "name": "WOLFEBORO 0.6 SW, NH US",
            "datacoverage": 1,
            "id": "GHCND:US1NHCR0016",
            "elevationUnit": "METERS",
            "longitude": -71.217582
        },
        {
            "elevation": 232.6,
            "mindate": "2010-03-01",
            "maxdate": "2010-11-25",
            "latitude": 43.91957222,
            "name": "MADISON 1.4 N, NH US",
            "datacoverage": 0.9961,
            "id": "GHCND:US1NHCR0020",
            "elevationUnit": "METERS",
            "longitude": -71.14627778
        },
        {
            "elevation": 171.9,
            "mindate": "2011-10-01",
            "maxdate": "2013-09-15",
            "latitude": 43.6379,
            "name": "TUFTONBORO 1.1 S, NH US",
            "datacoverage": 0.9993,
            "id": "GHCND:US1NHCR0029",
            "elevationUnit": "METERS",
            "longitude": -71.2442
        },
        {
            "elevation": 147.5,
            "mindate": "2011-12-01",
            "maxdate": "2012-07-13",
            "latitude": 44.0204,
            "name": "NORTH CONWAY 2.3 S, NH US",
            "datacoverage": 1,
            "id": "GHCND:US1NHCR0030",
            "elevationUnit": "METERS",
            "longitude": -71.1345
        },
        {
            "elevation": 196.6,
            "mindate": "2014-07-01",
            "maxdate": "2019-12-07",
            "latitude": 43.6391732096672,
            "name": "WAKEFIELD 6.0 NNW, NH US",
            "datacoverage": 0.7485,
            "id": "GHCND:US1NHCR0034",
            "elevationUnit": "METERS",
            "longitude": -71.0520829260349
        },
        {
            "elevation": 201.2,
            "mindate": "2017-12-01",
            "maxdate": "2020-05-16",
            "latitude": 43.92648333,
            "name": "ALBANY 2.8 SW, NH US",
            "datacoverage": 0.5754,
            "id": "GHCND:US1NHCR0041",
            "elevationUnit": "METERS",
            "longitude": -71.21556667
        },
        {
            "elevation": 143.9,
            "mindate": "2018-07-21",
            "maxdate": "2020-05-16",
            "latitude": 43.840388,
            "name": "TAMWORTH 3.4 ESE, NH US",
            "datacoverage": 0.3724,
            "id": "GHCND:US1NHCR0043",
            "elevationUnit": "METERS",
            "longitude": -71.195443
        },
        {
            "elevation": 457.5,
            "mindate": "2009-07-01",
            "maxdate": "2012-09-15",
            "latitude": 44.359315,
            "name": "RANDOLPH 4.0 WSW, NH US",
            "datacoverage": 0.8711,
            "id": "GHCND:US1NHCS0001",
            "elevationUnit": "METERS",
            "longitude": -71.365802
        },
        {
            "elevation": 354.8,
            "mindate": "2009-07-01",
            "maxdate": "2019-09-22",
            "latitude": 44.62395,
            "name": "DUMMER 4.3 NW, NH US",
            "datacoverage": 0.6051,
            "id": "GHCND:US1NHCS0003",
            "elevationUnit": "METERS",
            "longitude": -71.314417
        },
        {
            "elevation": 591.6,
            "mindate": "2009-07-01",
            "maxdate": "2020-05-17",
            "latitude": 45.1106,
            "name": "PITTSBURG 6.1 NE, NH US",
            "datacoverage": 0.9627,
            "id": "GHCND:US1NHCS0004",
            "elevationUnit": "METERS",
            "longitude": -71.297615
        },
        {
            "elevation": 383.1,
            "mindate": "2009-07-01",
            "maxdate": "2012-12-06",
            "latitude": 44.34778,
            "name": "GORHAM 3.1 S, NH US",
            "datacoverage": 0.7958,
            "id": "GHCND:US1NHCS0005",
            "elevationUnit": "METERS",
            "longitude": -71.18505
        },
        {
            "elevation": 372.5,
            "mindate": "2009-07-01",
            "maxdate": "2020-05-17",
            "latitude": 44.4763958,
            "name": "BERLIN 3.9 ESE, NH US",
            "datacoverage": 0.9998,
            "id": "GHCND:US1NHCS0006",
            "elevationUnit": "METERS",
            "longitude": -71.1772647
        },
        {
            "elevation": 541,
            "mindate": "2008-10-01",
            "maxdate": "2020-05-17",
            "latitude": 44.388238,
            "name": "RANDOLPH 1.4 NE, NH US",
            "datacoverage": 1,
            "id": "GHCND:US1NHCS0010",
            "elevationUnit": "METERS",
            "longitude": -71.2695348
        },
        {
            "elevation": 284.4,
            "mindate": "2010-11-01",
            "maxdate": "2011-12-08",
            "latitude": 44.376381,
            "name": "WHITEFIELD 0.3 NNW, NH US",
            "datacoverage": 0.9819,
            "id": "GHCND:US1NHCS0011",
            "elevationUnit": "METERS",
            "longitude": -71.613242
        },
        {
            "elevation": 153,
            "mindate": "2009-06-01",
            "maxdate": "2020-05-17",
            "latitude": 43.5949,
            "name": "BRISTOL 0.4 SSE, NH US",
            "datacoverage": 0.9999,
            "id": "GHCND:US1NHGR0001",
            "elevationUnit": "METERS",
            "longitude": -71.7414
        },
        {
            "elevation": 202.1,
            "mindate": "2009-07-01",
            "maxdate": "2014-05-15",
            "latitude": 43.7485545,
            "name": "PLYMOUTH 0.7 N, NH US",
            "datacoverage": 0.5932,
            "id": "GHCND:US1NHGR0002",
            "elevationUnit": "METERS",
            "longitude": -71.6990447
        },
        {
            "elevation": 1813.9,
            "mindate": "2009-07-01",
            "maxdate": "2015-12-03",
            "latitude": 43.6973099,
            "name": "ASHLAND 0.2 NW, NH US",
            "datacoverage": 0.9993,
            "id": "GHCND:US1NHGR0003",
            "elevationUnit": "METERS",
            "longitude": -71.6328109
        },
        {
            "elevation": 316.4,
            "mindate": "2009-08-01",
            "maxdate": "2010-06-25",
            "latitude": 43.813758,
            "name": "DORCHESTER 4.1 SSW, NH US",
            "datacoverage": 0.9925,
            "id": "GHCND:US1NHGR0007",
            "elevationUnit": "METERS",
            "longitude": -71.940748
        },
        {
            "elevation": 131.1,
            "mindate": "2009-08-01",
            "maxdate": "2015-07-28",
            "latitude": 43.8980726,
            "name": "ORFORD 0.5 SSW, NH US",
            "datacoverage": 0.9586,
            "id": "GHCND:US1NHGR0010",
            "elevationUnit": "METERS",
            "longitude": -72.1376736
        },
        {
            "elevation": 186.8,
            "mindate": "2009-10-01",
            "maxdate": "2020-05-15",
            "latitude": 43.760317,
            "name": "PLYMOUTH 1.6 NNE, NH US",
            "datacoverage": 0.8402,
            "id": "GHCND:US1NHGR0011",
            "elevationUnit": "METERS",
            "longitude": -71.688856
        },
        {
            "elevation": 247.2,
            "mindate": "2009-08-01",
            "maxdate": "2010-05-10",
            "latitude": 43.74912,
            "name": "PLYMOUTH 1.5 WNW, NH US",
            "datacoverage": 1,
            "id": "GHCND:US1NHGR0012",
            "elevationUnit": "METERS",
            "longitude": -71.72545
        },
        {
            "elevation": 391.4,
            "mindate": "2009-09-01",
            "maxdate": "2011-02-18",
            "latitude": 43.674341,
            "name": "CANAAN 2.0 NNW, NH US",
            "datacoverage": 1,
            "id": "GHCND:US1NHGR0013",
            "elevationUnit": "METERS",
            "longitude": -72.01922
        },
        {
            "elevation": 284.1,
            "mindate": "2009-09-01",
            "maxdate": "2010-09-27",
            "latitude": 43.8898111,
            "name": "THORNTON 3.0 ESE, NH US",
            "datacoverage": 1,
            "id": "GHCND:US1NHGR0014",
            "elevationUnit": "METERS",
            "longitude": -71.6150098
        },
        {
            "elevation": 197.8,
            "mindate": "2010-07-01",
            "maxdate": "2011-10-25",
            "latitude": 43.7629,
            "name": "PLYMOUTH 1.7 NNW, NH US",
            "datacoverage": 0.8732,
            "id": "GHCND:US1NHGR0020",
            "elevationUnit": "METERS",
            "longitude": -71.7075
        },
        {
            "elevation": 384.4,
            "mindate": "2011-10-01",
            "maxdate": "2019-07-18",
            "latitude": 44.2353756,
            "name": "FRANCONIA 0.8 NE, NH US",
            "datacoverage": 0.9998,
            "id": "GHCND:US1NHGR0023",
            "elevationUnit": "METERS",
            "longitude": -71.7387771
        },
        {
            "elevation": 160.9,
            "mindate": "2012-11-01",
            "maxdate": "2014-12-19",
            "latitude": 43.809919,
            "name": "LYME 0.2 W, NH US",
            "datacoverage": 0.7311,
            "id": "GHCND:US1NHGR0029",
            "elevationUnit": "METERS",
            "longitude": -72.159847
        },
        {
            "elevation": 273.7,
            "mindate": "2013-01-01",
            "maxdate": "2017-06-30",
            "latitude": 43.8057310134172,
            "name": "DORCHESTER 3.8 NNE, NH US",
            "datacoverage": 1,
            "id": "GHCND:US1NHGR0032",
            "elevationUnit": "METERS",
            "longitude": -71.916823759675
        },
        {
            "elevation": 159.1,
            "mindate": "2013-08-29",
            "maxdate": "2019-10-28",
            "latitude": 43.720125,
            "name": "HANOVER 1.4 NNE, NH US",
            "datacoverage": 0.08,
            "id": "GHCND:US1NHGR0033",
            "elevationUnit": "METERS",
            "longitude": -72.266629
        },
        {
            "elevation": 228.3,
            "mindate": "2013-09-01",
            "maxdate": "2014-02-19",
            "latitude": 43.61667,
            "name": "ALEXANDRIA 0.5 NW, NH US",
            "datacoverage": 1,
            "id": "GHCND:US1NHGR0034",
            "elevationUnit": "METERS",
            "longitude": -71.8
        },
        {
            "elevation": 246.3,
            "mindate": "2013-12-01",
            "maxdate": "2015-03-07",
            "latitude": 44.04293,
            "name": "LINCOLN 0.3 N, NH US",
            "datacoverage": 0.9819,
            "id": "GHCND:US1NHGR0036",
            "elevationUnit": "METERS",
            "longitude": -71.672863
        },
        {
            "elevation": 257.6,
            "mindate": "2014-08-01",
            "maxdate": "2019-11-20",
            "latitude": 43.650903,
            "name": "ENFIELD 2.4 E, NH US",
            "datacoverage": 1,
            "id": "GHCND:US1NHGR0038",
            "elevationUnit": "METERS",
            "longitude": -72.099033
        },
        {
            "elevation": 217.9,
            "mindate": "2016-03-17",
            "maxdate": "2017-08-16",
            "latitude": 43.6097755283117,
            "name": "ALEXANDRIA 0.6 W, NH US",
            "datacoverage": 0.2491,
            "id": "GHCND:US1NHGR0039",
            "elevationUnit": "METERS",
            "longitude": -71.8047811836004
        },
        {
            "elevation": 333.1,
            "mindate": "2015-08-01",
            "maxdate": "2020-05-16",
            "latitude": 44.2885559995851,
            "name": "MONROE 3.1 NE, NH US",
            "datacoverage": 0.998,
            "id": "GHCND:US1NHGR0041",
            "elevationUnit": "METERS",
            "longitude": -72.006154643872
        },
        {
            "elevation": 295,
            "mindate": "2016-07-23",
            "maxdate": "2017-10-01",
            "latitude": 43.64426,
            "name": "LEBANON 3.6 E, NH US",
            "datacoverage": 0.2683,
            "id": "GHCND:US1NHGR0043",
            "elevationUnit": "METERS",
            "longitude": -72.184289
        },
        {
            "elevation": 360.3,
            "mindate": "2016-11-16",
            "maxdate": "2020-05-17",
            "latitude": 43.729636,
            "name": "ASHLAND 2.4 NNW, NH US",
            "datacoverage": 1,
            "id": "GHCND:US1NHGR0046",
            "elevationUnit": "METERS",
            "longitude": -71.642137
        },
        {
            "elevation": 338.6,
            "mindate": "2018-01-14",
            "maxdate": "2020-05-17",
            "latitude": 44.318471,
            "name": "LITTLETON 7.3 W, NH US",
            "datacoverage": 1,
            "id": "GHCND:US1NHGR0047",
            "elevationUnit": "METERS",
            "longitude": -71.910866
        },
        {
            "elevation": 269.4,
            "mindate": "2018-11-01",
            "maxdate": "2020-05-16",
            "latitude": 43.79048,
            "name": "PLYMOUTH 3.7 N, NH US",
            "datacoverage": 0.9342,
            "id": "GHCND:US1NHGR0049",
            "elevationUnit": "METERS",
            "longitude": -71.68413
        },
        {
            "elevation": 292.9,
            "mindate": "2019-03-04",
            "maxdate": "2019-08-09",
            "latitude": 43.8095459,
            "name": "CAMPTON 2.0 ESE, NH US",
            "datacoverage": 1,
            "id": "GHCND:US1NHGR0050",
            "elevationUnit": "METERS",
            "longitude": -71.607186
        },
        {
            "elevation": 44.5,
            "mindate": "2009-06-01",
            "maxdate": "2015-06-01",
            "latitude": 42.75428,
            "name": "NASHUA 2.4 E, NH US",
            "datacoverage": 1,
            "id": "GHCND:US1NHHL0005",
            "elevationUnit": "METERS",
            "longitude": -71.445448
        },
        {
            "elevation": 52.7,
            "mindate": "2009-07-01",
            "maxdate": "2010-02-13",
            "latitude": 42.816064,
            "name": "LITCHFIELD 2.1 SE, NH US",
            "datacoverage": 1,
            "id": "GHCND:US1NHHL0007",
            "elevationUnit": "METERS",
            "longitude": -71.454045
        },
        {
            "elevation": 190.8,
            "mindate": "2009-08-01",
            "maxdate": "2014-11-28",
            "latitude": 43.1109,
            "name": "HILLSBOROUGH 0.3 SW, NH US",
            "datacoverage": 1,
            "id": "GHCND:US1NHHL0008",
            "elevationUnit": "METERS",
            "longitude": -71.9037
        },
        {
            "elevation": 98.1,
            "mindate": "2009-08-01",
            "maxdate": "2017-12-08",
            "latitude": 42.759,
            "name": "HOLLIS 2.9 ENE, NH US",
            "datacoverage": 1,
            "id": "GHCND:US1NHHL0016",
            "elevationUnit": "METERS",
            "longitude": -71.537
        },
        {
            "elevation": 138.1,
            "mindate": "2009-08-01",
            "maxdate": "2020-05-16",
            "latitude": 42.7123505,
            "name": "BROOKLINE 2.1 SW, NH US",
            "datacoverage": 1,
            "id": "GHCND:US1NHHL0019",
            "elevationUnit": "METERS",
            "longitude": -71.6975995
        },
        {
            "elevation": 310,
            "mindate": "2009-08-01",
            "maxdate": "2010-08-13",
            "latitude": 42.770833,
            "name": "MASON 1.9 NNW, NH US",
            "datacoverage": 0.9992,
            "id": "GHCND:US1NHHL0021",
            "elevationUnit": "METERS",
            "longitude": -71.7827683
        },
        {
            "elevation": 56.4,
            "mindate": "2009-08-01",
            "maxdate": "2010-12-08",
            "latitude": 42.7477769,
            "name": "NASHUA 0.5 E, NH US",
            "datacoverage": 0.9989,
            "id": "GHCND:US1NHHL0024",
            "elevationUnit": "METERS",
            "longitude": -71.4815336
        },
        {
            "elevation": 93,
            "mindate": "1998-06-01",
            "maxdate": "2020-05-17",
            "latitude": 42.914089,
            "name": "AMHERST 3.7 NNE, NH US",
            "datacoverage": 0.4437,
            "id": "GHCND:US1NHHL0025",
            "elevationUnit": "METERS",
            "longitude": -71.610217
        },
        {
            "elevation": 259.1,
            "mindate": "2009-09-01",
            "maxdate": "2016-12-03",
            "latitude": 43.141767,
            "name": "HILLSBOROUGH 2.1 NNW, NH US",
            "datacoverage": 1,
            "id": "GHCND:US1NHHL0026",
            "elevationUnit": "METERS",
            "longitude": -71.916203
        },
        {
            "elevation": 265.8,
            "mindate": "2010-03-01",
            "maxdate": "2015-01-11",
            "latitude": 42.995453,
            "name": "FRANCESTOWN .8 SE, NH US",
            "datacoverage": 0.9819,
            "id": "GHCND:US1NHHL0029",
            "elevationUnit": "METERS",
            "longitude": -71.822677
        },
        {
            "elevation": 149.7,
            "mindate": "2010-11-01",
            "maxdate": "2016-04-26",
            "latitude": 42.80553333,
            "name": "MILFORD 2.7 SE, NH US",
            "datacoverage": 0.9694,
            "id": "GHCND:US1NHHL0038",
            "elevationUnit": "METERS",
            "longitude": -71.62515
        },
        {
            "elevation": 108.8,
            "mindate": "2010-11-01",
            "maxdate": "2012-08-24",
            "latitude": 42.8415,
            "name": "MILFORD 3.2 W, NH US",
            "datacoverage": 0.801,
            "id": "GHCND:US1NHHL0039",
            "elevationUnit": "METERS",
            "longitude": -71.7245
        },
        {
            "elevation": 296.3,
            "mindate": "2010-12-01",
            "maxdate": "2020-05-17",
            "latitude": 42.776745,
            "name": "GREENVILLE 1.1 ENE, NH US",
            "datacoverage": 1,
            "id": "GHCND:US1NHHL0048",
            "elevationUnit": "METERS",
            "longitude": -71.779923
        },
        {
            "elevation": 159.4,
            "mindate": "1998-06-01",
            "maxdate": "2020-05-17",
            "latitude": 42.87615734,
            "name": "MONT VERNON 1.3 SSW, NH US",
            "datacoverage": 0.832,
            "id": "GHCND:US1NHHL0049",
            "elevationUnit": "METERS",
            "longitude": -71.68280119
        },
        {
            "elevation": 38.7,
            "mindate": "2011-09-01",
            "maxdate": "2016-04-01",
            "latitude": 42.7720197,
            "name": "NASHUA 2.3 NE, NH US",
            "datacoverage": 1,
            "id": "GHCND:US1NHHL0053",
            "elevationUnit": "METERS",
            "longitude": -71.4582047
        },
        {
            "elevation": 169.8,
            "mindate": "2012-04-01",
            "maxdate": "2017-10-30",
            "latitude": 42.9425425082445,
            "name": "NEW BOSTON 2.4 S, NH US",
            "datacoverage": 1,
            "id": "GHCND:US1NHHL0055",
            "elevationUnit": "METERS",
            "longitude": -71.6860612481833
        },
        {
            "elevation": 68,
            "mindate": "2012-07-01",
            "maxdate": "2013-09-16",
            "latitude": 42.846953,
            "name": "MERRIMACK 1.9 SW, NH US",
            "datacoverage": 1,
            "id": "GHCND:US1NHHL0059",
            "elevationUnit": "METERS",
            "longitude": -71.518749
        },
        {
            "elevation": 90.8,
            "mindate": "2012-08-01",
            "maxdate": "2014-03-30",
            "latitude": 42.874868,
            "name": "MERRIMACK 3.0 W, NH US",
            "datacoverage": 0.9512,
            "id": "GHCND:US1NHHL0060",
            "elevationUnit": "METERS",
            "longitude": -71.551774
        },
        {
            "elevation": 322.2,
            "mindate": "2012-09-01",
            "maxdate": "2013-11-28",
            "latitude": 42.75975,
            "name": "NEW IPSWICH 0.8 S, NH US",
            "datacoverage": 0.9925,
            "id": "GHCND:US1NHHL0062",
            "elevationUnit": "METERS",
            "longitude": -71.85655
        },
        {
            "elevation": 51.8,
            "mindate": "2014-07-01",
            "maxdate": "2014-11-14",
            "latitude": 42.7307519316673,
            "name": "NASHUA 1.5 SE, NH US",
            "datacoverage": 0.9947,
            "id": "GHCND:US1NHHL0067",
            "elevationUnit": "METERS",
            "longitude": -71.4750545471907
        },
        {
            "elevation": 186.5,
            "mindate": "2014-09-07",
            "maxdate": "2020-05-16",
            "latitude": 42.7167481184006,
            "name": "MASON 2.9 SE, NH US",
            "datacoverage": 0.2213,
            "id": "GHCND:US1NHHL0068",
            "elevationUnit": "METERS",
            "longitude": -71.7249479144812
        },