{
    "metadata": {
        "resultset": {
            "offset": 1,
            "count": 1884,
            "limit": 1000
        }
    },
    "results": [
        {
            "elevation": 1874.5,
            "mindate": "1931-01-01",
            "maxdate": "2015-11-01",
            "latitude": 36.3027,
            "name": "ABBOTT 1 SE, NM US",
            "datacoverage": 0.8499,
            "id": "COOP:290022",
            "elevationUnit": "METERS",
            "longitude": -104.2497
        },
        {
            "elevation": 1944.6,
            "mindate": "1957-06-01",
            "maxdate": "2015-11-01",
            "latitude": 36.2402,
            "name": "ABIQUIU DAM, NM US",
            "datacoverage": 0.9943,
            "id": "COOP:290041",
            "elevationUnit": "METERS",
            "longitude": -106.4277
        },
        {
            "elevation": 2261,
            "mindate": "1941-12-01",
            "maxdate": "1994-02-01",
            "latitude": 33.56667,
            "name": "ADOBE RANCH, NM US",
            "datacoverage": 0.7002,
            "id": "COOP:290119",
            "elevationUnit": "METERS",
            "longitude": -107.9
        },
        {
            "elevation": 1276.8,
            "mindate": "1942-07-01",
            "maxdate": "1999-05-01",
            "latitude": 32.11667,
            "name": "AFTON, NM US",
            "datacoverage": 0.9531,
            "id": "COOP:290125",
            "elevationUnit": "METERS",
            "longitude": -106.86667
        },
        {
            "elevation": 1335,
            "mindate": "1931-01-01",
            "maxdate": "2010-05-01",
            "latitude": 32.9181,
            "name": "ALAMOGORDO, NM US",
            "datacoverage": 0.9669,
            "id": "COOP:290199",
            "elevationUnit": "METERS",
            "longitude": -105.955
        },
        {
            "elevation": 1312.5,
            "mindate": "1939-01-01",
            "maxdate": "1975-02-01",
            "latitude": 34.6033,
            "name": "SUMNER LAKE, NM US",
            "datacoverage": 0.9817,
            "id": "COOP:290205",
            "elevationUnit": "METERS",
            "longitude": -104.3811
        },
        {
            "elevation": 1911.1,
            "mindate": "1991-10-01",
            "maxdate": "2015-11-01",
            "latitude": 35.1317,
            "name": "ALBUQUERQUE FOOTHILLS NE, NM US",
            "datacoverage": 1,
            "id": "COOP:290225",
            "elevationUnit": "METERS",
            "longitude": -106.4808
        },
        {
            "elevation": 1510.3,
            "mindate": "1991-10-01",
            "maxdate": "2015-11-01",
            "latitude": 35.0216,
            "name": "ALBUQUERQUE VALLEY, NM US",
            "datacoverage": 1,
            "id": "COOP:290231",
            "elevationUnit": "METERS",
            "longitude": -106.6938
        },
        {
            "elevation": 1618.5,
            "mindate": "1947-01-01",
            "maxdate": "2015-11-01",
            "latitude": 35.0419,
            "name": "ALBUQUERQUE INTERNATIONAL AIRPORT, NM US",
            "datacoverage": 0.994,
            "id": "COOP:290234",
            "elevationUnit": "METERS",
            "longitude": -106.6155
        },
        {
            "elevation": 1731.3,
            "mindate": "1953-04-01",
            "maxdate": "2015-11-01",
            "latitude": 36.0908,
            "name": "ALCALDE, NM US",
            "datacoverage": 0.9894,
            "id": "COOP:290245",
            "elevationUnit": "METERS",
            "longitude": -106.0566
        },
        {
            "elevation": 1378,
            "mindate": "1943-01-01",
            "maxdate": "2000-09-01",
            "latitude": 32.93083,
            "name": "ALEMAN RANCH, NM US",
            "datacoverage": 0.9206,
            "id": "COOP:290268",
            "elevationUnit": "METERS",
            "longitude": -106.93278
        },
        {
            "elevation": 1354.8,
            "mindate": "1931-01-01",
            "maxdate": "2015-11-01",
            "latitude": 35.8741,
            "name": "AMISTAD 5 SSW, NM US",
            "datacoverage": 0.9637,
            "id": "COOP:290377",
            "elevationUnit": "METERS",
            "longitude": -103.1819
        },
        {
            "elevation": 1866.9,
            "mindate": "1931-01-01",
            "maxdate": "1971-12-01",
            "latitude": 33.93333,
            "name": "ANCHO, NM US",
            "datacoverage": 0.9573,
            "id": "COOP:290394",
            "elevationUnit": "METERS",
            "longitude": -105.75
        },
        {
            "elevation": 2631,
            "mindate": "1990-07-01",
            "maxdate": "1993-12-22",
            "latitude": 36.36667,
            "name": "ANGEL FIRE 2 S, NM US",
            "datacoverage": 0.824,
            "id": "COOP:290404",
            "elevationUnit": "METERS",
            "longitude": -105.3
        },
        {
            "elevation": 2590.8,
            "mindate": "1993-11-01",
            "maxdate": "2015-11-01",
            "latitude": 36.3949,
            "name": "ANGEL FIRE 1 S, NM US",
            "datacoverage": 0.868,
            "id": "COOP:290407",
            "elevationUnit": "METERS",
            "longitude": -105.2852
        },
        {
            "elevation": 1371.9,
            "mindate": "1931-01-01",
            "maxdate": "2015-11-01",
            "latitude": 31.938,
            "name": "ANIMAS 3 ESE, NM US",
            "datacoverage": 0.9755,
            "id": "COOP:290417",
            "elevationUnit": "METERS",
            "longitude": -108.7688
        },
        {
            "elevation": 1419.8,
            "mindate": "1990-04-01",
            "maxdate": "2015-11-01",
            "latitude": 31.3347,
            "name": "ANTELOPE WELLS, NM US",
            "datacoverage": 0.9837,
            "id": "COOP:290426",
            "elevationUnit": "METERS",
            "longitude": -108.5299
        },
        {
            "elevation": 1200.9,
            "mindate": "1931-04-01",
            "maxdate": "2005-06-01",
            "latitude": 34.11278,
            "name": "ARCH, NM US",
            "datacoverage": 0.3861,
            "id": "COOP:290525",
            "elevationUnit": "METERS",
            "longitude": -103.16667
        },
        {
            "elevation": 1026,
            "mindate": "1931-01-01",
            "maxdate": "2015-11-01",
            "latitude": 32.7547,
            "name": "ARTESIA 6 S, NM US",
            "datacoverage": 0.9922,
            "id": "COOP:290600",
            "elevationUnit": "METERS",
            "longitude": -104.3835
        },
        {
            "elevation": 2133.6,
            "mindate": "1931-01-01",
            "maxdate": "2015-11-01",
            "latitude": 34.075,
            "name": "AUGUSTINE 2 E, NM US",
            "datacoverage": 0.9372,
            "id": "COOP:290640",
            "elevationUnit": "METERS",
            "longitude": -107.6211
        },
        {
            "elevation": 1720.3,
            "mindate": "1931-01-01",
            "maxdate": "2015-11-01",
            "latitude": 36.835,
            "name": "AZTEC RUINS NATIONAL MONUMENT, NM US",
            "datacoverage": 0.9922,
            "id": "COOP:290692",
            "elevationUnit": "METERS",
            "longitude": -108.0005
        },
        {
            "elevation": 1848,
            "mindate": "1931-01-01",
            "maxdate": "1976-08-01",
            "latitude": 35.78333,
            "name": "BANDELIER NATIONAL MONUM, NM US",
            "datacoverage": 0.9763,
            "id": "COOP:290743",
            "elevationUnit": "METERS",
            "longitude": -106.26667
        },
        {
            "elevation": 2714.9,
            "mindate": "1931-01-01",
            "maxdate": "1970-02-01",
            "latitude": 36.51667,
            "name": "BATEMAN RANCH, NM US",
            "datacoverage": 0.9639,
            "id": "COOP:290795",
            "elevationUnit": "METERS",
            "longitude": -106.31667
        },
        {
            "elevation": 2033,
            "mindate": "1938-09-01",
            "maxdate": "2014-01-01",
            "latitude": 33.4286,
            "name": "BEAVERHEAD R S, NM US",
            "datacoverage": 0.9168,
            "id": "COOP:290818",
            "elevationUnit": "METERS",
            "longitude": -108.1
        },
        {
            "elevation": 1464,
            "mindate": "1941-11-01",
            "maxdate": "1976-07-01",
            "latitude": 34.66667,
            "name": "BELEN, NM US",
            "datacoverage": 0.8609,
            "id": "COOP:290846",
            "elevationUnit": "METERS",
            "longitude": -106.76667
        },
        {
            "elevation": 1371.6,
            "mindate": "1931-01-01",
            "maxdate": "2013-12-01",
            "latitude": 35.5297,
            "name": "BELL RANCH, NM US",
            "datacoverage": 0.9387,
            "id": "COOP:290858",
            "elevationUnit": "METERS",
            "longitude": -104.0936
        },
        {
            "elevation": 1539.8,
            "mindate": "1938-01-01",
            "maxdate": "1982-10-01",
            "latitude": 35.31667,
            "name": "BERNALILLO, NM US",
            "datacoverage": 0.9702,
            "id": "COOP:290903",
            "elevationUnit": "METERS",
            "longitude": -106.55
        },
        {
            "elevation": 1443.2,
            "mindate": "1962-04-01",
            "maxdate": "2015-11-01",
            "latitude": 34.4219,
            "name": "BERNARDO, NM US",
            "datacoverage": 0.9208,
            "id": "COOP:290915",
            "elevationUnit": "METERS",
            "longitude": -106.8325
        },
        {
            "elevation": 1691.9,
            "mindate": "1939-09-01",
            "maxdate": "2015-11-01",
            "latitude": 33.9113,
            "name": "BINGHAM 2 NE, NM US",
            "datacoverage": 0.8874,
            "id": "COOP:290983",
            "elevationUnit": "METERS",
            "longitude": -106.3494
        },
        {
            "elevation": 1882.1,
            "mindate": "1976-03-01",
            "maxdate": "1976-07-01",
            "latitude": 33.83333,
            "name": "BINGHAM 7 ESE, NM US",
            "datacoverage": 0.9947,
            "id": "COOP:290984",
            "elevationUnit": "METERS",
            "longitude": -106.28333
        },
        {
            "elevation": 1116.8,
            "mindate": "1950-12-01",
            "maxdate": "2015-11-01",
            "latitude": 33.4594,
            "name": "BITTER LAKES WL REFUGE, NM US",
            "datacoverage": 0.9962,
            "id": "COOP:290992",
            "elevationUnit": "METERS",
            "longitude": -104.4041
        },
        {
            "elevation": 2635,
            "mindate": "1931-01-01",
            "maxdate": "2010-08-01",
            "latitude": 36.3119,
            "name": "BLACK LAKE, NM US",
            "datacoverage": 0.909,
            "id": "COOP:291000",
            "elevationUnit": "METERS",
            "longitude": -105.2691
        },
        {
            "elevation": 1966.9,
            "mindate": "1948-07-19",
            "maxdate": "1974-12-25",
            "latitude": 35.1,
            "name": "BLACK ROCK, NM US",
            "datacoverage": 0.0191,
            "id": "COOP:291018",
            "elevationUnit": "METERS",
            "longitude": -108.78333
        },
        {
            "elevation": 1769.7,
            "mindate": "1931-01-01",
            "maxdate": "2015-11-01",
            "latitude": 36.6669,
            "name": "BLOOMFIELD 3 SE, NM US",
            "datacoverage": 0.9461,
            "id": "COOP:291063",
            "elevationUnit": "METERS",
            "longitude": -107.9602
        },
        {
            "elevation": 2150.4,
            "mindate": "1947-10-01",
            "maxdate": "2014-01-01",
            "latitude": 33.4486,
            "name": "BONITO DAM, NM US",
            "datacoverage": 0.0274,
            "id": "COOP:291120",
            "elevationUnit": "METERS",
            "longitude": -105.6847
        },
        {
            "elevation": 1375.3,
            "mindate": "1931-01-01",
            "maxdate": "2015-11-01",
            "latitude": 33.8044,
            "name": "BOSQUE DEL APACHE, NM US",
            "datacoverage": 0.9735,
            "id": "COOP:291138",
            "elevationUnit": "METERS",
            "longitude": -106.8908
        },
        {
            "elevation": 979.3,
            "mindate": "1987-08-01",
            "maxdate": "2014-12-01",
            "latitude": 32.5158,
            "name": "BRANTLEY DAM, NM US",
            "datacoverage": 0.9786,
            "id": "COOP:291153",
            "elevationUnit": "METERS",
            "longitude": -104.3828
        },
        {
            "elevation": 2439.9,
            "mindate": "1970-03-01",
            "maxdate": "2008-09-01",
            "latitude": 36.7444,
            "name": "BRAZOS LODGE, NM US",
            "datacoverage": 0.9783,
            "id": "COOP:291180",
            "elevationUnit": "METERS",
            "longitude": -106.4472
        },
        {
            "elevation": 1464,
            "mindate": "1945-12-01",
            "maxdate": "2015-11-01",
            "latitude": 33.0389,
            "name": "BUCKHORN, NM US",
            "datacoverage": 0.9179,
            "id": "COOP:291252",
            "elevationUnit": "METERS",
            "longitude": -108.7135
        },
        {
            "elevation": 1292,
            "mindate": "1936-09-01",
            "maxdate": "2015-11-01",
            "latitude": 32.8965,
            "name": "CABALLO DAM, NM US",
            "datacoverage": 0.9706,
            "id": "COOP:291286",
            "elevationUnit": "METERS",
            "longitude": -107.3077
        },
        {
            "elevation": 1396,
            "mindate": "1941-01-01",
            "maxdate": "1998-05-01",
            "latitude": 34.90389,
            "name": "CAMERON, NM US",
            "datacoverage": 0.9914,
            "id": "COOP:291332",
            "elevationUnit": "METERS",
            "longitude": -103.44278
        },
        {
            "elevation": 2386,
            "mindate": "1938-09-01",
            "maxdate": "2015-11-01",
            "latitude": 36.4819,
            "name": "CANJILON R S, NM US",
            "datacoverage": 0.9558,
            "id": "COOP:291389",
            "elevationUnit": "METERS",
            "longitude": -106.4402
        },
        {
            "elevation": 1236.3,
            "mindate": "1942-01-01",
            "maxdate": "2005-08-01",
            "latitude": 34.27528,
            "name": "CANTON, NM US",
            "datacoverage": 0.9882,
            "id": "COOP:291423",
            "elevationUnit": "METERS",
            "longitude": -104.16361
        },
        {
            "elevation": 1975.1,
            "mindate": "1931-01-01",
            "maxdate": "2015-11-01",
            "latitude": 33.5311,
            "name": "CAPITAN, NM US",
            "datacoverage": 0.8205,
            "id": "COOP:291440",
            "elevationUnit": "METERS",
            "longitude": -105.5947
        },
        {
            "elevation": 1325.9,
            "mindate": "2007-07-01",
            "maxdate": "2015-11-01",
            "latitude": 33.3433,
            "name": "CAPROCK, NM US",
            "datacoverage": 0.97,
            "id": "COOP:291445",
            "elevationUnit": "METERS",
            "longitude": -103.6783
        },
        {
            "elevation": 1302.1,
            "mindate": "1947-10-01",
            "maxdate": "1972-01-01",
            "latitude": 33.35,
            "name": "CAPROCK 6 SE, NM US",
            "datacoverage": 0.0157,
            "id": "COOP:291446",
            "elevationUnit": "METERS",
            "longitude": -103.63333
        },
        {
            "elevation": 2084.8,
            "mindate": "1995-07-01",
            "maxdate": "2015-11-01",
            "latitude": 36.7386,
            "name": "CAPULIN, NM US",
            "datacoverage": 0.9428,
            "id": "COOP:291450",
            "elevationUnit": "METERS",
            "longitude": -103.9935
        },
        {
            "elevation": 2222.9,
            "mindate": "1966-02-01",
            "maxdate": "1979-09-01",
            "latitude": 36.78333,
            "name": "CAPULIN NATIONAL MONUMEN, NM US",
            "datacoverage": 1,
            "id": "COOP:291454",
            "elevationUnit": "METERS",
            "longitude": -103.96667
        },
        {
            "elevation": 951,
            "mindate": "1931-01-01",
            "maxdate": "2015-11-01",
            "latitude": 32.3479,
            "name": "CARLSBAD, NM US",
            "datacoverage": 0.9882,
            "id": "COOP:291469",
            "elevationUnit": "METERS",
            "longitude": -104.2224
        },
        {
            "elevation": 985.1,
            "mindate": "1942-09-01",
            "maxdate": "2015-11-01",
            "latitude": 32.3335,
            "name": "CAVERN CITY AIRPORT, NM US",
            "datacoverage": 0.9181,
            "id": "COOP:291475",
            "elevationUnit": "METERS",
            "longitude": -104.258
        },
        {
            "elevation": 1351.8,
            "mindate": "1931-01-01",
            "maxdate": "2014-12-01",
            "latitude": 32.1783,
            "name": "CARLSBAD CAVERNS, NM US",
            "datacoverage": 0.9603,
            "id": "COOP:291480",
            "elevationUnit": "METERS",
            "longitude": -104.4433
        },
        {
            "elevation": 1647.4,
            "mindate": "1931-01-01",
            "maxdate": "2012-10-01",
            "latitude": 33.6308,
            "name": "CARRIZOZO 1 SW, NM US",
            "datacoverage": 0.9733,
            "id": "COOP:291515",
            "elevationUnit": "METERS",
            "longitude": -105.8964
        },
        {
            "elevation": 2331.7,
            "mindate": "1931-01-01",
            "maxdate": "2015-11-01",
            "latitude": 36.7408,
            "name": "CERRO, NM US",
            "datacoverage": 0.95,
            "id": "COOP:291630",
            "elevationUnit": "METERS",
            "longitude": -105.5955
        },
        {
            "elevation": 1881.8,
            "mindate": "1932-06-01",
            "maxdate": "2015-11-01",
            "latitude": 36.0286,
            "name": "CHACO CANYON NATIONAL MON, NM US",
            "datacoverage": 0.9591,
            "id": "COOP:291647",
            "elevationUnit": "METERS",
            "longitude": -107.9106
        },
        {
            "elevation": 2591.4,
            "mindate": "1931-01-01",
            "maxdate": "1985-08-01",
            "latitude": 36.16667,
            "name": "CHACON, NM US",
            "datacoverage": 0.9771,
            "id": "COOP:291653",
            "elevationUnit": "METERS",
            "longitude": -105.38333
        },
        {
            "elevation": 2454.6,
            "mindate": "1985-10-01",
            "maxdate": "2013-12-01",
            "latitude": 36.12111,
            "name": "CHACON 2 S, NM US",
            "datacoverage": 0.9085,
            "id": "COOP:291656",
            "elevationUnit": "METERS",
            "longitude": -105.37556
        },
        {
            "elevation": 2392.7,
            "mindate": "1931-01-01",
            "maxdate": "2015-11-01",
            "latitude": 36.9177,
            "name": "CHAMA, NM US",
            "datacoverage": 0.9745,
            "id": "COOP:291664",
            "elevationUnit": "METERS",
            "longitude": -106.578
        },
        {
            "elevation": 1723,
            "mindate": "1978-05-01",
            "maxdate": "1981-12-01",
            "latitude": 36.06667,
            "name": "CHAMITA HIGHWAY BRIDGE, NM US",
            "datacoverage": 0.9987,
            "id": "COOP:291690",
            "elevationUnit": "METERS",
            "longitude": -106.11667
        },
        {
            "elevation": 1234.7,
            "mindate": "1998-01-01",
            "maxdate": "2011-12-01",
            "latitude": 32.0439,
            "name": "CHAPARRAL, NM US",
            "datacoverage": 0.8929,
            "id": "COOP:291721",
            "elevationUnit": "METERS",
            "longitude": -106.4332
        },
        {
            "elevation": 1993.4,
            "mindate": "1931-01-01",
            "maxdate": "2015-11-01",
            "latitude": 36.4661,
            "name": "CIMARRON 4 SW, NM US",
            "datacoverage": 0.9912,
            "id": "COOP:291813",
            "elevationUnit": "METERS",
            "longitude": -104.9456
        },
        {
            "elevation": 1645.9,
            "mindate": "1980-03-01",
            "maxdate": "1995-02-01",
            "latitude": 33.9,
            "name": "CIRCLE F RANCH, NM US",
            "datacoverage": 0.9215,
            "id": "COOP:291840",
            "elevationUnit": "METERS",
            "longitude": -105
        },
        {
            "elevation": 1524,
            "mindate": "1998-08-01",
            "maxdate": "2015-11-01",
            "latitude": 36.4594,
            "name": "CLAYTON 1 N, NM US",
            "datacoverage": 0.8173,
            "id": "COOP:291883",
            "elevationUnit": "METERS",
            "longitude": -103.1997
        },
        {
            "elevation": 1511.8,
            "mindate": "1947-01-01",
            "maxdate": "2015-11-01",
            "latitude": 36.4486,
            "name": "CLAYTON MUNICIPAL AIR PARK, NM US",
            "datacoverage": 0.8223,
            "id": "COOP:291887",
            "elevationUnit": "METERS",
            "longitude": -103.1539
        },
        {
            "elevation": 1454.8,
            "mindate": "1944-05-01",
            "maxdate": "2015-11-01",
            "latitude": 32.834,
            "name": "CLIFF 11 SE, NM US",
            "datacoverage": 0.986,
            "id": "COOP:291910",
            "elevationUnit": "METERS",
            "longitude": -108.5048
        },
        {
            "elevation": 2110.4,
            "mindate": "1968-12-01",
            "maxdate": "2015-11-01",
            "latitude": 34.9319,
            "name": "CLINES CORNERS 7 SE, NM US",
            "datacoverage": 0.8706,
            "id": "COOP:291918",
            "elevationUnit": "METERS",
            "longitude": -105.5872
        },
        {
            "elevation": 2688.6,
            "mindate": "1931-01-01",
            "maxdate": "1987-06-01",
            "latitude": 32.96667,
            "name": "CLOUDCROFT, NM US",
            "datacoverage": 0.8777,
            "id": "COOP:291927",
            "elevationUnit": "METERS",
            "longitude": -105.75
        },
        {
            "elevation": 2645.4,
            "mindate": "1987-09-01",
            "maxdate": "2015-11-01",
            "latitude": 32.9544,
            "name": "CLOUDCROFT, NM US",
            "datacoverage": 0.9882,
            "id": "COOP:291931",
            "elevationUnit": "METERS",
            "longitude": -105.7352
        },
        {
            "elevation": 2692.9,
            "mindate": "1973-12-01",
            "maxdate": "1979-06-01",
            "latitude": 32.96667,
            "name": "CLOUD COUNTRY CLUB, NM US",
            "datacoverage": 0.9853,
            "id": "COOP:291933",
            "elevationUnit": "METERS",
            "longitude": -105.75
        },
        {
            "elevation": 1621.5,
            "mindate": "1992-09-01",
            "maxdate": "1993-04-01",
            "latitude": 31.43333,
            "name": "CLOVERDALE 4 WNW, NM US",
            "datacoverage": 0.998,
            "id": "COOP:291935",
            "elevationUnit": "METERS",
            "longitude": -108.98333
        },
        {
            "elevation": 1309.1,
            "mindate": "1931-01-01",
            "maxdate": "2011-11-01",
            "latitude": 34.4288,
            "name": "CLOVIS, NM US",
            "datacoverage": 0.9563,
            "id": "COOP:291939",
            "elevationUnit": "METERS",
            "longitude": -103.1991
        },
        {
            "elevation": 1351.8,
            "mindate": "1949-07-01",
            "maxdate": "2015-11-01",
            "latitude": 34.5988,
            "name": "CLOVIS 13 N, NM US",
            "datacoverage": 0.9975,
            "id": "COOP:291963",
            "elevationUnit": "METERS",
            "longitude": -103.2161
        },
        {
            "elevation": 1694.7,
            "mindate": "1967-04-01",
            "maxdate": "2015-11-01",
            "latitude": 35.6413,
            "name": "COCHITI DAM, NM US",
            "datacoverage": 0.9409,
            "id": "COOP:291982",
            "elevationUnit": "METERS",
            "longitude": -106.3322
        },
        {
            "elevation": 1239,
            "mindate": "1941-01-01",
            "maxdate": "2011-07-01",
            "latitude": 31.82972,
            "name": "COLUMBUS, NM US",
            "datacoverage": 0.9834,
            "id": "COOP:292024",
            "elevationUnit": "METERS",
            "longitude": -107.63889
        },
        {
            "elevation": 1293.6,
            "mindate": "1936-12-01",
            "maxdate": "2015-11-01",
            "latitude": 35.4072,
            "name": "CONCHAS DAM, NM US",
            "datacoverage": 0.9895,
            "id": "COOP:292030",
            "elevationUnit": "METERS",
            "longitude": -104.1905
        },
        {
            "elevation": 2028.1,
            "mindate": "1931-01-01",
            "maxdate": "1977-02-01",
            "latitude": 34.25,
            "name": "CORONA, NM US",
            "datacoverage": 0.9785,
            "id": "COOP:292093",
            "elevationUnit": "METERS",
            "longitude": -105.58333
        },
        {
            "elevation": 2036.1,
            "mindate": "1992-10-01",
            "maxdate": "2015-11-01",
            "latitude": 34.1491,
            "name": "CORONA 10 SW, NM US",
            "datacoverage": 0.9857,
            "id": "COOP:292095",
            "elevationUnit": "METERS",
            "longitude": -105.6975
        },
        {
            "elevation": 1981.2,
            "mindate": "1977-12-01",
            "maxdate": "1992-09-01",
            "latitude": 34.1,
            "name": "CORONA LINCOLN COMPRESSOR STATION, NM US",
            "datacoverage": 1,
            "id": "COOP:292096",
            "elevationUnit": "METERS",
            "longitude": -105.68333
        },
        {
            "elevation": 1531.9,
            "mindate": "1982-10-01",
            "maxdate": "2015-11-01",
            "latitude": 35.2488,
            "name": "CORRALES, NM US",
            "datacoverage": 0.9498,
            "id": "COOP:292100",
            "elevationUnit": "METERS",
            "longitude": -106.595
        },
        {
            "elevation": 1264.9,
            "mindate": "1977-03-01",
            "maxdate": "1993-05-21",
            "latitude": 33.51667,
            "name": "CROSSROADS, NM US",
            "datacoverage": 0.0124,
            "id": "COOP:292203",
            "elevationUnit": "METERS",
            "longitude": -103.33333
        },
        {
            "elevation": 1261.3,
            "mindate": "1931-01-01",
            "maxdate": "2007-04-01",
            "latitude": 33.51333,
            "name": "CROSSROADS 2, NM US",
            "datacoverage": 0.9361,
            "id": "COOP:292207",
            "elevationUnit": "METERS",
            "longitude": -103.34028
        },
        {
            "elevation": 2105.6,
            "mindate": "1938-09-01",
            "maxdate": "2015-11-01",
            "latitude": 35.9951,
            "name": "CUBA, NM US",
            "datacoverage": 0.8921,
            "id": "COOP:292241",
            "elevationUnit": "METERS",
            "longitude": -106.9704
        },
        {
            "elevation": 1888.2,
            "mindate": "1977-01-01",
            "maxdate": "2015-11-01",
            "latitude": 35.0883,
            "name": "CUBERO, NM US",
            "datacoverage": 1,
            "id": "COOP:292250",
            "elevationUnit": "METERS",
            "longitude": -107.5177
        },
        {
            "elevation": 2080,
            "mindate": "1940-06-01",
            "maxdate": "1970-08-01",
            "latitude": 36.68333,
            "name": "CUNICO RANCH, NM US",
            "datacoverage": 0.9752,
            "id": "COOP:292321",
            "elevationUnit": "METERS",
            "longitude": -104.11667
        },
        {
            "elevation": 1585,
            "mindate": "1940-04-01",
            "maxdate": "1985-08-01",
            "latitude": 32.54278,
            "name": "THOMPSON CANYON RANCH, NM US",
            "datacoverage": 0.9908,
            "id": "COOP:292324",
            "elevationUnit": "METERS",
            "longitude": -108.63694
        },
        {
            "elevation": 2073.9,
            "mindate": "1957-03-01",
            "maxdate": "1974-05-01",
            "latitude": 33.8,
            "name": "YORK RANCH, NM US",
            "datacoverage": 0.9468,
            "id": "COOP:292362",
            "elevationUnit": "METERS",
            "longitude": -108.33333
        },
        {
            "elevation": 1196,
            "mindate": "2005-08-01",
            "maxdate": "2015-11-01",
            "latitude": 32.2766,
            "name": "DARK CANYON ROAD, NM US",
            "datacoverage": 0.9597,
            "id": "COOP:292365",
            "elevationUnit": "METERS",
            "longitude": -104.5136
        },
        {
            "elevation": 1310.6,
            "mindate": "1899-06-01",
            "maxdate": "2011-04-01",
            "latitude": 32.25306,
            "name": "DEMING, NM US",
            "datacoverage": 0.9087,
            "id": "COOP:292436",
            "elevationUnit": "METERS",
            "longitude": -107.75306
        },
        {
            "elevation": 1310.9,
            "mindate": "1961-04-01",
            "maxdate": "1982-06-01",
            "latitude": 32.26222,
            "name": "DEMING MUNICIPAL AIRPORT, NM US",
            "datacoverage": 0.984,
            "id": "COOP:292440",
            "elevationUnit": "METERS",
            "longitude": -107.72056
        },
        {
            "elevation": 2017.8,
            "mindate": "1931-01-01",
            "maxdate": "1994-06-01",
            "latitude": 36.75,
            "name": "DES MOINES, NM US",
            "datacoverage": 0.9791,
            "id": "COOP:292453",
            "elevationUnit": "METERS",
            "longitude": -103.83333
        },
        {
            "elevation": 1585,
            "mindate": "1985-09-01",
            "maxdate": "1989-06-01",
            "latitude": 32.54278,
            "name": "THOMPSON CANYON RANCH, NM US",
            "datacoverage": 0.979,
            "id": "COOP:292468",
            "elevationUnit": "METERS",
            "longitude": -108.63694
        },
        {
            "elevation": 1569.7,
            "mindate": "1941-11-01",
            "maxdate": "2015-11-01",
            "latitude": 35.1841,
            "name": "DILIA, NM US",
            "datacoverage": 0.9753,
            "id": "COOP:292510",
            "elevationUnit": "METERS",
            "longitude": -105.0569
        },
        {
            "elevation": 2070.5,
            "mindate": "1931-01-01",
            "maxdate": "2015-11-01",
            "latitude": 36.9358,
            "name": "DULCE, NM US",
            "datacoverage": 0.9372,
            "id": "COOP:292608",
            "elevationUnit": "METERS",
            "longitude": -107
        },
        {
            "elevation": 1915.7,
            "mindate": "1947-10-01",
            "maxdate": "2014-01-01",
            "latitude": 34.4691,
            "name": "DURAN, NM US",
            "datacoverage": 0.0223,
            "id": "COOP:292665",
            "elevationUnit": "METERS",
            "longitude": -105.3975
        },
        {
            "elevation": 1072.9,
            "mindate": "1968-03-01",
            "maxdate": "1986-07-01",
            "latitude": 32.535,
            "name": "WESTERN AG MINERALS, NM US",
            "datacoverage": 1,
            "id": "COOP:292677",
            "elevationUnit": "METERS",
            "longitude": -103.93556
        },
        {
            "elevation": 2523.7,
            "mindate": "1931-04-01",
            "maxdate": "2015-11-01",
            "latitude": 36.5575,
            "name": "EAGLE NEST, NM US",
            "datacoverage": 0.9734,
            "id": "COOP:292700",
            "elevationUnit": "METERS",
            "longitude": -105.2627
        },
        {
            "elevation": 2106.2,
            "mindate": "1998-06-01",
            "maxdate": "2008-01-01",
            "latitude": 35.1675,
            "name": "EDGEWOOD CEDAR GROVE, NM US",
            "datacoverage": 0.9996,
            "id": "COOP:292753",
            "elevationUnit": "METERS",
            "longitude": -106.2061
        },
        {
            "elevation": 2201.6,
            "mindate": "1938-03-01",
            "maxdate": "2015-11-01",
            "latitude": 35.038,
            "name": "EL MORRO NATIONAL MON, NM US",
            "datacoverage": 0.986,
            "id": "COOP:292785",
            "elevationUnit": "METERS",
            "longitude": -108.3491
        },
        {
            "elevation": 2094,
            "mindate": "1931-01-01",
            "maxdate": "2015-11-01",
            "latitude": 36.3466,
            "name": "EL RITO, NM US",
            "datacoverage": 0.9657,
            "id": "COOP:292820",
            "elevationUnit": "METERS",
            "longitude": -106.1877
        },
        {
            "elevation": 2054.4,
            "mindate": "1936-07-01",
            "maxdate": "2015-11-01",
            "latitude": 36.5927,
            "name": "EL VADO DAM, NM US",
            "datacoverage": 0.9853,
            "id": "COOP:292837",
            "elevationUnit": "METERS",
            "longitude": -106.73
        },
        {
            "elevation": 1393.2,
            "mindate": "1908-08-01",
            "maxdate": "2015-11-01",
            "latitude": 33.146,
            "name": "ELEPHANT BUTTE DAM, NM US",
            "datacoverage": 0.9666,
            "id": "COOP:292848",
            "elevationUnit": "METERS",
            "longitude": -107.1843
        },
        {
            "elevation": 1339.6,
            "mindate": "1931-01-01",
            "maxdate": "2012-12-01",
            "latitude": 33.9402,
            "name": "ELIDA, NM US",
            "datacoverage": 0.9674,
            "id": "COOP:292854",
            "elevationUnit": "METERS",
            "longitude": -103.6572
        },
        {
            "elevation": 1808.7,
            "mindate": "1931-01-01",
            "maxdate": "2015-11-01",
            "latitude": 32.916,
            "name": "ELK, NM US",
            "datacoverage": 0.9686,
            "id": "COOP:292865",
            "elevationUnit": "METERS",
            "longitude": -105.3381
        },
        {
            "elevation": 1774.9,
            "mindate": "1961-06-01",
            "maxdate": "1976-05-01",
            "latitude": 33.21667,
            "name": "ENGLE 14 E, NM US",
            "datacoverage": 1,
            "id": "COOP:292960",
            "elevationUnit": "METERS",
            "longitude": -106.8
        },
        {
            "elevation": 1610,
            "mindate": "1976-06-01",
            "maxdate": "1988-12-01",
            "latitude": 33.3,
            "name": "ENGLE 15 NE, NM US",
            "datacoverage": 0.9932,
            "id": "COOP:292965",
            "elevationUnit": "METERS",
            "longitude": -106.83333
        },
        {
            "elevation": 1713,
            "mindate": "1938-04-01",
            "maxdate": "2013-12-01",
            "latitude": 35.9988,
            "name": "ESPANOLA, NM US",
            "datacoverage": 0.8955,
            "id": "COOP:293031",
            "elevationUnit": "METERS",
            "longitude": -106.0588
        },
        {
            "elevation": 1871.5,
            "mindate": "1937-05-01",
            "maxdate": "2015-11-01",
            "latitude": 34.8241,
            "name": "ESTANCIA 4 N, NM US",
            "datacoverage": 0.9756,
            "id": "COOP:293060",
            "elevationUnit": "METERS",
            "longitude": -106.0344
        },
        {
            "elevation": 1647.1,
            "mindate": "1931-01-01",
            "maxdate": "1978-03-24",
            "latitude": 36.75,
            "name": "FARMINGTON 4 NE, NM US",
            "datacoverage": 0.9348,
            "id": "COOP:293134",
            "elevationUnit": "METERS",
            "longitude": -108.16667
        },
        {
            "elevation": 1714.5,
            "mindate": "1978-04-01",
            "maxdate": "2015-11-01",
            "latitude": 36.6897,
            "name": "FARMINGTON AG SCIENCE CNT, NM US",
            "datacoverage": 0.9955,
            "id": "COOP:293142",
            "elevationUnit": "METERS",
            "longitude": -108.3086
        },
        {
            "elevation": 1645.9,
            "mindate": "1942-01-01",
            "maxdate": "1980-05-01",
            "latitude": 33.9,
            "name": "CIRCLE F RANCH, NM US",
            "datacoverage": 0.9826,
            "id": "COOP:293145",
            "elevationUnit": "METERS",
            "longitude": -105
        },
        {
            "elevation": 1600.5,
            "mindate": "1946-06-01",
            "maxdate": "2015-11-01",
            "latitude": 32.6287,
            "name": "FAYWOOD, NM US",
            "datacoverage": 0.9376,
            "id": "COOP:293157",
            "elevationUnit": "METERS",
            "longitude": -107.8733
        },
        {
            "elevation": 2153.4,
            "mindate": "1933-11-01",
            "maxdate": "2007-09-01",
            "latitude": 34.65278,
            "name": "FENCE LAKE, NM US",
            "datacoverage": 0.6708,
            "id": "COOP:293180",
            "elevationUnit": "METERS",
            "longitude": -108.67639
        },
        {
            "elevation": 2130.6,
            "mindate": "2008-09-01",
            "maxdate": "2013-12-01",
            "latitude": 34.67917,
            "name": "FENCE LAKE 2, NM US",
            "datacoverage": 0.8438,
            "id": "COOP:293182",
            "elevationUnit": "METERS",
            "longitude": -108.72306
        },
        {
            "elevation": 1356.4,
            "mindate": "1929-08-01",
            "maxdate": "1992-07-31",
            "latitude": 32.43333,
            "name": "FLORIDA, NM US",
            "datacoverage": 0.8687,
            "id": "COOP:293225",
            "elevationUnit": "METERS",
            "longitude": -107.48333
        },
        {
            "elevation": 1617,
            "mindate": "1965-01-01",
            "maxdate": "1978-09-01",
            "latitude": 33,
            "name": "FLYING H, NM US",
            "datacoverage": 1,
            "id": "COOP:293237",
            "elevationUnit": "METERS",
            "longitude": -105.1
        },
        {
            "elevation": 1859,
            "mindate": "1931-01-01",
            "maxdate": "2011-07-01",
            "latitude": 32.7938,
            "name": "FORT BAYARD, NM US",
            "datacoverage": 0.9927,
            "id": "COOP:293265",
            "elevationUnit": "METERS",
            "longitude": -108.1515
        },
        {
            "elevation": 1897.1,
            "mindate": "1931-01-01",
            "maxdate": "1975-12-01",
            "latitude": 33.5,
            "name": "FORT STANTON, NM US",
            "datacoverage": 0.9413,
            "id": "COOP:293288",
            "elevationUnit": "METERS",
            "longitude": -105.51667
        },
        {
            "elevation": 1226.8,
            "mindate": "1931-01-01",
            "maxdate": "2011-12-01",
            "latitude": 34.4666,
            "name": "FORT SUMNER, NM US",
            "datacoverage": 0.9558,
            "id": "COOP:293294",
            "elevationUnit": "METERS",
            "longitude": -104.2319
        },
        {
            "elevation": 1234.4,
            "mindate": "1946-01-01",
            "maxdate": "2015-11-01",
            "latitude": 34.3941,
            "name": "FORT SUMNER 5 S, NM US",
            "datacoverage": 0.9905,
            "id": "COOP:293296",
            "elevationUnit": "METERS",
            "longitude": -104.2502
        },
        {
            "elevation": 1563.6,
            "mindate": "1938-06-01",
            "maxdate": "2010-08-01",
            "latitude": 36.73806,
            "name": "FRUITLAND, NM US",
            "datacoverage": 0.9446,
            "id": "COOP:293340",
            "elevationUnit": "METERS",
            "longitude": -108.34833
        },
        {
            "elevation": 1365.2,
            "mindate": "1899-06-01",
            "maxdate": "2007-01-01",
            "latitude": 32.22611,
            "name": "GAGE, NM US",
            "datacoverage": 0.9427,
            "id": "COOP:293368",
            "elevationUnit": "METERS",
            "longitude": -108.08667
        },
        {
            "elevation": 1857.1,
            "mindate": "1958-01-01",
            "maxdate": "1978-01-01",
            "latitude": 35.4,
            "name": "GALISTEO, NM US",
            "datacoverage": 0.0275,
            "id": "COOP:293374",
            "elevationUnit": "METERS",
            "longitude": -105.95
        },
        {
            "elevation": 2012.9,
            "mindate": "1948-05-01",
            "maxdate": "1979-12-01",
            "latitude": 35.53333,
            "name": "GALLUP 5 E, NM US",
            "datacoverage": 0.9605,
            "id": "COOP:293420",
            "elevationUnit": "METERS",
            "longitude": -108.65
        },
        {
            "elevation": 1972.4,
            "mindate": "1973-07-01",
            "maxdate": "2015-11-01",
            "latitude": 35.5144,
            "name": "GALLUP MUNICIPAL AIRPORT, NM US",
            "datacoverage": 0.9627,
            "id": "COOP:293422",
            "elevationUnit": "METERS",
            "longitude": -108.794
        },
        {
            "elevation": 2165.9,
            "mindate": "1966-09-01",
            "maxdate": "1975-01-01",
            "latitude": 35.45,
            "name": "GALLUP RANGER STATION, NM US",
            "datacoverage": 0.9997,
            "id": "COOP:293425",
            "elevationUnit": "METERS",
            "longitude": -108.56667
        },
        {
            "elevation": 2004.7,
            "mindate": "2008-10-01",
            "maxdate": "2015-11-01",
            "latitude": 35.5282,
            "name": "GALLUP SAND AND GRAVEL, NM US",
            "datacoverage": 0.9886,
            "id": "COOP:293428",
            "elevationUnit": "METERS",
            "longitude": -108.7031
        },
        {
            "elevation": 2514.6,
            "mindate": "1953-11-01",
            "maxdate": "2015-11-01",
            "latitude": 35.8917,
            "name": "GASCON, NM US",
            "datacoverage": 0.9933,
            "id": "COOP:293488",
            "elevationUnit": "METERS",
            "longitude": -105.4481
        },
        {
            "elevation": 2263.1,
            "mindate": "1931-01-01",
            "maxdate": "1970-01-01",
            "latitude": 36.43333,
            "name": "GAVILAN, NM US",
            "datacoverage": 0.9808,
            "id": "COOP:293505",
            "elevationUnit": "METERS",
            "longitude": -106.96667
        },
        {
            "elevation": 1524.9,
            "mindate": "1971-09-01",
            "maxdate": "1974-01-01",
            "latitude": 34.68333,
            "name": "GENNETTI RANCH, NM US",
            "datacoverage": 0.8264,
            "id": "COOP:293509",
            "elevationUnit": "METERS",
            "longitude": -104.65
        },
        {
            "elevation": 1981.2,
            "mindate": "1942-01-01",
            "maxdate": "2015-11-01",
            "latitude": 36.3336,
            "name": "GHOST RANCH, NM US",
            "datacoverage": 0.938,
            "id": "COOP:293511",
            "elevationUnit": "METERS",
            "longitude": -106.4744
        },
        {
            "elevation": 1717.9,
            "mindate": "1957-05-01",
            "maxdate": "2015-11-01",
            "latitude": 33.1975,
            "name": "GILA HOT SPRINGS, NM US",
            "datacoverage": 0.9473,
            "id": "COOP:293530",
            "elevationUnit": "METERS",
            "longitude": -108.2075
        },
        {
            "elevation": 1440.2,
            "mindate": "1948-06-01",
            "maxdate": "2015-11-01",
            "latitude": 33.3216,
            "name": "GLENWOOD, NM US",
            "datacoverage": 0.9543,
            "id": "COOP:293577",
            "elevationUnit": "METERS",
            "longitude": -108.8794
        },
        {
            "elevation": 2292.1,
            "mindate": "1944-07-01",
            "maxdate": "2010-07-01",
            "latitude": 35.5816,
            "name": "GLORIETA, NM US",
            "datacoverage": 0.9659,
            "id": "COOP:293586",
            "elevationUnit": "METERS",
            "longitude": -105.7727
        },
        {
            "elevation": 2042.2,
            "mindate": "1944-07-01",
            "maxdate": "2015-11-01",
            "latitude": 35.2655,
            "name": "GOLDEN, NM US",
            "datacoverage": 0.9487,
            "id": "COOP:293592",
            "elevationUnit": "METERS",
            "longitude": -106.2144
        },
        {
            "elevation": 2011.7,
            "mindate": "1931-01-01",
            "maxdate": "2015-11-01",
            "latitude": 34.2594,
            "name": "GRAN QUIVIRA NATIONAL MON, NM US",
            "datacoverage": 0.9706,
            "id": "COOP:293649",
            "elevationUnit": "METERS",
            "longitude": -106.0931
        },
        {
            "elevation": 1987.3,
            "mindate": "1953-05-01",
            "maxdate": "2015-11-01",
            "latitude": 35.1663,
            "name": "GRANTS MILAN MUNICIPAL AIRPORT, NM US",
            "datacoverage": 0.976,
            "id": "COOP:293682",
            "elevationUnit": "METERS",
            "longitude": -107.8991
        },
        {
            "elevation": 1829.4,
            "mindate": "1940-11-01",
            "maxdate": "2015-11-01",
            "latitude": 36.5938,
            "name": "GRENVILLE, NM US",
            "datacoverage": 0.9634,
            "id": "COOP:293706",
            "elevationUnit": "METERS",
            "longitude": -103.6191
        },
        {
            "elevation": 1361.2,
            "mindate": "1931-01-01",
            "maxdate": "2015-11-01",
            "latitude": 31.9194,
            "name": "HACHITA 1 W, NM US",
            "datacoverage": 0.8803,
            "id": "COOP:293775",
            "elevationUnit": "METERS",
            "longitude": -108.3441
        },
        {
            "elevation": 1242.1,
            "mindate": "1931-01-01",
            "maxdate": "2008-04-01",
            "latitude": 32.6775,
            "name": "HATCH, NM US",
            "datacoverage": 0.8599,
            "id": "COOP:293855",
            "elevationUnit": "METERS",
            "longitude": -107.19583
        },
        {
            "elevation": 2117.1,
            "mindate": "1971-07-01",
            "maxdate": "1971-11-01",
            "latitude": 36.63333,
            "name": "HENNIGAN RANCH, NM US",
            "datacoverage": 0.7958,
            "id": "COOP:293925",
            "elevationUnit": "METERS",
            "longitude": -104.13333
        },
        {
            "elevation": 2379,
            "mindate": "1947-09-01",
            "maxdate": "1985-01-01",
            "latitude": 34.51667,
            "name": "HICKMAN, NM US",
            "datacoverage": 0.9687,
            "id": "COOP:293969",
            "elevationUnit": "METERS",
            "longitude": -107.93333
        },
        {
            "elevation": 1605.4,
            "mindate": "1889-01-01",
            "maxdate": "2015-11-01",
            "latitude": 32.9202,
            "name": "HILLSBORO, NM US",
            "datacoverage": 0.8615,
            "id": "COOP:294009",
            "elevationUnit": "METERS",
            "longitude": -107.5656
        },
        {
            "elevation": 1115.6,
            "mindate": "1932-05-01",
            "maxdate": "2015-11-01",
            "latitude": 32.7263,
            "name": "HOBBS, NM US",
            "datacoverage": 0.9053,
            "id": "COOP:294026",
            "elevationUnit": "METERS",
            "longitude": -103.1313
        },
        {
            "elevation": 1114,
            "mindate": "1941-09-01",
            "maxdate": "2015-11-01",
            "latitude": 32.6933,
            "name": "HOBBS FAA, NM US",
            "datacoverage": 0.2211,
            "id": "COOP:294028",
            "elevationUnit": "METERS",
            "longitude": -103.2125
        },
        {
            "elevation": 1169.2,
            "mindate": "1996-10-01",
            "maxdate": "2015-11-01",
            "latitude": 32.7125,
            "name": "HOBBS 13 W, NM US",
            "datacoverage": 0.7914,
            "id": "COOP:294030",
            "elevationUnit": "METERS",
            "longitude": -103.3538
        },
        {
            "elevation": 1606.3,
            "mindate": "1947-10-01",
            "maxdate": "2014-01-01",
            "latitude": 33.3802,
            "name": "HONDO 1 SE, NM US",
            "datacoverage": 0.0174,
            "id": "COOP:294089",
            "elevationUnit": "METERS",
            "longitude": -105.2544
        },
        {
            "elevation": 1245.1,
            "mindate": "1931-01-01",
            "maxdate": "2015-11-01",
            "latitude": 32.80954,
            "name": "HOPE, NM US",
            "datacoverage": 0.6565,
            "id": "COOP:294112",
            "elevationUnit": "METERS",
            "longitude": -104.73791
        },
        {
            "elevation": 1470.7,
            "mindate": "1940-10-01",
            "maxdate": "2015-11-01",
            "latitude": 34.6344,
            "name": "HOUSE, NM US",
            "datacoverage": 0.9701,
            "id": "COOP:294175",
            "elevationUnit": "METERS",
            "longitude": -103.8902
        },
        {
            "elevation": 930.9,
            "mindate": "1932-02-01",
            "maxdate": "2015-11-01",
            "latitude": 32.1103,
            "name": "JAL, NM US",
            "datacoverage": 0.8698,
            "id": "COOP:294346",
            "elevationUnit": "METERS",
            "longitude": -103.1872
        },
        {
            "elevation": 1642.3,
            "mindate": "1953-09-01",
            "maxdate": "2015-11-01",
            "latitude": 35.3886,
            "name": "JEMEZ DAM, NM US",
            "datacoverage": 0.3615,
            "id": "COOP:294366",
            "elevationUnit": "METERS",
            "longitude": -106.5438
        },
        {
            "elevation": 1908.7,
            "mindate": "1931-01-01",
            "maxdate": "2015-11-01",
            "latitude": 35.7783,
            "name": "JEMEZ SPRINGS, NM US",
            "datacoverage": 0.9765,
            "id": "COOP:294369",
            "elevationUnit": "METERS",
            "longitude": -106.6872
        },
        {
            "elevation": 2195.5,
            "mindate": "1944-07-01",
            "maxdate": "2015-11-01",
            "latitude": 35.9547,
            "name": "JOHNSON RANCH, NM US",
            "datacoverage": 0.965,
            "id": "COOP:294398",
            "elevationUnit": "METERS",
            "longitude": -107.0855
        },
        {
            "elevation": 1316.1,
            "mindate": "1914-01-01",
            "maxdate": "2015-11-01",
            "latitude": 32.6161,
            "name": "JORNADA EXPERIMENTAL RANGE, NM US",
            "datacoverage": 0.9739,
            "id": "COOP:294426",
            "elevationUnit": "METERS",
            "longitude": -106.7404
        },
        {
            "elevation": 2041.9,
            "mindate": "1945-10-01",
            "maxdate": "2015-10-01",
            "latitude": 34.0311,
            "name": "KELLY RANCH, NM US",
            "datacoverage": 0.9619,
            "id": "COOP:294461",
            "elevationUnit": "METERS",
            "longitude": -107.125
        },
        {
            "elevation": 1777,
            "mindate": "1931-01-01",
            "maxdate": "2006-11-01",
            "latitude": 35.0463,
            "name": "LAGUNA, NM US",
            "datacoverage": 0.8018,
            "id": "COOP:294719",
            "elevationUnit": "METERS",
            "longitude": -107.3736
        },
        {
            "elevation": 979,
            "mindate": "1931-01-01",
            "maxdate": "1979-02-01",
            "latitude": 32.48333,
            "name": "LAKE AVALON, NM US",
            "datacoverage": 0.988,
            "id": "COOP:294736",
            "elevationUnit": "METERS",
            "longitude": -104.25
        },
        {
            "elevation": 2255.5,
            "mindate": "1942-09-01",
            "maxdate": "2015-11-01",
            "latitude": 36.9825,
            "name": "LAKE MALOYA, NM US",
            "datacoverage": 0.9761,
            "id": "COOP:294742",
            "elevationUnit": "METERS",
            "longitude": -104.3752
        },
        {
            "elevation": 1720,
            "mindate": "1971-08-01",
            "maxdate": "1978-09-01",
            "latitude": 32.73333,
            "name": "LANEY RANCH, NM US",
            "datacoverage": 0.9999,
            "id": "COOP:294786",
            "elevationUnit": "METERS",
            "longitude": -107.65
        },
        {
            "elevation": 2012.9,
            "mindate": "1931-01-01",
            "maxdate": "1983-07-01",
            "latitude": 35.61667,
            "name": "LAS VEGAS 2 NW, NM US",
            "datacoverage": 0.9317,
            "id": "COOP:294850",
            "elevationUnit": "METERS",
            "longitude": -105.26667
        },
        {
            "elevation": 2095.2,
            "mindate": "1940-11-01",
            "maxdate": "2002-03-01",
            "latitude": 35.65417,
            "name": "LAS VEGAS MUNICIPAL AIRPORT, NM US",
            "datacoverage": 0.9933,
            "id": "COOP:294856",
            "elevationUnit": "METERS",
            "longitude": -105.14194
        },
        {
            "elevation": 1935.2,
            "mindate": "1983-06-01",
            "maxdate": "2015-11-01",
            "latitude": 35.5677,
            "name": "LAS VEGAS WASTE WATER PLANT, NM US",
            "datacoverage": 0.9562,
            "id": "COOP:294862",
            "elevationUnit": "METERS",
            "longitude": -105.213
        },
        {
            "elevation": 1720,
            "mindate": "1962-02-01",
            "maxdate": "1971-08-01",
            "latitude": 32.73333,
            "name": "LANEY RANCH, NM US",
            "datacoverage": 0.9917,
            "id": "COOP:294864",
            "elevationUnit": "METERS",
            "longitude": -107.65
        },
        {
            "elevation": 2200.7,
            "mindate": "1971-08-01",
            "maxdate": "2015-11-01",
            "latitude": 36.3041,
            "name": "LINDRITH 1 WSW, NM US",
            "datacoverage": 0.9643,
            "id": "COOP:294960",
            "elevationUnit": "METERS",
            "longitude": -107.0541
        },
        {
            "elevation": 1293.6,
            "mindate": "1931-01-01",
            "maxdate": "2014-12-01",
            "latitude": 32.30944,
            "name": "LORDSBURG 4 SE, NM US",
            "datacoverage": 0.9742,
            "id": "COOP:295079",
            "elevationUnit": "METERS",
            "longitude": -108.65306
        },
        {
            "elevation": 2262.8,
            "mindate": "1931-01-01",
            "maxdate": "2015-11-01",
            "latitude": 35.8644,
            "name": "LOS ALAMOS, NM US",
            "datacoverage": 0.9824,
            "id": "COOP:295084",
            "elevationUnit": "METERS",
            "longitude": -106.3213
        },
        {
            "elevation": 1475.2,
            "mindate": "1957-07-01",
            "maxdate": "2015-11-01",
            "latitude": 34.7675,
            "name": "LOS LUNAS 3 SSW, NM US",
            "datacoverage": 0.9958,
            "id": "COOP:295150",
            "elevationUnit": "METERS",
            "longitude": -106.7611
        },
        {
            "elevation": 2148.8,
            "mindate": "1931-01-01",
            "maxdate": "2015-11-01",
            "latitude": 33.8225,
            "name": "LUNA R S, NM US",
            "datacoverage": 0.9627,
            "id": "COOP:295273",
            "elevationUnit": "METERS",
            "longitude": -108.9416
        },
        {
            "elevation": 2179.3,
            "mindate": "1951-05-01",
            "maxdate": "2011-12-01",
            "latitude": 36.2302,
            "name": "LYBROOK, NM US",
            "datacoverage": 0.8887,
            "id": "COOP:295290",
            "elevationUnit": "METERS",
            "longitude": -107.5472
        },
        {
            "elevation": 1993.4,
            "mindate": "1931-01-01",
            "maxdate": "1993-10-01",
            "latitude": 34.11667,
            "name": "MAGDALENA, NM US",
            "datacoverage": 0.939,
            "id": "COOP:295353",
            "elevationUnit": "METERS",
            "longitude": -107.23333
        },
        {
            "elevation": 1266.1,
            "mindate": "1942-07-01",
            "maxdate": "2012-10-01",
            "latitude": 32.8568,
            "name": "MALJAMAR, NM US",
            "datacoverage": 0.8453,
            "id": "COOP:295370",
            "elevationUnit": "METERS",
            "longitude": -103.7624
        },
        {
            "elevation": 2324.1,
            "mindate": "1942-01-01",
            "maxdate": "1975-10-01",
            "latitude": 35.3,
            "name": "MARQUEZ, NM US",
            "datacoverage": 0.9828,
            "id": "COOP:295467",
            "elevationUnit": "METERS",
            "longitude": -107.3
        },
        {
            "elevation": 1834,
            "mindate": "1931-01-01",
            "maxdate": "2015-11-01",
            "latitude": 36.5697,
            "name": "MAXWELL 3 NW, NM US",
            "datacoverage": 0.79,
            "id": "COOP:295490",
            "elevationUnit": "METERS",
            "longitude": -104.5866
        },
        {
            "elevation": 2001,
            "mindate": "1931-01-01",
            "maxdate": "1976-08-01",
            "latitude": 32.91667,
            "name": "MAYHILL RANGER STATION, NM US",
            "datacoverage": 0.9909,
            "id": "COOP:295502",
            "elevationUnit": "METERS",
            "longitude": -105.46667
        },
        {
            "elevation": 1344.2,
            "mindate": "1983-11-01",
            "maxdate": "2015-11-01",
            "latitude": 35.6022,
            "name": "MCCARTY RANCH, NM US",
            "datacoverage": 0.9922,
            "id": "COOP:295516",
            "elevationUnit": "METERS",
            "longitude": -103.3644
        },
        {
            "elevation": 2438.4,
            "mindate": "1932-08-01",
            "maxdate": "2013-12-01",
            "latitude": 35.3363,
            "name": "MCGAFFEY 5 SE, NM US",
            "datacoverage": 0.7778,
            "id": "COOP:295560",
            "elevationUnit": "METERS",
            "longitude": -108.4447
        },
        {
            "elevation": 1905.9,
            "mindate": "1931-01-01",
            "maxdate": "1976-08-01",
            "latitude": 34.91667,
            "name": "MC INTOSH 4 NW, NM US",
            "datacoverage": 0.989,
            "id": "COOP:295583",
            "elevationUnit": "METERS",
            "longitude": -106.08333
        },
        {
            "elevation": 1401.8,
            "mindate": "1931-10-01",
            "maxdate": "2015-11-01",
            "latitude": 34.4277,
            "name": "MELROSE, NM US",
            "datacoverage": 0.9743,
            "id": "COOP:295617",
            "elevationUnit": "METERS",
            "longitude": -103.625
        },
        {
            "elevation": 2047,
            "mindate": "1931-01-01",
            "maxdate": "1978-09-01",
            "latitude": 33.15,
            "name": "MESCALERO, NM US",
            "datacoverage": 0.9302,
            "id": "COOP:295657",
            "elevationUnit": "METERS",
            "longitude": -105.78333
        },
        {
            "elevation": 1964.1,
            "mindate": "1934-05-01",
            "maxdate": "1972-03-01",
            "latitude": 35.8,
            "name": "MEXICAN SPRINGS, NM US",
            "datacoverage": 0.9164,
            "id": "COOP:295685",
            "elevationUnit": "METERS",
            "longitude": -108.83333
        },
        {
            "elevation": 1901.3,
            "mindate": "1931-01-01",
            "maxdate": "2011-04-01",
            "latitude": 32.9325,
            "name": "MIMBRES RANGER STATION, NM US",
            "datacoverage": 0.9802,
            "id": "COOP:295754",
            "elevationUnit": "METERS",
            "longitude": -108.0142
        },
        {
            "elevation": 2073.9,
            "mindate": "1948-07-01",
            "maxdate": "1973-11-01",
            "latitude": 33.38333,
            "name": "MOGOLLON, NM US",
            "datacoverage": 0.0384,
            "id": "COOP:295800",
            "elevationUnit": "METERS",
            "longitude": -108.78333
        },
        {
            "elevation": 2208,
            "mindate": "1971-08-01",
            "maxdate": "1973-11-01",
            "latitude": 35.68333,
            "name": "MONTEZUMA 8 NW, NM US",
            "datacoverage": 0.0395,
            "id": "COOP:295866",
            "elevationUnit": "METERS",
            "longitude": -105.38333
        },
        {
            "elevation": 1895.9,
            "mindate": "1998-07-01",
            "maxdate": "2015-11-01",
            "latitude": 35.0128,
            "name": "MORIARTY 1 NE, NM US",
            "datacoverage": 0.9999,
            "id": "COOP:295908",
            "elevationUnit": "METERS",
            "longitude": -106.045
        },
        {
            "elevation": 1665.7,
            "mindate": "1931-01-01",
            "maxdate": "2015-11-01",
            "latitude": 35.8022,
            "name": "MOSQUERO 1 NE, NM US",
            "datacoverage": 0.9568,
            "id": "COOP:295937",
            "elevationUnit": "METERS",
            "longitude": -103.9438
        },
        {
            "elevation": 2073.9,
            "mindate": "1931-01-01",
            "maxdate": "2015-11-01",
            "latitude": 32.9539,
            "name": "MOUNTAIN PARK, NM US",
            "datacoverage": 0.9824,
            "id": "COOP:295960",
            "elevationUnit": "METERS",
            "longitude": -105.8226
        },
        {
            "elevation": 1987.3,
            "mindate": "1931-01-01",
            "maxdate": "2015-11-01",
            "latitude": 34.5208,
            "name": "MOUNTAINAIR, NM US",
            "datacoverage": 0.9509,
            "id": "COOP:295965",
            "elevationUnit": "METERS",
            "longitude": -106.2605
        },
        {
            "elevation": 2033.6,
            "mindate": "2008-04-01",
            "maxdate": "2015-11-01",
            "latitude": 34.6241,
            "name": "MOUNTAINAIR 8 NW, NM US",
            "datacoverage": 0.9783,
            "id": "COOP:295968",
            "elevationUnit": "METERS",
            "longitude": -106.3102
        },
        {
            "elevation": 1001.3,
            "mindate": "2009-04-01",
            "maxdate": "2015-11-01",
            "latitude": 32.6236,
            "name": "NADINE 2 E, NM US",
            "datacoverage": 1,
            "id": "COOP:296006",
            "elevationUnit": "METERS",
            "longitude": -103.0842
        },
        {
            "elevation": 1845,
            "mindate": "1931-01-01",
            "maxdate": "1974-12-01",
            "latitude": 35.9,
            "name": "NAMBE 1, NM US",
            "datacoverage": 0.6345,
            "id": "COOP:296028",
            "elevationUnit": "METERS",
            "longitude": -105.98333
        },
        {
            "elevation": 2854.1,
            "mindate": "2006-04-01",
            "maxdate": "2014-01-01",
            "latitude": 36.0763,
            "name": "NARBONA PASS, NM US",
            "datacoverage": 0.0114,
            "id": "COOP:296041",
            "elevationUnit": "METERS",
            "longitude": -108.858
        },
        {
            "elevation": 1758.7,
            "mindate": "1963-06-01",
            "maxdate": "2015-11-01",
            "latitude": 36.8047,
            "name": "NAVAJO DAM, NM US",
            "datacoverage": 0.9873,
            "id": "COOP:296061",
            "elevationUnit": "METERS",
            "longitude": -107.6213
        },
        {
            "elevation": 1702,
            "mindate": "1948-06-01",
            "maxdate": "1971-06-01",
            "latitude": 36.3,
            "name": "NEWCOMB, NM US",
            "datacoverage": 0.9964,
            "id": "COOP:296098",
            "elevationUnit": "METERS",
            "longitude": -108.71667
        },
        {
            "elevation": 1391.1,
            "mindate": "1931-01-01",
            "maxdate": "2013-12-01",
            "latitude": 35.07,
            "name": "NEWKIRK, NM US",
            "datacoverage": 0.9016,
            "id": "COOP:296115",
            "elevationUnit": "METERS",
            "longitude": -104.2574
        },
        {
            "elevation": 2169,
            "mindate": "1947-11-01",
            "maxdate": "1970-06-01",
            "latitude": 33.51667,
            "name": "NOGAL LAKE 1 S, NM US",
            "datacoverage": 0.0276,
            "id": "COOP:296138",
            "elevationUnit": "METERS",
            "longitude": -105.68333
        },
        {
            "elevation": 2333.2,
            "mindate": "1960-08-01",
            "maxdate": "2015-11-01",
            "latitude": 36.1838,
            "name": "OCATE 2 NW, NM US",
            "datacoverage": 0.9895,
            "id": "COOP:296275",
            "elevationUnit": "METERS",
            "longitude": -105.0608
        },
        {
            "elevation": 1035.7,
            "mindate": "1942-03-01",
            "maxdate": "2015-11-01",
            "latitude": 32.1664,
            "name": "OCHOA, NM US",
            "datacoverage": 0.9582,
            "id": "COOP:296281",
            "elevationUnit": "METERS",
            "longitude": -103.4249
        },
        {
            "elevation": 1919,
            "mindate": "1949-10-01",
            "maxdate": "1982-03-01",
            "latitude": 36.3,
            "name": "OJO CALIENTE, NM US",
            "datacoverage": 0.9718,
            "id": "COOP:296321",
            "elevationUnit": "METERS",
            "longitude": -106.05
        },
        {
            "elevation": 1286.6,
            "mindate": "1905-01-01",
            "maxdate": "2015-11-01",
            "latitude": 32.3788,
            "name": "OROGRANDE, NM US",
            "datacoverage": 0.8889,
            "id": "COOP:296435",
            "elevationUnit": "METERS",
            "longitude": -106.0924
        },
        {
            "elevation": 2097,
            "mindate": "1957-04-01",
            "maxdate": "2015-11-01",
            "latitude": 36.3338,
            "name": "OTIS, NM US",
            "datacoverage": 0.9631,
            "id": "COOP:296465",
            "elevationUnit": "METERS",
            "longitude": -107.8408
        },
        {
            "elevation": 1722.1,
            "mindate": "1931-01-01",
            "maxdate": "2015-11-01",
            "latitude": 36.2994,
            "name": "PASAMONTE, NM US",
            "datacoverage": 0.9824,
            "id": "COOP:296619",
            "elevationUnit": "METERS",
            "longitude": -103.7408
        },
        {
            "elevation": 1158.2,
            "mindate": "1932-03-01",
            "maxdate": "1996-09-01",
            "latitude": 32.65,
            "name": "PEARL, NM US",
            "datacoverage": 0.9663,
            "id": "COOP:296659",
            "elevationUnit": "METERS",
            "longitude": -103.38333
        },
        {
            "elevation": 2096.4,
            "mindate": "1931-01-01",
            "maxdate": "2015-11-01",
            "latitude": 35.5488,
            "name": "PECOS NATIONAL MONUMENT, NM US",
            "datacoverage": 0.9863,
            "id": "COOP:296676",
            "elevationUnit": "METERS",
            "longitude": -105.6886
        },
        {
            "elevation": 2072.6,
            "mindate": "1996-08-01",
            "maxdate": "2001-07-01",
            "latitude": 35.4375,
            "name": "PECOS 11 SE, NM US",
            "datacoverage": 1,
            "id": "COOP:296678",
            "elevationUnit": "METERS",
            "longitude": -105.56444
        },
        {
            "elevation": 1874.5,
            "mindate": "1931-01-01",
            "maxdate": "2015-11-01",
            "latitude": 34.6152,
            "name": "PEDERNAL 9 E, NM US",
            "datacoverage": 0.8793,
            "id": "COOP:296687",
            "elevationUnit": "METERS",
            "longitude": -105.4739
        },
        {
            "elevation": 2416.1,
            "mindate": "1931-01-01",
            "maxdate": "1976-03-01",
            "latitude": 36.16667,
            "name": "PENASCO RANGER STATION, NM US",
            "datacoverage": 0.9577,
            "id": "COOP:296705",
            "elevationUnit": "METERS",
            "longitude": -105.68333
        },
        {
            "elevation": 1560.9,
            "mindate": "1994-04-01",
            "maxdate": "2015-11-01",
            "latitude": 35.1391,
            "name": "PETROGLYPH NATIONAL MON, NM US",
            "datacoverage": 0.9923,
            "id": "COOP:296754",
            "elevationUnit": "METERS",
            "longitude": -106.7108
        },
        {
            "elevation": 1537.1,
            "mindate": "1951-06-01",
            "maxdate": "1979-01-01",
            "latitude": 33.35,
            "name": "PICACHO, NM US",
            "datacoverage": 0.9968,
            "id": "COOP:296803",
            "elevationUnit": "METERS",
            "longitude": -105.13333
        },
        {
            "elevation": 1521,
            "mindate": "1980-03-01",
            "maxdate": "2015-11-01",
            "latitude": 33.3502,
            "name": "PICACHO, NM US",
            "datacoverage": 0.9603,
            "id": "COOP:296804",
            "elevationUnit": "METERS",
            "longitude": -105.14
        },
        {
            "elevation": 2426.5,
            "mindate": "1988-09-01",
            "maxdate": "2015-11-01",
            "latitude": 34.493,
            "name": "PIETOWN 19 NE, NM US",
            "datacoverage": 0.9511,
            "id": "COOP:296812",
            "elevationUnit": "METERS",
            "longitude": -107.8883
        },
        {
            "elevation": 2135.1,
            "mindate": "1931-01-01",
            "maxdate": "1973-02-01",
            "latitude": 32.86667,
            "name": "PINOS ALTOS, NM US",
            "datacoverage": 0.9507,
            "id": "COOP:296854",
            "elevationUnit": "METERS",
            "longitude": -108.21667
        },
        {
            "elevation": 1822.7,
            "mindate": "2007-09-01",
            "maxdate": "2009-03-01",
            "latitude": 35.30972,
            "name": "PLACITAS, NM US",
            "datacoverage": 0.7899,
            "id": "COOP:296908",
            "elevationUnit": "METERS",
            "longitude": -106.42306
        },
        {
            "elevation": 1702.3,
            "mindate": "1992-01-01",
            "maxdate": "2015-11-01",
            "latitude": 35.31382,
            "name": "PLACITAS 4 W, NM US",
            "datacoverage": 0.9826,
            "id": "COOP:296911",
            "elevationUnit": "METERS",
            "longitude": -106.47704
        },
        {
            "elevation": 1734.3,
            "mindate": "2000-06-01",
            "maxdate": "2007-07-01",
            "latitude": 35.33417,
            "name": "PLACITAS 2 N, NM US",
            "datacoverage": 0.9886,
            "id": "COOP:296912",
            "elevationUnit": "METERS",
            "longitude": -106.44167
        },
        {
            "elevation": 1812,
            "mindate": "1955-10-01",
            "maxdate": "1974-06-01",
            "latitude": 35.66667,
            "name": "PONDEROSA, NM US",
            "datacoverage": 0.8889,
            "id": "COOP:296991",
            "elevationUnit": "METERS",
            "longitude": -106.66667
        },
        {
            "elevation": 1222.2,
            "mindate": "1931-01-01",
            "maxdate": "2015-11-01",
            "latitude": 34.1741,
            "name": "PORTALES, NM US",
            "datacoverage": 0.9853,
            "id": "COOP:297008",
            "elevationUnit": "METERS",
            "longitude": -103.3519
        },
        {
            "elevation": 1243,
            "mindate": "1931-01-01",
            "maxdate": "1984-04-01",
            "latitude": 35.23333,
            "name": "PORTER, NM US",
            "datacoverage": 0.9547,
            "id": "COOP:297026",
            "elevationUnit": "METERS",
            "longitude": -103.28333
        },
        {
            "elevation": 1524.9,
            "mindate": "1953-01-01",
            "maxdate": "1971-04-01",
            "latitude": 34.68333,
            "name": "GENNETTI RANCH, NM US",
            "datacoverage": 0.9958,
            "id": "COOP:297049",
            "elevationUnit": "METERS",
            "longitude": -104.65
        },
        {
            "elevation": 1919.3,
            "mindate": "1931-01-01",
            "maxdate": "2014-12-01",
            "latitude": 34.4208,
            "name": "PROGRESSO, NM US",
            "datacoverage": 0.9504,
            "id": "COOP:297094",
            "elevationUnit": "METERS",
            "longitude": -105.8913
        },
        {
            "elevation": 1780.3,
            "mindate": "2000-06-01",
            "maxdate": "2005-12-01",
            "latitude": 32.19361,
            "name": "QUEEN, NM US",
            "datacoverage": 0.9101,
            "id": "COOP:297172",
            "elevationUnit": "METERS",
            "longitude": -104.74028
        },
        {
            "elevation": 1784,
            "mindate": "1963-01-01",
            "maxdate": "1975-03-01",
            "latitude": 32.2,
            "name": "QUEEN RANGER STATION, NM US",
            "datacoverage": 1,
            "id": "COOP:297176",
            "elevationUnit": "METERS",
            "longitude": -104.73333
        },
        {
            "elevation": 2096.4,
            "mindate": "1931-01-01",
            "maxdate": "2015-11-01",
            "latitude": 34.3447,
            "name": "QUEMADO, NM US",
            "datacoverage": 0.8734,
            "id": "COOP:297180",
            "elevationUnit": "METERS",
            "longitude": -108.4922
        },
        {
            "elevation": 2334.8,
            "mindate": "1986-11-01",
            "maxdate": "1993-10-01",
            "latitude": 34.13333,
            "name": "QUEMADO LAKE, NM US",
            "datacoverage": 0.9999,
            "id": "COOP:297191",
            "elevationUnit": "METERS",
            "longitude": -108.51667
        },
        {
            "elevation": 2356.1,
            "mindate": "1993-09-01",
            "maxdate": "2007-03-01",
            "latitude": 34.14667,
            "name": "QUEMADO LAKE ESTS, NM US",
            "datacoverage": 0.6321,
            "id": "COOP:297195",
            "elevationUnit": "METERS",
            "longitude": -108.50861
        },
        {
            "elevation": 1542.3,
            "mindate": "1935-02-01",
            "maxdate": "2015-11-01",
            "latitude": 34.78,
            "name": "RAGLAND 3 SSW, NM US",
            "datacoverage": 0.966,
            "id": "COOP:297226",
            "elevationUnit": "METERS",
            "longitude": -103.7491
        },
        {
            "elevation": 1623.7,
            "mindate": "1957-03-01",
            "maxdate": "2012-10-01",
            "latitude": 34.1508,
            "name": "RAMON 8 SW, NM US",
            "datacoverage": 0.9225,
            "id": "COOP:297254",
            "elevationUnit": "METERS",
            "longitude": -105.0044
        },
        {
            "elevation": 2112.9,
            "mindate": "1953-09-01",
            "maxdate": "2015-11-01",
            "latitude": 36.9194,
            "name": "RATON FILTER PLANT, NM US",
            "datacoverage": 0.9947,
            "id": "COOP:297279",
            "elevationUnit": "METERS",
            "longitude": -104.4325
        },
        {
            "elevation": 2023.9,
            "mindate": "1978-03-01",
            "maxdate": "2015-11-01",
            "latitude": 36.8863,
            "name": "RATON KRTN RADIO, NM US",
            "datacoverage": 0.9514,
            "id": "COOP:297280",
            "elevationUnit": "METERS",
            "longitude": -104.4427
        },
        {
            "elevation": 2084.8,
            "mindate": "1992-04-01",
            "maxdate": "1994-12-01",
            "latitude": 34.31667,
            "name": "RED HILL 12 NW, NM US",
            "datacoverage": 0.9086,
            "id": "COOP:297297",
            "elevationUnit": "METERS",
            "longitude": -109.03333
        },
        {
            "elevation": 2641.7,
            "mindate": "1931-01-01",
            "maxdate": "2015-11-01",
            "latitude": 36.7101,
            "name": "RED RIVER, NM US",
            "datacoverage": 0.9549,
            "id": "COOP:297323",
            "elevationUnit": "METERS",
            "longitude": -105.4165
        },
        {
            "elevation": 1236.3,
            "mindate": "1931-01-01",
            "maxdate": "2015-11-01",
            "latitude": 32.7047,
            "name": "REDROCK 1 NNE, NM US",
            "datacoverage": 0.95,
            "id": "COOP:297340",
            "elevationUnit": "METERS",
            "longitude": -108.728
        },
        {
            "elevation": 1782.2,
            "mindate": "1954-04-01",
            "maxdate": "2015-11-01",
            "latitude": 33.7158,
            "name": "RESERVE RANGER STATION, NM US",
            "datacoverage": 0.9567,
            "id": "COOP:297386",
            "elevationUnit": "METERS",
            "longitude": -108.7769
        },
        {
            "elevation": 1661.2,
            "mindate": "1951-10-01",
            "maxdate": "2014-12-01",
            "latitude": 33.7527,
            "name": "RIENHARDT RANCH, NM US",
            "datacoverage": 0.9921,
            "id": "COOP:297423",
            "elevationUnit": "METERS",
            "longitude": -107.2094
        },
        {
            "elevation": 1335.9,
            "mindate": "1968-09-01",
            "maxdate": "1983-10-01",
            "latitude": 35.6,
            "name": "RINESTINE RANCH, NM US",
            "datacoverage": 0.9782,
            "id": "COOP:297451",
            "elevationUnit": "METERS",
            "longitude": -103.33333
        },
        {
            "elevation": 1594.1,
            "mindate": "2008-01-01",
            "maxdate": "2015-11-01",
            "latitude": 35.2836,
            "name": "RIO RANCHO NUMBER 1, NM US",
            "datacoverage": 1,
            "id": "COOP:297477",
            "elevationUnit": "METERS",
            "longitude": -106.6194
        },
        {
            "elevation": 1612.4,
            "mindate": "2008-01-01",
            "maxdate": "2015-11-01",
            "latitude": 35.2522,
            "name": "RIO RANCHO NUMBER 2, NM US",
            "datacoverage": 0.9791,
            "id": "COOP:297481",
            "elevationUnit": "METERS",
            "longitude": -106.6347
        },
        {
            "elevation": 1253.9,
            "mindate": "1931-01-01",
            "maxdate": "1978-04-01",
            "latitude": 31.83333,
            "name": "RODEO, NM US",
            "datacoverage": 0.9279,
            "id": "COOP:297534",
            "elevationUnit": "METERS",
            "longitude": -109.03333
        },
        {
            "elevation": 1456.9,
            "mindate": "2004-11-01",
            "maxdate": "2015-11-01",
            "latitude": 35.9027,
            "name": "ROSEBUD 7 NW, NM US",
            "datacoverage": 0.9853,
            "id": "COOP:297585",
            "elevationUnit": "METERS",
            "longitude": -103.5272
        },
        {
            "elevation": 1098.8,
            "mindate": "1995-09-01",
            "maxdate": "2015-11-01",
            "latitude": 33.38,
            "name": "ROSWELL CLIMAT, NM US",
            "datacoverage": 0.9932,
            "id": "COOP:297605",
            "elevationUnit": "METERS",
            "longitude": -104.5419
        },
        {
            "elevation": 1106.1,
            "mindate": "1947-01-01",
            "maxdate": "1972-12-29",
            "latitude": 33.4,
            "name": "ROSWELL MUNICIPAL AIRPORT, NM US",
            "datacoverage": 0.9228,
            "id": "COOP:297609",
            "elevationUnit": "METERS",
            "longitude": -104.53333
        },
        {
            "elevation": 1112.2,
            "mindate": "1972-12-01",
            "maxdate": "2015-11-01",
            "latitude": 33.3075,
            "name": "ROSWELL INDUSTRIAL AIR PARK, NM US",
            "datacoverage": 1,
            "id": "COOP:297610",
            "elevationUnit": "METERS",
            "longitude": -104.5083
        },
        {
            "elevation": 1104,
            "mindate": "2004-12-01",
            "maxdate": "2015-11-01",
            "latitude": 33.4277,
            "name": "ROSWELL NORTH, NM US",
            "datacoverage": 1,
            "id": "COOP:297612",
            "elevationUnit": "METERS",
            "longitude": -104.5338
        },
        {
            "elevation": 1112.2,
            "mindate": "2003-03-01",
            "maxdate": "2014-01-01",
            "latitude": 33.3075,
            "name": "ROSWELL 2 S, NM US",
            "datacoverage": 0.0076,
            "id": "COOP:297614",
            "elevationUnit": "METERS",
            "longitude": -104.528
        },
        {
            "elevation": 1750.5,
            "mindate": "1931-02-01",
            "maxdate": "2014-12-01",
            "latitude": 35.93312,
            "name": "ROY, NM US",
            "datacoverage": 0.9504,
            "id": "COOP:297638",
            "elevationUnit": "METERS",
            "longitude": -104.1375
        },
        {
            "elevation": 2112.3,
            "mindate": "1942-01-01",
            "maxdate": "2015-11-01",
            "latitude": 33.3677,
            "name": "RUIDOSO, NM US",
            "datacoverage": 0.8681,
            "id": "COOP:297649",
            "elevationUnit": "METERS",
            "longitude": -105.6611
        },
        {
            "elevation": 2114.4,
            "mindate": "1987-07-01",
            "maxdate": "1993-07-01",
            "latitude": 33.35,
            "name": "RUIDOSO 2, NM US",
            "datacoverage": 1,
            "id": "COOP:297651",
            "elevationUnit": "METERS",
            "longitude": -105.66667
        },
        {
            "elevation": 2229.9,
            "mindate": "1947-11-01",
            "maxdate": "1974-12-01",
            "latitude": 32.8,
            "name": "SACRAMENTO, NM US",
            "datacoverage": 0.0351,
            "id": "COOP:297735",
            "elevationUnit": "METERS",
            "longitude": -105.56667
        },
        {
            "elevation": 2250,
            "mindate": "1974-11-01",
            "maxdate": "2014-01-01",
            "latitude": 32.79089,
            "name": "SACRAMENTO NUMBER 2, NM US",
            "datacoverage": 0.0233,
            "id": "COOP:297736",
            "elevationUnit": "METERS",
            "longitude": -105.56058
        },
        {
            "elevation": 1879.1,
            "mindate": "1931-01-01",
            "maxdate": "1977-01-01",
            "latitude": 35.1,
            "name": "SAN FIDEL 2 E, NM US",
            "datacoverage": 0.898,
            "id": "COOP:297827",
            "elevationUnit": "METERS",
            "longitude": -107.6
        },
        {
            "elevation": 1289.3,
            "mindate": "1931-01-01",
            "maxdate": "2015-11-01",
            "latitude": 35.1086,
            "name": "SAN JON, NM US",
            "datacoverage": 0.9844,
            "id": "COOP:297867",
            "elevationUnit": "METERS",
            "longitude": -103.3283
        },
        {
            "elevation": 2207.4,
            "mindate": "1939-10-01",
            "maxdate": "1989-04-01",
            "latitude": 35.33333,
            "name": "SAN MATEO, NM US",
            "datacoverage": 0.6317,
            "id": "COOP:297918",
            "elevationUnit": "METERS",
            "longitude": -107.65
        },
        {
            "elevation": 3257.1,
            "mindate": "1953-12-01",
            "maxdate": "1979-04-01",
            "latitude": 35.21667,
            "name": "SANDIA CREST, NM US",
            "datacoverage": 1,
            "id": "COOP:298011",
            "elevationUnit": "METERS",
            "longitude": -106.45
        },
        {
            "elevation": 2142.7,
            "mindate": "1939-01-01",
            "maxdate": "2009-07-01",
            "latitude": 35.21056,
            "name": "SANDIA PARK, NM US",
            "datacoverage": 0.8584,
            "id": "COOP:298015",
            "elevationUnit": "METERS",
            "longitude": -106.36556
        },
        {
            "elevation": 1922.1,
            "mindate": "1962-06-01",
            "maxdate": "1974-12-01",
            "latitude": 35.06667,
            "name": "SANDIA RANGER STATION, NM US",
            "datacoverage": 0.9998,
            "id": "COOP:298018",
            "elevationUnit": "METERS",
            "longitude": -106.38333
        },
        {
            "elevation": 2196.1,
            "mindate": "1931-01-01",
            "maxdate": "1972-03-01",
            "latitude": 35.68333,
            "name": "SANTA FE, NM US",
            "datacoverage": 0.9677,
            "id": "COOP:298072",
            "elevationUnit": "METERS",
            "longitude": -105.9
        },
        {
            "elevation": 2059.2,
            "mindate": "1972-03-01",
            "maxdate": "2015-11-01",
            "latitude": 35.6194,
            "name": "SANTA FE 2, NM US",
            "datacoverage": 0.9962,
            "id": "COOP:298085",
            "elevationUnit": "METERS",
            "longitude": -105.9753
        },
        {
            "elevation": 2078.7,
            "mindate": "1998-07-01",
            "maxdate": "2006-09-01",
            "latitude": 35.54333,
            "name": "SANTA FE 7 SE, NM US",
            "datacoverage": 0.9998,
            "id": "COOP:298087",
            "elevationUnit": "METERS",
            "longitude": -105.92
        },
        {
            "elevation": 2133.6,
            "mindate": "2001-12-01",
            "maxdate": "2015-11-01",
            "latitude": 35.6008,
            "name": "SANTA FE SETON, NM US",
            "datacoverage": 1,
            "id": "COOP:298088",
            "elevationUnit": "METERS",
            "longitude": -105.9322
        },
        {
            "elevation": 1417.3,
            "mindate": "1931-01-01",
            "maxdate": "2013-12-01",
            "latitude": 34.9562,
            "name": "SANTA ROSA, NM US",
            "datacoverage": 0.9428,
            "id": "COOP:298107",
            "elevationUnit": "METERS",
            "longitude": -104.7217
        },
        {
            "elevation": 1252.4,
            "mindate": "2002-03-01",
            "maxdate": "2015-11-01",
            "latitude": 31.8727,
            "name": "SANTA TERESA AIRPORT, NM US",
            "datacoverage": 0.9998,
            "id": "COOP:298127",
            "elevationUnit": "METERS",
            "longitude": -106.698
        },
        {
            "elevation": 1902.9,
            "mindate": "1977-01-01",
            "maxdate": "1979-01-01",
            "latitude": 35.21667,
            "name": "SEBOYETA 4 ESE, NM US",
            "datacoverage": 0.9999,
            "id": "COOP:298160",
            "elevationUnit": "METERS",
            "longitude": -107.35
        },
        {
            "elevation": 1515.5,
            "mindate": "1931-01-01",
            "maxdate": "2007-10-01",
            "latitude": 36.795,
            "name": "SHIPROCK, NM US",
            "datacoverage": 0.8926,
            "id": "COOP:298284",
            "elevationUnit": "METERS",
            "longitude": -108.69167
        },
        {
            "elevation": 1841,
            "mindate": "2005-03-01",
            "maxdate": "2005-10-01",
            "latitude": 32.81417,
            "name": "SILVER CITY 4 ENE, NM US",
            "datacoverage": 0.8696,
            "id": "COOP:298325",
            "elevationUnit": "METERS",
            "longitude": -108.19472
        },
        {
            "elevation": 2525,
            "mindate": "1940-07-01",
            "maxdate": "1983-12-01",
            "latitude": 36.76667,
            "name": "SKARDA, NM US",
            "datacoverage": 0.9789,
            "id": "COOP:298352",
            "elevationUnit": "METERS",
            "longitude": -105.96667
        },
        {
            "elevation": 1399.9,
            "mindate": "1931-01-01",
            "maxdate": "2015-11-01",
            "latitude": 34.06053,
            "name": "SOCORRO, NM US",
            "datacoverage": 0.9421,
            "id": "COOP:298387",
            "elevationUnit": "METERS",
            "longitude": -106.88423
        },
        {
            "elevation": 1794.7,
            "mindate": "1931-01-01",
            "maxdate": "2015-11-01",
            "latitude": 36.3627,
            "name": "SPRINGER, NM US",
            "datacoverage": 0.9342,
            "id": "COOP:298501",
            "elevationUnit": "METERS",
            "longitude": -104.5849
        },
        {
            "elevation": 1943.1,
            "mindate": "1954-11-01",
            "maxdate": "2015-11-01",
            "latitude": 35.1766,
            "name": "STANLEY 2 NNE, NM US",
            "datacoverage": 0.9878,
            "id": "COOP:298518",
            "elevationUnit": "METERS",
            "longitude": -105.9438
        },
        {
            "elevation": 2022.3,
            "mindate": "1947-01-01",
            "maxdate": "2008-06-01",
            "latitude": 35.9247,
            "name": "STAR LAKE, NM US",
            "datacoverage": 0.9309,
            "id": "COOP:298524",
            "elevationUnit": "METERS",
            "longitude": -107.4655
        },
        {
            "elevation": 1184.5,
            "mindate": "1959-04-01",
            "maxdate": "2015-11-01",
            "latitude": 32.2823,
            "name": "STATE UNIVERSITY, NM US",
            "datacoverage": 0.997,
            "id": "COOP:298535",
            "elevationUnit": "METERS",
            "longitude": -106.7598
        },
        {
            "elevation": 1464,
            "mindate": "1965-10-01",
            "maxdate": "1975-05-01",
            "latitude": 36.1,
            "name": "STEAD, NM US",
            "datacoverage": 1,
            "id": "COOP:298543",
            "elevationUnit": "METERS",
            "longitude": -103.2
        },
        {
            "elevation": 2094.9,
            "mindate": "1969-02-01",
            "maxdate": "1972-06-01",
            "latitude": 35.83333,
            "name": "STEPP RANCH, NM US",
            "datacoverage": 1,
            "id": "COOP:298562",
            "elevationUnit": "METERS",
            "longitude": -107.91667
        },
        {
            "elevation": 1312.5,
            "mindate": "1975-01-01",
            "maxdate": "2015-11-01",
            "latitude": 34.6033,
            "name": "SUMNER LAKE, NM US",
            "datacoverage": 0.9917,
            "id": "COOP:298596",
            "elevationUnit": "METERS",
            "longitude": -104.3811
        },
        {
            "elevation": 1260,
            "mindate": "1952-04-01",
            "maxdate": "1977-07-01",
            "latitude": 34.45,
            "name": "TAIBAN, NM US",
            "datacoverage": 1,
            "id": "COOP:298639",
            "elevationUnit": "METERS",
            "longitude": -104.01667
        },
        {
            "elevation": 2040,
            "mindate": "1970-11-01",
            "maxdate": "1979-04-01",
            "latitude": 34.75,
            "name": "TAJIQUE, NM US",
            "datacoverage": 1,
            "id": "COOP:298648",
            "elevationUnit": "METERS",
            "longitude": -106.28333
        },
        {
            "elevation": 2129,
            "mindate": "1931-01-01",
            "maxdate": "1970-10-01",
            "latitude": 34.8,
            "name": "TAJIQUE 4 N, NM US",
            "datacoverage": 0.9875,
            "id": "COOP:298650",
            "elevationUnit": "METERS",
            "longitude": -106.3
        },
        {
            "elevation": 2122.9,
            "mindate": "1931-01-01",
            "maxdate": "2010-08-01",
            "latitude": 36.3906,
            "name": "TAOS, NM US",
            "datacoverage": 0.9509,
            "id": "COOP:298668",
            "elevationUnit": "METERS",
            "longitude": -105.5864
        },
        {
            "elevation": 2130.6,
            "mindate": "2004-03-01",
            "maxdate": "2009-07-01",
            "latitude": 36.42139,
            "name": "TAOS PUEBLO, NM US",
            "datacoverage": 0.7383,
            "id": "COOP:298680",
            "elevationUnit": "METERS",
            "longitude": -105.56333
        },
        {
            "elevation": 1222.9,
            "mindate": "1931-01-01",
            "maxdate": "2015-11-01",
            "latitude": 33.2422,
            "name": "TATUM, NM US",
            "datacoverage": 0.948,
            "id": "COOP:298713",
            "elevationUnit": "METERS",
            "longitude": -103.3611
        },
        {
            "elevation": 1585,
            "mindate": "1989-08-01",
            "maxdate": "2002-11-01",
            "latitude": 32.54278,
            "name": "THOMPSON CANYON RANCH, NM US",
            "datacoverage": 0.975,
            "id": "COOP:298819",
            "elevationUnit": "METERS",
            "longitude": -108.63694
        },
        {
            "elevation": 2176.9,
            "mindate": "1953-09-01",
            "maxdate": "1992-12-28",
            "latitude": 35.41667,
            "name": "THOREAU, NM US",
            "datacoverage": 0.9957,
            "id": "COOP:298830",
            "elevationUnit": "METERS",
            "longitude": -108.23333
        },
        {
            "elevation": 2263.1,
            "mindate": "1994-07-01",
            "maxdate": "2015-11-01",
            "latitude": 35.3,
            "name": "THOREAU 12 SE, NM US",
            "datacoverage": 0.9727,
            "id": "COOP:298834",
            "elevationUnit": "METERS",
            "longitude": -108.1472
        },
        {
            "elevation": 2275,
            "mindate": "1931-01-01",
            "maxdate": "2012-12-01",
            "latitude": 36.7663,
            "name": "TIERRA AMARILLA 4 N, NM US",
            "datacoverage": 0.9248,
            "id": "COOP:298845",
            "elevationUnit": "METERS",
            "longitude": -106.5536
        },
        {
            "elevation": 2136.6,
            "mindate": "1998-12-01",
            "maxdate": "2002-05-01",
            "latitude": 32.64306,
            "name": "TIMBERON, NM US",
            "datacoverage": 0.5478,
            "id": "COOP:298872",
            "elevationUnit": "METERS",
            "longitude": -105.69333
        },
        {
            "elevation": 1537.1,
            "mindate": "1979-08-01",
            "maxdate": "1979-10-01",
            "latitude": 33.35,
            "name": "PICACHO, NM US",
            "datacoverage": 0.9925,
            "id": "COOP:298888",
            "elevationUnit": "METERS",
            "longitude": -105.13333
        },
        {
            "elevation": 1958,
            "mindate": "1931-01-01",
            "maxdate": "1979-04-01",
            "latitude": 35.85,
            "name": "TOHATCHI 1 ESE, NM US",
            "datacoverage": 0.9242,
            "id": "COOP:298919",
            "elevationUnit": "METERS",
            "longitude": -108.73333
        },
        {
            "elevation": 1825.8,
            "mindate": "1979-05-01",
            "maxdate": "1992-05-01",
            "latitude": 35.9,
            "name": "TOHATCHI 6 NE, NM US",
            "datacoverage": 0.9997,
            "id": "COOP:298921",
            "elevationUnit": "METERS",
            "longitude": -108.65
        },
        {
            "elevation": 2042.2,
            "mindate": "1961-01-01",
            "maxdate": "2015-11-01",
            "latitude": 35.7991,
            "name": "TORREON NAVAJO MISSION, NM US",
            "datacoverage": 0.9971,
            "id": "COOP:299031",
            "elevationUnit": "METERS",
            "longitude": -107.1813
        },
        {
            "elevation": 2480.8,
            "mindate": "1931-01-01",
            "maxdate": "2013-12-01",
            "latitude": 36.6511,
            "name": "TRES PIEDRAS, NM US",
            "datacoverage": 0.9237,
            "id": "COOP:299085",
            "elevationUnit": "METERS",
            "longitude": -105.9725
        },
        {
            "elevation": 2532,
            "mindate": "1967-01-01",
            "maxdate": "1975-05-01",
            "latitude": 36.13333,
            "name": "TRES RITOS, NM US",
            "datacoverage": 0.9112,
            "id": "COOP:299095",
            "elevationUnit": "METERS",
            "longitude": -105.51667
        },
        {
            "elevation": 1309.4,
            "mindate": "1951-01-01",
            "maxdate": "2015-11-01",
            "latitude": 33.1353,
            "name": "TRUTH OR CONSEQUENCES, NM US",
            "datacoverage": 0.5674,
            "id": "COOP:299128",
            "elevationUnit": "METERS",
            "longitude": -107.2316
        },