[
    {
        "metadata": {
            "resultset": {
                "offset": 1,
                "count": 2338,
                "limit": 1000
            }
        },
        "results": [
            {
                "elevation": 185.9,
                "mindate": "1931-01-01",
                "maxdate": "2015-11-01",
                "latitude": 35.3992,
                "name": "ALBEMARLE, NC US",
                "datacoverage": 0.9647,
                "id": "COOP:310090",
                "elevationUnit": "METERS",
                "longitude": -80.1994
            },
            {
                "elevation": 533.1,
                "mindate": "1931-01-01",
                "maxdate": "2005-09-01",
                "latitude": 35.20139,
                "name": "ANDREWS, NC US",
                "datacoverage": 0.9811,
                "id": "COOP:310184",
                "elevationUnit": "METERS",
                "longitude": -83.83861
            },
            {
                "elevation": 137.2,
                "mindate": "1993-07-01",
                "maxdate": "2015-11-01",
                "latitude": 35.7426,
                "name": "APEX, NC US",
                "datacoverage": 0.9739,
                "id": "COOP:310212",
                "elevationUnit": "METERS",
                "longitude": -78.8369
            },
            {
                "elevation": 100.6,
                "mindate": "1931-01-01",
                "maxdate": "2015-11-01",
                "latitude": 36.2911,
                "name": "ARCOLA, NC US",
                "datacoverage": 0.8881,
                "id": "COOP:310241",
                "elevationUnit": "METERS",
                "longitude": -77.9822
            },
            {
                "elevation": 265.2,
                "mindate": "1931-01-01",
                "maxdate": "2015-11-01",
                "latitude": 35.70838,
                "name": "ASHEBORO 2 W, NC US",
                "datacoverage": 0.9941,
                "id": "COOP:310286",
                "elevationUnit": "METERS",
                "longitude": -79.83811
            },
            {
                "elevation": 645.3,
                "mindate": "1964-09-01",
                "maxdate": "2015-11-01",
                "latitude": 35.4319,
                "name": "ASHEVILLE AIRPORT, NC US",
                "datacoverage": 1,
                "id": "COOP:310300",
                "elevationUnit": "METERS",
                "longitude": -82.5375
            },
            {
                "elevation": 682.1,
                "mindate": "1902-08-01",
                "maxdate": "2015-11-01",
                "latitude": 35.5954,
                "name": "ASHEVILLE, NC US",
                "datacoverage": 1,
                "id": "COOP:310301",
                "elevationUnit": "METERS",
                "longitude": -82.5568
            },
            {
                "elevation": 571.5,
                "mindate": "1948-06-01",
                "maxdate": "2014-01-01",
                "latitude": 35.8922,
                "name": "ASHFORD, NC US",
                "datacoverage": 0.0422,
                "id": "COOP:310312",
                "elevationUnit": "METERS",
                "longitude": -81.9352
            },
            {
                "elevation": 604.1,
                "mindate": "1973-09-01",
                "maxdate": "1980-11-27",
                "latitude": 35.9,
                "name": "ASHFORD 2 N, NC US",
                "datacoverage": 0.0429,
                "id": "COOP:310314",
                "elevationUnit": "METERS",
                "longitude": -81.95
            },
            {
                "elevation": 1.2,
                "mindate": "2004-07-01",
                "maxdate": "2015-11-01",
                "latitude": 34.6997,
                "name": "ATLANTIC BEACH WATER PLANT, NC US",
                "datacoverage": 1,
                "id": "COOP:310356",
                "elevationUnit": "METERS",
                "longitude": -76.7381
            },
            {
                "elevation": 6.1,
                "mindate": "1973-01-01",
                "maxdate": "2015-11-01",
                "latitude": 35.3872,
                "name": "AURORA 6 N, NC US",
                "datacoverage": 0.9845,
                "id": "COOP:310375",
                "elevationUnit": "METERS",
                "longitude": -76.7763
            },
            {
                "elevation": 182.9,
                "mindate": "1948-04-02",
                "maxdate": "2014-01-01",
                "latitude": 35.4591,
                "name": "BADIN, NC US",
                "datacoverage": 0.0381,
                "id": "COOP:310438",
                "elevationUnit": "METERS",
                "longitude": -80.1827
            },
            {
                "elevation": 1066.8,
                "mindate": "1949-01-01",
                "maxdate": "1995-05-01",
                "latitude": 35.41667,
                "name": "BALSAM, NC US",
                "datacoverage": 0.3142,
                "id": "COOP:310490",
                "elevationUnit": "METERS",
                "longitude": -83.08333
            },
            {
                "elevation": 1149.1,
                "mindate": "1931-01-01",
                "maxdate": "2015-11-01",
                "latitude": 36.1616,
                "name": "BANNER ELK, NC US",
                "datacoverage": 0.9804,
                "id": "COOP:310506",
                "elevationUnit": "METERS",
                "longitude": -81.8741
            },
            {
                "elevation": 707.1,
                "mindate": "2011-01-01",
                "maxdate": "2015-11-01",
                "latitude": 35.76,
                "name": "BARNARDSVILLE 2 SE, NC US",
                "datacoverage": 0.9835,
                "id": "COOP:310531",
                "elevationUnit": "METERS",
                "longitude": -82.4325
            },
            {
                "elevation": 1.5,
                "mindate": "1968-07-01",
                "maxdate": "2015-11-01",
                "latitude": 35.1311,
                "name": "BAYBORO 3 SW, NC US",
                "datacoverage": 0.9613,
                "id": "COOP:310576",
                "elevationUnit": "METERS",
                "longitude": -76.816
            },
            {
                "elevation": 1540.2,
                "mindate": "2004-07-01",
                "maxdate": "2015-11-01",
                "latitude": 36.18738,
                "name": "BEECH MOUNTAIN, NC US",
                "datacoverage": 1,
                "id": "COOP:310645",
                "elevationUnit": "METERS",
                "longitude": -81.87409
            },
            {
                "elevation": 775.1,
                "mindate": "1948-01-01",
                "maxdate": "1972-06-01",
                "latitude": 35.63333,
                "name": "BEETREE DAM, NC US",
                "datacoverage": 0.9456,
                "id": "COOP:310650",
                "elevationUnit": "METERS",
                "longitude": -82.4
            },
            {
                "elevation": 0,
                "mindate": "1931-01-01",
                "maxdate": "2010-08-01",
                "latitude": 35.573,
                "name": "BELHAVEN 3 NE, NC US",
                "datacoverage": 0.9435,
                "id": "COOP:310674",
                "elevationUnit": "METERS",
                "longitude": -76.5848
            },
            {
                "elevation": 643.1,
                "mindate": "1949-01-01",
                "maxdate": "2015-11-01",
                "latitude": 35.5044,
                "name": "BENT CREEK, NC US",
                "datacoverage": 0.9913,
                "id": "COOP:310724",
                "elevationUnit": "METERS",
                "longitude": -82.5966
            },
            {
                "elevation": 94.5,
                "mindate": "1978-05-01",
                "maxdate": "2014-01-01",
                "latitude": 35.6542,
                "name": "B. EVERETT JORDAN DAM, NC US",
                "datacoverage": 0.0188,
                "id": "COOP:310750",
                "elevationUnit": "METERS",
                "longitude": -79.0706
            },
            {
                "elevation": 698,
                "mindate": "1949-11-01",
                "maxdate": "2010-01-01",
                "latitude": 35.60722,
                "name": "BLACK MOUNTAIN, NC US",
                "datacoverage": 0.9848,
                "id": "COOP:310843",
                "elevationUnit": "METERS",
                "longitude": -82.35944
            },
            {
                "elevation": 655.3,
                "mindate": "2011-01-01",
                "maxdate": "2014-12-01",
                "latitude": 35.3044,
                "name": "BLANTYRE 2, NC US",
                "datacoverage": 1,
                "id": "COOP:310878",
                "elevationUnit": "METERS",
                "longitude": -82.6306
            },
            {
                "elevation": 1173.5,
                "mindate": "1943-07-01",
                "maxdate": "2009-05-01",
                "latitude": 36.1472,
                "name": "BLOWING ROCK 1 NW, NC US",
                "datacoverage": 0.871,
                "id": "COOP:310901",
                "elevationUnit": "METERS",
                "longitude": -81.7025
            },
            {
                "elevation": 694.9,
                "mindate": "1948-09-01",
                "maxdate": "1972-08-27",
                "latitude": 35.35,
                "name": "BLUE RIDGE POST OFFI, NC US",
                "datacoverage": 0.0709,
                "id": "COOP:310909",
                "elevationUnit": "METERS",
                "longitude": -82.36667
            },
            {
                "elevation": 341.4,
                "mindate": "1985-09-01",
                "maxdate": "2006-09-01",
                "latitude": 36.0694,
                "name": "BOOMER 5 W, NC US",
                "datacoverage": 0.0337,
                "id": "COOP:310967",
                "elevationUnit": "METERS",
                "longitude": -81.3517
            },
            {
                "elevation": 987.9,
                "mindate": "1931-01-01",
                "maxdate": "1980-06-01",
                "latitude": 36.21667,
                "name": "BOONE, NC US",
                "datacoverage": 0.9983,
                "id": "COOP:310977",
                "elevationUnit": "METERS",
                "longitude": -81.66667
            },
            {
                "elevation": 944.9,
                "mindate": "1980-06-01",
                "maxdate": "2015-11-01",
                "latitude": 36.21395,
                "name": "BOONE, NC US",
                "datacoverage": 0.9977,
                "id": "COOP:310982",
                "elevationUnit": "METERS",
                "longitude": -81.64563
            },
            {
                "elevation": 662.9,
                "mindate": "1931-01-01",
                "maxdate": "2015-11-01",
                "latitude": 35.22844,
                "name": "BREVARD, NC US",
                "datacoverage": 0.8921,
                "id": "COOP:311055",
                "elevationUnit": "METERS",
                "longitude": -82.73575
            },
            {
                "elevation": 335.3,
                "mindate": "1948-01-01",
                "maxdate": "2015-11-01",
                "latitude": 35.7427,
                "name": "BRIDGEWATER HYDRO, NC US",
                "datacoverage": 0.9914,
                "id": "COOP:311081",
                "elevationUnit": "METERS",
                "longitude": -81.8362
            },
            {
                "elevation": 15.8,
                "mindate": "1992-02-01",
                "maxdate": "1993-04-22",
                "latitude": 34.25,
                "name": "BRUNSWICK 3 SSW, NC US",
                "datacoverage": 0.0348,
                "id": "COOP:311151",
                "elevationUnit": "METERS",
                "longitude": -78.71667
            },
            {
                "elevation": 618.1,
                "mindate": "2004-07-01",
                "maxdate": "2009-10-01",
                "latitude": 35.4286,
                "name": "BRYSON CITY 2, NC US",
                "datacoverage": 0.9683,
                "id": "COOP:311156",
                "elevationUnit": "METERS",
                "longitude": -83.4383
            },
            {
                "elevation": 548.9,
                "mindate": "1948-09-01",
                "maxdate": "1974-01-01",
                "latitude": 35.43333,
                "name": "BRYSON CITY 2, NC US",
                "datacoverage": 0.0691,
                "id": "COOP:311164",
                "elevationUnit": "METERS",
                "longitude": -83.45
            },
            {
                "elevation": 605,
                "mindate": "2010-08-01",
                "maxdate": "2015-11-01",
                "latitude": 35.4467,
                "name": "BRYSON CITY 4, NC US",
                "datacoverage": 1,
                "id": "COOP:311165",
                "elevationUnit": "METERS",
                "longitude": -83.4623
            },
            {
                "elevation": 766.6,
                "mindate": "1959-01-01",
                "maxdate": "1991-11-01",
                "latitude": 35.18333,
                "name": "BUCK FOREST, NC US",
                "datacoverage": 1,
                "id": "COOP:311174",
                "elevationUnit": "METERS",
                "longitude": -82.61667
            },
            {
                "elevation": 15.2,
                "mindate": "2005-01-01",
                "maxdate": "2006-08-01",
                "latitude": 34.5494,
                "name": "BURGAW AG 1 S, NC US",
                "datacoverage": 0.9512,
                "id": "COOP:311221",
                "elevationUnit": "METERS",
                "longitude": -77.9719
            },
            {
                "elevation": 10.1,
                "mindate": "2007-03-01",
                "maxdate": "2015-11-01",
                "latitude": 34.5322,
                "name": "BURGAW 4 E, NC US",
                "datacoverage": 0.7807,
                "id": "COOP:311222",
                "elevationUnit": "METERS",
                "longitude": -77.8638
            },
            {
                "elevation": 201.2,
                "mindate": "1952-01-01",
                "maxdate": "2015-11-01",
                "latitude": 36.06003,
                "name": "BURLINGTON FIRE STATION NUMBER 5, NC US",
                "datacoverage": 0.9935,
                "id": "COOP:311239",
                "elevationUnit": "METERS",
                "longitude": -79.44811
            },
            {
                "elevation": 195.1,
                "mindate": "1948-06-01",
                "maxdate": "2014-01-01",
                "latitude": 36.09364,
                "name": "BURLINGTON, NC US",
                "datacoverage": 0.033,
                "id": "COOP:311241",
                "elevationUnit": "METERS",
                "longitude": -79.43212
            },
            {
                "elevation": 861.1,
                "mindate": "2011-01-01",
                "maxdate": "2015-11-01",
                "latitude": 35.92503,
                "name": "BURNSVILLE AG, NC US",
                "datacoverage": 1,
                "id": "COOP:311248",
                "elevationUnit": "METERS",
                "longitude": -82.27161
            },
            {
                "elevation": 108.2,
                "mindate": "1956-02-01",
                "maxdate": "2015-11-01",
                "latitude": 36.1414,
                "name": "BUTNER FILTER PLANT, NC US",
                "datacoverage": 0.9833,
                "id": "COOP:311285",
                "elevationUnit": "METERS",
                "longitude": -78.7736
            },
            {
                "elevation": 682.8,
                "mindate": "1992-05-01",
                "maxdate": "2015-11-01",
                "latitude": 35.5453,
                "name": "CANDLER 1 W, NC US",
                "datacoverage": 1,
                "id": "COOP:311420",
                "elevationUnit": "METERS",
                "longitude": -82.6987
            },
            {
                "elevation": 620.9,
                "mindate": "1993-04-01",
                "maxdate": "2015-11-01",
                "latitude": 35.7044,
                "name": "CANTO, NC US",
                "datacoverage": 1,
                "id": "COOP:311437",
                "elevationUnit": "METERS",
                "longitude": -82.7697
            },
            {
                "elevation": 811.4,
                "mindate": "1931-01-01",
                "maxdate": "1993-04-01",
                "latitude": 35.51667,
                "name": "CANTON 1 SW, NC US",
                "datacoverage": 0.996,
                "id": "COOP:311441",
                "elevationUnit": "METERS",
                "longitude": -82.85
            },
            {
                "elevation": 3.4,
                "mindate": "1957-03-01",
                "maxdate": "2015-11-01",
                "latitude": 35.2326,
                "name": "CAPE HATTERAS BILLY MITCHELL FIELD, NC US",
                "datacoverage": 1,
                "id": "COOP:311458",
                "elevationUnit": "METERS",
                "longitude": -75.6219
            },
            {
                "elevation": 246.9,
                "mindate": "1900-01-01",
                "maxdate": "1974-04-01",
                "latitude": 35.28333,
                "name": "CAROLEEN, NC US",
                "datacoverage": 0.9911,
                "id": "COOP:311479",
                "elevationUnit": "METERS",
                "longitude": -81.8
            },
            {
                "elevation": 134.1,
                "mindate": "1948-01-01",
                "maxdate": "2015-11-01",
                "latitude": 35.332,
                "name": "CARTHAGE WATER TREATMENT PLANT, NC US",
                "datacoverage": 0.946,
                "id": "COOP:311515",
                "elevationUnit": "METERS",
                "longitude": -79.4066
            },
            {
                "elevation": 118.9,
                "mindate": "2000-07-01",
                "maxdate": "2015-11-01",
                "latitude": 35.71993,
                "name": "CARY, NC US",
                "datacoverage": 0.9892,
                "id": "COOP:311535",
                "elevationUnit": "METERS",
                "longitude": -78.78785
            },
            {
                "elevation": 344.4,
                "mindate": "1956-03-01",
                "maxdate": "2015-11-01",
                "latitude": 35.5119,
                "name": "CASAR, NC US",
                "datacoverage": 0.9916,
                "id": "COOP:311538",
                "elevationUnit": "METERS",
                "longitude": -81.6189
            },
            {
                "elevation": 807.7,
                "mindate": "1949-01-01",
                "maxdate": "2011-12-01",
                "latitude": 35.6375,
                "name": "CATALOOCHEE, NC US",
                "datacoverage": 0.9154,
                "id": "COOP:311564",
                "elevationUnit": "METERS",
                "longitude": -83.09556
            },
            {
                "elevation": 249.9,
                "mindate": "1935-01-01",
                "maxdate": "1975-09-01",
                "latitude": 35.7,
                "name": "CATAWBA 1 WSW, NC US",
                "datacoverage": 1,
                "id": "COOP:311577",
                "elevationUnit": "METERS",
                "longitude": -81.08333
            },
            {
                "elevation": 309.4,
                "mindate": "2012-01-01",
                "maxdate": "2015-11-01",
                "latitude": 35.6487,
                "name": "CATAWBA 5 SW, NC US",
                "datacoverage": 1,
                "id": "COOP:311578",
                "elevationUnit": "METERS",
                "longitude": -81.1342
            },
            {
                "elevation": 274.3,
                "mindate": "1975-10-01",
                "maxdate": "2011-12-01",
                "latitude": 35.74444,
                "name": "CATAWBA 3 NNW, NC US",
                "datacoverage": 0.9632,
                "id": "COOP:311579",
                "elevationUnit": "METERS",
                "longitude": -81.08472
            },
            {
                "elevation": 259.1,
                "mindate": "1948-01-01",
                "maxdate": "1977-06-01",
                "latitude": 35.73333,
                "name": "CATAWBA LOOKOUT SHOA, NC US",
                "datacoverage": 0.9972,
                "id": "COOP:311582",
                "elevationUnit": "METERS",
                "longitude": -81.06667
            },
            {
                "elevation": 2.4,
                "mindate": "1955-01-01",
                "maxdate": "2015-11-01",
                "latitude": 34.9833,
                "name": "CEDAR ISLAND, NC US",
                "datacoverage": 0.9877,
                "id": "COOP:311606",
                "elevationUnit": "METERS",
                "longitude": -76.3
            },
            {
                "elevation": 839.1,
                "mindate": "1948-09-01",
                "maxdate": "1981-05-01",
                "latitude": 35.15,
                "name": "CEDAR MOUNTAIN, NC US",
                "datacoverage": 0.0846,
                "id": "COOP:311614",
                "elevationUnit": "METERS",
                "longitude": -82.63333
            },
            {
                "elevation": 823,
                "mindate": "1948-01-01",
                "maxdate": "2013-12-01",
                "latitude": 35.82638,
                "name": "CELO 2 S, NC US",
                "datacoverage": 0.9823,
                "id": "COOP:311624",
                "elevationUnit": "METERS",
                "longitude": -82.1837
            },
            {
                "elevation": 152.4,
                "mindate": "1931-01-01",
                "maxdate": "2015-11-01",
                "latitude": 35.9086,
                "name": "CHAPEL HILL 2 W, NC US",
                "datacoverage": 0.9981,
                "id": "COOP:311677",
                "elevationUnit": "METERS",
                "longitude": -79.0794
            },
            {
                "elevation": 221.9,
                "mindate": "1948-01-01",
                "maxdate": "2015-11-01",
                "latitude": 35.2236,
                "name": "CHARLOTTE DOUGLAS AIRPORT, NC US",
                "datacoverage": 1,
                "id": "COOP:311690",
                "elevationUnit": "METERS",
                "longitude": -80.9552
            },
            {
                "elevation": 93.9,
                "mindate": "2007-07-01",
                "maxdate": "2015-11-01",
                "latitude": 35.73366,
                "name": "CHATHAM WTP, NC US",
                "datacoverage": 0.9304,
                "id": "COOP:311700",
                "elevationUnit": "METERS",
                "longitude": -79.00322
            },
            {
                "elevation": 12.2,
                "mindate": "2006-03-01",
                "maxdate": "2006-07-01",
                "latitude": 35.51861,
                "name": "CHOCOWINITY, NC US",
                "datacoverage": 0.9947,
                "id": "COOP:311770",
                "elevationUnit": "METERS",
                "longitude": -77.15306
            },
            {
                "elevation": 91.4,
                "mindate": "1955-11-01",
                "maxdate": "2015-11-01",
                "latitude": 35.6408,
                "name": "CLAYTON WTP, NC US",
                "datacoverage": 0.9764,
                "id": "COOP:311820",
                "elevationUnit": "METERS",
                "longitude": -78.4633
            },
            {
                "elevation": 46,
                "mindate": "1936-08-01",
                "maxdate": "1976-12-01",
                "latitude": 34.96667,
                "name": "CLINTON 2 S, NC US",
                "datacoverage": 0.9834,
                "id": "COOP:311877",
                "elevationUnit": "METERS",
                "longitude": -78.31667
            },
            {
                "elevation": 48.2,
                "mindate": "1970-12-01",
                "maxdate": "2015-11-01",
                "latitude": 35.02508,
                "name": "CLINTON 2 NE, NC US",
                "datacoverage": 0.9871,
                "id": "COOP:311881",
                "elevationUnit": "METERS",
                "longitude": -78.276
            },
            {
                "elevation": 3,
                "mindate": "2008-08-01",
                "maxdate": "2015-11-01",
                "latitude": 35.7109,
                "name": "COLUMBIA AG GUM NECK, NC US",
                "datacoverage": 0.9547,
                "id": "COOP:311949",
                "elevationUnit": "METERS",
                "longitude": -76.127
            },
            {
                "elevation": 3,
                "mindate": "1962-07-01",
                "maxdate": "1993-10-01",
                "latitude": 35.91667,
                "name": "COLUMBIA, NC US",
                "datacoverage": 0.8244,
                "id": "COOP:311956",
                "elevationUnit": "METERS",
                "longitude": -76.26667
            },
            {
                "elevation": 213.4,
                "mindate": "1933-01-01",
                "maxdate": "2015-11-01",
                "latitude": 35.4111,
                "name": "CONCORD, NC US",
                "datacoverage": 1,
                "id": "COOP:311975",
                "elevationUnit": "METERS",
                "longitude": -80.5834
            },
            {
                "elevation": 269.1,
                "mindate": "1948-01-01",
                "maxdate": "2015-11-01",
                "latitude": 35.8213,
                "name": "CONOVER OXFORD SHOALS, NC US",
                "datacoverage": 0.9767,
                "id": "COOP:311990",
                "elevationUnit": "METERS",
                "longitude": -81.1919
            },
            {
                "elevation": 684.9,
                "mindate": "1943-03-01",
                "maxdate": "2015-11-01",
                "latitude": 35.0604,
                "name": "COWEETA EXPERIMENTAL STATION, NC US",
                "datacoverage": 0.9759,
                "id": "COOP:312102",
                "elevationUnit": "METERS",
                "longitude": -83.4301
            },
            {
                "elevation": 668.1,
                "mindate": "1931-01-01",
                "maxdate": "2015-11-01",
                "latitude": 35.3116,
                "name": "CULLOWHEE, NC US",
                "datacoverage": 0.999,
                "id": "COOP:312200",
                "elevationUnit": "METERS",
                "longitude": -83.1747
            },
            {
                "elevation": 307.8,
                "mindate": "1948-06-01",
                "maxdate": "1999-07-01",
                "latitude": 36.3,
                "name": "DALTON, NC US",
                "datacoverage": 0.0391,
                "id": "COOP:312230",
                "elevationUnit": "METERS",
                "longitude": -80.4
            },
            {
                "elevation": 310.6,
                "mindate": "1946-11-01",
                "maxdate": "2015-11-01",
                "latitude": 36.4301,
                "name": "DANBURY, NC US",
                "datacoverage": 0.9699,
                "id": "COOP:312238",
                "elevationUnit": "METERS",
                "longitude": -80.1789
            },
            {
                "elevation": 391.7,
                "mindate": "1942-10-01",
                "maxdate": "2006-02-01",
                "latitude": 36.41194,
                "name": "DOBSON, NC US",
                "datacoverage": 0.0416,
                "id": "COOP:312388",
                "elevationUnit": "METERS",
                "longitude": -80.71917
            },
            {
                "elevation": 61,
                "mindate": "1962-09-01",
                "maxdate": "2015-11-01",
                "latitude": 35.32432,
                "name": "DUNN 4 NW, NC US",
                "datacoverage": 0.9828,
                "id": "COOP:312500",
                "elevationUnit": "METERS",
                "longitude": -78.68782
            },
            {
                "elevation": 121.9,
                "mindate": "1931-01-01",
                "maxdate": "2012-12-01",
                "latitude": 36.0425,
                "name": "DURHAM, NC US",
                "datacoverage": 0.9796,
                "id": "COOP:312515",
                "elevationUnit": "METERS",
                "longitude": -78.9625
            },
            {
                "elevation": 131.1,
                "mindate": "2003-02-01",
                "maxdate": "2006-08-01",
                "latitude": 36.0894,
                "name": "DURHAM 3 W, NC US",
                "datacoverage": 1,
                "id": "COOP:312518",
                "elevationUnit": "METERS",
                "longitude": -78.9636
            },
            {
                "elevation": 15.5,
                "mindate": "2005-04-01",
                "maxdate": "2011-12-01",
                "latitude": 34.3991,
                "name": "EAST ARCADIA 2 NE, NC US",
                "datacoverage": 0.9874,
                "id": "COOP:312560",
                "elevationUnit": "METERS",
                "longitude": -78.3158
            },
            {
                "elevation": 527.3,
                "mindate": "2011-01-01",
                "maxdate": "2015-11-01",
                "latitude": 35.24573,
                "name": "EAST FLAT ROCK 3 SE, NC US",
                "datacoverage": 1,
                "id": "COOP:312574",
                "elevationUnit": "METERS",
                "longitude": -82.38916
            },
            {
                "elevation": 206.7,
                "mindate": "1969-10-01",
                "maxdate": "2015-11-01",
                "latitude": 36.4742,
                "name": "EDEN, NC US",
                "datacoverage": 0.9964,
                "id": "COOP:312631",
                "elevationUnit": "METERS",
                "longitude": -79.7433
            },
            {
                "elevation": 3,
                "mindate": "1931-01-01",
                "maxdate": "2015-11-01",
                "latitude": 36.0164,
                "name": "EDENTON, NC US",
                "datacoverage": 0.9971,
                "id": "COOP:312635",
                "elevationUnit": "METERS",
                "longitude": -76.5516
            },
            {
                "elevation": 2.4,
                "mindate": "1931-01-01",
                "maxdate": "2015-11-01",
                "latitude": 36.3096,
                "name": "ELIZABETH CITY, NC US",
                "datacoverage": 0.9716,
                "id": "COOP:312719",
                "elevationUnit": "METERS",
                "longitude": -76.205
            },
            {
                "elevation": 4,
                "mindate": "1946-01-01",
                "maxdate": "1983-09-01",
                "latitude": 36.26056,
                "name": "ELIZABETH CITY COAST GUARD AIR STATION, NC US",
                "datacoverage": 0.9846,
                "id": "COOP:312724",
                "elevationUnit": "METERS",
                "longitude": -76.175
            },
            {
                "elevation": 36.6,
                "mindate": "1931-01-01",
                "maxdate": "2015-11-01",
                "latitude": 34.6272,
                "name": "ELIZABETHTOWN, NC US",
                "datacoverage": 0.9873,
                "id": "COOP:312732",
                "elevationUnit": "METERS",
                "longitude": -78.6113
            },
            {
                "elevation": 277.4,
                "mindate": "1931-01-01",
                "maxdate": "2015-11-01",
                "latitude": 36.25465,
                "name": "ELKIN, NC US",
                "datacoverage": 0.9932,
                "id": "COOP:312740",
                "elevationUnit": "METERS",
                "longitude": -80.86396
            },
            {
                "elevation": 348.1,
                "mindate": "1948-06-01",
                "maxdate": "1985-10-01",
                "latitude": 36.06667,
                "name": "ELKVILLE, NC US",
                "datacoverage": 0.0532,
                "id": "COOP:312757",
                "elevationUnit": "METERS",
                "longitude": -81.4
            },
            {
                "elevation": 33.5,
                "mindate": "1931-01-01",
                "maxdate": "2011-12-01",
                "latitude": 36.1686,
                "name": "ENFIELD, NC US",
                "datacoverage": 0.9815,
                "id": "COOP:312827",
                "elevationUnit": "METERS",
                "longitude": -77.675
            },
            {
                "elevation": 624.8,
                "mindate": "1931-01-01",
                "maxdate": "2015-11-01",
                "latitude": 35.5409,
                "name": "ENKA, NC US",
                "datacoverage": 0.9706,
                "id": "COOP:312837",
                "elevationUnit": "METERS",
                "longitude": -82.6535
            },
            {
                "elevation": 20.1,
                "mindate": "2005-01-01",
                "maxdate": "2007-01-01",
                "latitude": 34.3125,
                "name": "FAIR BLUFF, NC US",
                "datacoverage": 0.52,
                "id": "COOP:312933",
                "elevationUnit": "METERS",
                "longitude": -79.0355
            },
            {
                "elevation": 1.5,
                "mindate": "2006-09-01",
                "maxdate": "2015-11-01",
                "latitude": 35.5361,
                "name": "FAIRFIELD, NC US",
                "datacoverage": 0.9912,
                "id": "COOP:312940",
                "elevationUnit": "METERS",
                "longitude": -76.3121
            },
            {
                "elevation": 49.1,
                "mindate": "1954-02-01",
                "maxdate": "1971-01-31",
                "latitude": 35.1,
                "name": "FAISON, NC US",
                "datacoverage": 1,
                "id": "COOP:312971",
                "elevationUnit": "METERS",
                "longitude": -78.15
            },
            {
                "elevation": 85.3,
                "mindate": "2000-05-01",
                "maxdate": "2015-11-01",
                "latitude": 35.9808,
                "name": "FALLS LAKE, NC US",
                "datacoverage": 0.9786,
                "id": "COOP:312993",
                "elevationUnit": "METERS",
                "longitude": -78.6529
            },
            {
                "elevation": 73.2,
                "mindate": "2005-06-01",
                "maxdate": "2008-05-01",
                "latitude": 35.02667,
                "name": "FAYETTEVILLE 6 W, NC US",
                "datacoverage": 0.9165,
                "id": "COOP:313016",
                "elevationUnit": "METERS",
                "longitude": -78.97417
            },
            {
                "elevation": 29.3,
                "mindate": "1931-01-01",
                "maxdate": "2015-11-01",
                "latitude": 35.05909,
                "name": "FAYETTEVILLE PWC, NC US",
                "datacoverage": 0.9941,
                "id": "COOP:313017",
                "elevationUnit": "METERS",
                "longitude": -78.85883
            },
            {
                "elevation": 1015,
                "mindate": "2008-04-01",
                "maxdate": "2015-11-01",
                "latitude": 36.25251,
                "name": "FLAT SPRINGS 1 E, NC US",
                "datacoverage": 1,
                "id": "COOP:313072",
                "elevationUnit": "METERS",
                "longitude": -81.91352
            },
            {
                "elevation": 667.5,
                "mindate": "1956-10-01",
                "maxdate": "1995-07-01",
                "latitude": 35.45,
                "name": "FLETCHER 2 NE, NC US",
                "datacoverage": 0.9314,
                "id": "COOP:313101",
                "elevationUnit": "METERS",
                "longitude": -82.48333
            },
            {
                "elevation": 630.9,
                "mindate": "1959-01-01",
                "maxdate": "2015-11-01",
                "latitude": 35.4267,
                "name": "FLETCHER 3 W, NC US",
                "datacoverage": 1,
                "id": "COOP:313106",
                "elevationUnit": "METERS",
                "longitude": -82.557
            },
            {
                "elevation": 301.8,
                "mindate": "1975-01-01",
                "maxdate": "2004-12-01",
                "latitude": 35.2652,
                "name": "FOREST CITY 6 SW, NC US",
                "datacoverage": 0.9972,
                "id": "COOP:313150",
                "elevationUnit": "METERS",
                "longitude": -81.9311
            },
            {
                "elevation": 258.8,
                "mindate": "2005-03-01",
                "maxdate": "2015-11-01",
                "latitude": 35.3125,
                "name": "FOREST CITY 8 W, NC US",
                "datacoverage": 0.9999,
                "id": "COOP:313152",
                "elevationUnit": "METERS",
                "longitude": -81.9891
            },
            {
                "elevation": 48.8,
                "mindate": "1964-03-01",
                "maxdate": "2010-03-01",
                "latitude": 35.1778,
                "name": "FORT BRAGG WATER PLA, NC US",
                "datacoverage": 0.9801,
                "id": "COOP:313168",
                "elevationUnit": "METERS",
                "longitude": -79.0239
            },
            {
                "elevation": 647.7,
                "mindate": "1950-01-01",
                "maxdate": "2015-11-01",
                "latitude": 35.18038,
                "name": "FRANKLIN, NC US",
                "datacoverage": 0.9937,
                "id": "COOP:313228",
                "elevationUnit": "METERS",
                "longitude": -83.39294
            },
            {
                "elevation": 114.3,
                "mindate": "1948-06-01",
                "maxdate": "2006-03-01",
                "latitude": 36.105,
                "name": "FRANKLINTON, NC US",
                "datacoverage": 0.0363,
                "id": "COOP:313232",
                "elevationUnit": "METERS",
                "longitude": -78.45917
            },
            {
                "elevation": 17.1,
                "mindate": "2004-12-01",
                "maxdate": "2009-02-01",
                "latitude": 34.7391,
                "name": "GARLAND 4 SW, NC US",
                "datacoverage": 0.9616,
                "id": "COOP:313236",
                "elevationUnit": "METERS",
                "longitude": -78.3916
            },
            {
                "elevation": 100.6,
                "mindate": "1981-01-01",
                "maxdate": "1985-12-01",
                "latitude": 35.6708,
                "name": "GARNER, NC US",
                "datacoverage": 0.9335,
                "id": "COOP:313238",
                "elevationUnit": "METERS",
                "longitude": -78.6608
            },
            {
                "elevation": 1.5,
                "mindate": "2005-11-01",
                "maxdate": "2009-03-01",
                "latitude": 35.26028,
                "name": "FRISCO, NC US",
                "datacoverage": 1,
                "id": "COOP:313333",
                "elevationUnit": "METERS",
                "longitude": -75.5825
            },
            {
                "elevation": 0,
                "mindate": "2010-06-01",
                "maxdate": "2015-11-01",
                "latitude": 35.2512,
                "name": "FRISCO 2 NNE, NC US",
                "datacoverage": 0.9999,
                "id": "COOP:313336",
                "elevationUnit": "METERS",
                "longitude": -75.6048
            },
            {
                "elevation": 213.4,
                "mindate": "1930-11-01",
                "maxdate": "2015-11-01",
                "latitude": 35.2671,
                "name": "GASTONIA, NC US",
                "datacoverage": 0.9873,
                "id": "COOP:313356",
                "elevationUnit": "METERS",
                "longitude": -81.1436
            },
            {
                "elevation": 11.9,
                "mindate": "1948-05-01",
                "maxdate": "1973-09-01",
                "latitude": 36.43333,
                "name": "GATESVILLE, NC US",
                "datacoverage": 0.9405,
                "id": "COOP:313364",
                "elevationUnit": "METERS",
                "longitude": -76.71667
            },
            {
                "elevation": 860.1,
                "mindate": "1953-01-01",
                "maxdate": "1976-07-01",
                "latitude": 35.86667,
                "name": "GILLESPIE GAP, NC US",
                "datacoverage": 0.993,
                "id": "COOP:313427",
                "elevationUnit": "METERS",
                "longitude": -82.05
            },
            {
                "elevation": 887,
                "mindate": "1946-01-01",
                "maxdate": "1993-06-01",
                "latitude": 36.35,
                "name": "GLENDALE SPRINGS, NC US",
                "datacoverage": 0.9615,
                "id": "COOP:313455",
                "elevationUnit": "METERS",
                "longitude": -81.38333
            },
            {
                "elevation": 33.2,
                "mindate": "1931-01-01",
                "maxdate": "2009-09-01",
                "latitude": 35.3444,
                "name": "GOLDSBORO SEYMOUR JOHNSON AFB, NC US",
                "datacoverage": 0.9759,
                "id": "COOP:313510",
                "elevationUnit": "METERS",
                "longitude": -77.9647
            },
            {
                "elevation": 201.2,
                "mindate": "1931-01-01",
                "maxdate": "2015-11-01",
                "latitude": 36.0503,
                "name": "GRAHAM 2 ENE, NC US",
                "datacoverage": 0.999,
                "id": "COOP:313555",
                "elevationUnit": "METERS",
                "longitude": -79.3728
            },
            {
                "elevation": 1609.3,
                "mindate": "1955-08-01",
                "maxdate": "2015-11-01",
                "latitude": 36.0963,
                "name": "GRANDFATHER MOUNTAIN, NC US",
                "datacoverage": 0.9986,
                "id": "COOP:313565",
                "elevationUnit": "METERS",
                "longitude": -81.8311
            },
            {
                "elevation": 233.2,
                "mindate": "1948-11-01",
                "maxdate": "2015-11-01",
                "latitude": 36.08317,
                "name": "GREENSBORO WTP, NC US",
                "datacoverage": 0.5752,
                "id": "COOP:313625",
                "elevationUnit": "METERS",
                "longitude": -79.80447
            },
            {
                "elevation": 271.3,
                "mindate": "1931-01-01",
                "maxdate": "2015-11-01",
                "latitude": 36.0969,
                "name": "GREENSBORO AIRPORT, NC US",
                "datacoverage": 0.9873,
                "id": "COOP:313630",
                "elevationUnit": "METERS",
                "longitude": -79.9432
            },
            {
                "elevation": 9.8,
                "mindate": "1931-01-01",
                "maxdate": "2015-11-01",
                "latitude": 35.64,
                "name": "GREENVILLE, NC US",
                "datacoverage": 0.9882,
                "id": "COOP:313638",
                "elevationUnit": "METERS",
                "longitude": -77.3984
            },
            {
                "elevation": 106.7,
                "mindate": "1950-01-01",
                "maxdate": "2015-11-01",
                "latitude": 34.88634,
                "name": "HAMLET, NC US",
                "datacoverage": 0.9925,
                "id": "COOP:313784",
                "elevationUnit": "METERS",
                "longitude": -79.69238
            },
            {
                "elevation": 4.6,
                "mindate": "1950-01-01",
                "maxdate": "2004-05-01",
                "latitude": 35.21667,
                "name": "HATTERAS, NC US",
                "datacoverage": 0.8898,
                "id": "COOP:313897",
                "elevationUnit": "METERS",
                "longitude": -75.71667
            },
            {
                "elevation": 1414.9,
                "mindate": "1967-09-01",
                "maxdate": "1974-07-01",
                "latitude": 35.35,
                "name": "HAW KNOB STRATTON MD, NC US",
                "datacoverage": 0.0662,
                "id": "COOP:313917",
                "elevationUnit": "METERS",
                "longitude": -84.03333
            },
            {
                "elevation": 193.9,
                "mindate": "2001-11-01",
                "maxdate": "2015-11-01",
                "latitude": 36.06397,
                "name": "HAW RIVER 1 E, NC US",
                "datacoverage": 0.9647,
                "id": "COOP:313919",
                "elevationUnit": "METERS",
                "longitude": -79.36929
            },
            {
                "elevation": 143.3,
                "mindate": "1957-01-01",
                "maxdate": "1975-06-01",
                "latitude": 36.08694,
                "name": "HAW RIVER, NC US",
                "datacoverage": 0.9819,
                "id": "COOP:313920",
                "elevationUnit": "METERS",
                "longitude": -79.36722
            },
            {
                "elevation": 579.1,
                "mindate": "1998-11-01",
                "maxdate": "2011-12-01",
                "latitude": 35.0533,
                "name": "HAYESVILLE 1 SW, NC US",
                "datacoverage": 1,
                "id": "COOP:313921",
                "elevationUnit": "METERS",
                "longitude": -83.825
            },
            {
                "elevation": 625.1,
                "mindate": "1958-10-01",
                "maxdate": "1976-08-01",
                "latitude": 35.08333,
                "name": "HAYESVILLE 4 NE, NC US",
                "datacoverage": 0.9952,
                "id": "COOP:313922",
                "elevationUnit": "METERS",
                "longitude": -83.76667
            },
            {
                "elevation": 1645.9,
                "mindate": "1948-09-01",
                "maxdate": "1981-05-01",
                "latitude": 35.3,
                "name": "HAYWOOD GAP, NC US",
                "datacoverage": 0.0972,
                "id": "COOP:313925",
                "elevationUnit": "METERS",
                "longitude": -82.91667
            },
            {
                "elevation": 865.6,
                "mindate": "1958-04-01",
                "maxdate": "2009-06-01",
                "latitude": 36.56306,
                "name": "HELTON, NC US",
                "datacoverage": 0.0434,
                "id": "COOP:313957",
                "elevationUnit": "METERS",
                "longitude": -81.50389
            },
            {
                "elevation": 146.3,
                "mindate": "1931-01-01",
                "maxdate": "2015-11-01",
                "latitude": 36.3488,
                "name": "HENDERSON 2 NNW, NC US",
                "datacoverage": 0.9745,
                "id": "COOP:313969",
                "elevationUnit": "METERS",
                "longitude": -78.41193
            },
            {
                "elevation": 658.4,
                "mindate": "1931-01-01",
                "maxdate": "2015-11-01",
                "latitude": 35.3297,
                "name": "HENDERSONVILLE 1 NE, NC US",
                "datacoverage": 0.9981,
                "id": "COOP:313976",
                "elevationUnit": "METERS",
                "longitude": -82.4491
            },
            {
                "elevation": 355.1,
                "mindate": "1931-01-01",
                "maxdate": "1976-07-01",
                "latitude": 35.75,
                "name": "HICKORY, NC US",
                "datacoverage": 0.9982,
                "id": "COOP:314015",
                "elevationUnit": "METERS",
                "longitude": -81.35
            },
            {
                "elevation": 358.1,
                "mindate": "1949-01-01",
                "maxdate": "2015-11-01",
                "latitude": 35.74207,
                "name": "HICKORY FAA AIRPORT, NC US",
                "datacoverage": 0.9751,
                "id": "COOP:314020",
                "elevationUnit": "METERS",
                "longitude": -81.38229
            },
            {
                "elevation": 1173.5,
                "mindate": "1931-01-01",
                "maxdate": "2015-11-01",
                "latitude": 35.05646,
                "name": "HIGHLANDS, NC US",
                "datacoverage": 0.9912,
                "id": "COOP:314055",
                "elevationUnit": "METERS",
                "longitude": -83.19822
            },
            {
                "elevation": 274.3,
                "mindate": "1931-01-01",
                "maxdate": "2015-11-01",
                "latitude": 35.96743,
                "name": "HIGH POINT, NC US",
                "datacoverage": 0.9814,
                "id": "COOP:314063",
                "elevationUnit": "METERS",
                "longitude": -79.97086
            },
            {
                "elevation": 2.4,
                "mindate": "1948-06-01",
                "maxdate": "2007-08-01",
                "latitude": 35.20555,
                "name": "HOBUCKEN BRIDGE, NC US",
                "datacoverage": 0.0218,
                "id": "COOP:314136",
                "elevationUnit": "METERS",
                "longitude": -76.58972
            },
            {
                "elevation": 14.3,
                "mindate": "1945-12-01",
                "maxdate": "2010-12-01",
                "latitude": 34.83583,
                "name": "HOFMANN FOREST, NC US",
                "datacoverage": 0.5147,
                "id": "COOP:314144",
                "elevationUnit": "METERS",
                "longitude": -77.30306
            },
            {
                "elevation": 410,
                "mindate": "1940-10-01",
                "maxdate": "2015-11-01",
                "latitude": 35.89536,
                "name": "HOT SPRINGS, NC US",
                "datacoverage": 0.8226,
                "id": "COOP:314260",
                "elevationUnit": "METERS",
                "longitude": -82.8313
            },
            {
                "elevation": 451.1,
                "mindate": "1931-01-01",
                "maxdate": "1984-03-01",
                "latitude": 35.9,
                "name": "HOT SPRINGS 2, NC US",
                "datacoverage": 0.9969,
                "id": "COOP:314265",
                "elevationUnit": "METERS",
                "longitude": -82.83333
            },
            {
                "elevation": 883.9,
                "mindate": "1940-04-01",
                "maxdate": "1998-03-01",
                "latitude": 36.31194,
                "name": "IDLEWILD, NC US",
                "datacoverage": 0.9382,
                "id": "COOP:314385",
                "elevationUnit": "METERS",
                "longitude": -81.45889
            },
            {
                "elevation": 37.5,
                "mindate": "1948-07-01",
                "maxdate": "2015-11-01",
                "latitude": 36.39652,
                "name": "JACKSON, NC US",
                "datacoverage": 0.9802,
                "id": "COOP:314456",
                "elevationUnit": "METERS",
                "longitude": -77.42397
            },
            {
                "elevation": 222.5,
                "mindate": "1952-07-01",
                "maxdate": "2015-11-01",
                "latitude": 35.18355,
                "name": "JACKSON SPRINGS 5 WNW, NC US",
                "datacoverage": 0.9934,
                "id": "COOP:314464",
                "elevationUnit": "METERS",
                "longitude": -79.67736
            },
            {
                "elevation": 5.2,
                "mindate": "2004-04-01",
                "maxdate": "2015-11-01",
                "latitude": 34.7965,
                "name": "JACKSONVILLE EOC, NC US",
                "datacoverage": 0.9929,
                "id": "COOP:314471",
                "elevationUnit": "METERS",
                "longitude": -77.401
            },
            {
                "elevation": 844.3,
                "mindate": "1931-01-01",
                "maxdate": "2015-11-01",
                "latitude": 36.41747,
                "name": "JEFFERSON, NC US",
                "datacoverage": 0.9824,
                "id": "COOP:314496",
                "elevationUnit": "METERS",
                "longitude": -81.42964
            },
            {
                "elevation": 33.5,
                "mindate": "1962-12-01",
                "maxdate": "1982-12-01",
                "latitude": 35,
                "name": "KENANSVILLE, NC US",
                "datacoverage": 0.9875,
                "id": "COOP:314619",
                "elevationUnit": "METERS",
                "longitude": -78.033333
            },
            {
                "elevation": 3,
                "mindate": "1948-06-01",
                "maxdate": "1982-05-01",
                "latitude": 36.01667,
                "name": "KILL DEVIL HILLS N M, NC US",
                "datacoverage": 0.041,
                "id": "COOP:314649",
                "elevationUnit": "METERS",
                "longitude": -75.66667
            },
            {
                "elevation": 268.2,
                "mindate": "1999-07-01",
                "maxdate": "2015-11-01",
                "latitude": 36.2838,
                "name": "KING, NC US",
                "datacoverage": 0.9491,
                "id": "COOP:314675",
                "elevationUnit": "METERS",
                "longitude": -80.3624
            },
            {
                "elevation": 7.3,
                "mindate": "1931-01-01",
                "maxdate": "2015-11-01",
                "latitude": 35.1967,
                "name": "KINSTON 7 SE, NC US",
                "datacoverage": 0.9961,
                "id": "COOP:314684",
                "elevationUnit": "METERS",
                "longitude": -77.5432
            },
            {
                "elevation": 18.3,
                "mindate": "1966-03-01",
                "maxdate": "2015-11-01",
                "latitude": 35.2975,
                "name": "KINSTON AG RESEARCH, NC US",
                "datacoverage": 0.9899,
                "id": "COOP:314689",
                "elevationUnit": "METERS",
                "longitude": -77.5722
            },
            {
                "elevation": 368.8,
                "mindate": "1973-11-01",
                "maxdate": "1983-09-21",
                "latitude": 35.4,
                "name": "LAKE LURE, NC US",
                "datacoverage": 1,
                "id": "COOP:314762",
                "elevationUnit": "METERS",
                "longitude": -82.2
            },
            {
                "elevation": 317,
                "mindate": "1948-01-01",
                "maxdate": "2015-11-01",
                "latitude": 35.42041,
                "name": "LAKE LURE 2, NC US",
                "datacoverage": 0.7743,
                "id": "COOP:314764",
                "elevationUnit": "METERS",
                "longitude": -82.18753
            },
            {
                "elevation": 100.9,
                "mindate": "1931-01-01",
                "maxdate": "1972-12-01",
                "latitude": 36.15,
                "name": "LAKE MICHIE, NC US",
                "datacoverage": 0.9722,
                "id": "COOP:314772",
                "elevationUnit": "METERS",
                "longitude": -78.83333
            },
            {
                "elevation": 92,
                "mindate": "1935-08-01",
                "maxdate": "1977-12-01",
                "latitude": 35.75,
                "name": "LAKE RALEIGH, NC US",
                "datacoverage": 0.9941,
                "id": "COOP:314780",
                "elevationUnit": "METERS",
                "longitude": -78.68333
            },
            {
                "elevation": 975.4,
                "mindate": "1952-01-01",
                "maxdate": "2015-11-01",
                "latitude": 35.0966,
                "name": "LAKE TOXAWAY 2 SW, NC US",
                "datacoverage": 0.94,
                "id": "COOP:314788",
                "elevationUnit": "METERS",
                "longitude": -82.9509
            },
            {
                "elevation": 64,
                "mindate": "1946-06-01",
                "maxdate": "2015-11-01",
                "latitude": 34.7502,
                "name": "LAURINBURG, NC US",
                "datacoverage": 0.9964,
                "id": "COOP:314860",
                "elevationUnit": "METERS",
                "longitude": -79.46628
            },
            {
                "elevation": 352,
                "mindate": "1931-01-01",
                "maxdate": "2015-11-01",
                "latitude": 35.9147,
                "name": "LENOIR, NC US",
                "datacoverage": 0.9951,
                "id": "COOP:314938",
                "elevationUnit": "METERS",
                "longitude": -81.5374
            },
            {
                "elevation": 15.2,
                "mindate": "1954-03-01",
                "maxdate": "2015-11-01",
                "latitude": 36.1325,
                "name": "LEWISTON, NC US",
                "datacoverage": 0.9824,
                "id": "COOP:314962",
                "elevationUnit": "METERS",
                "longitude": -77.1708
            },
            {
                "elevation": 231.6,
                "mindate": "1938-06-01",
                "maxdate": "2015-11-01",
                "latitude": 35.84566,
                "name": "LEXINGTON, NC US",
                "datacoverage": 0.9957,
                "id": "COOP:314970",
                "elevationUnit": "METERS",
                "longitude": -80.25987
            },
            {
                "elevation": 262.1,
                "mindate": "1948-06-01",
                "maxdate": "1980-08-22",
                "latitude": 35.9,
                "name": "LEXINGTON 7 N, NC US",
                "datacoverage": 0.049,
                "id": "COOP:314975",
                "elevationUnit": "METERS",
                "longitude": -80.26667
            },
            {
                "elevation": 270.4,
                "mindate": "1952-04-01",
                "maxdate": "2015-11-01",
                "latitude": 35.4606,
                "name": "LINCOLNTON 4 W, NC US",
                "datacoverage": 0.9948,
                "id": "COOP:314996",
                "elevationUnit": "METERS",
                "longitude": -81.3296
            },
            {
                "elevation": 245.4,
                "mindate": "2011-01-01",
                "maxdate": "2015-11-01",
                "latitude": 35.48,
                "name": "LINCOLNTON 2 NW, NC US",
                "datacoverage": 1,
                "id": "COOP:314997",
                "elevationUnit": "METERS",
                "longitude": -81.2799
            },
            {
                "elevation": 12.2,
                "mindate": "1972-06-01",
                "maxdate": "2015-11-01",
                "latitude": 34.0106,
                "name": "LONGWOOD, NC US",
                "datacoverage": 0.9943,
                "id": "COOP:315116",
                "elevationUnit": "METERS",
                "longitude": -78.5464
            },
            {
                "elevation": 79.2,
                "mindate": "1931-01-01",
                "maxdate": "2015-11-01",
                "latitude": 36.1028,
                "name": "LOUISBURG, NC US",
                "datacoverage": 0.9873,
                "id": "COOP:315123",
                "elevationUnit": "METERS",
                "longitude": -78.3039
            },
            {
                "elevation": 29.3,
                "mindate": "2007-03-01",
                "maxdate": "2015-11-01",
                "latitude": 34.3902,
                "name": "LUMBER RIVER STATE PARK, NC US",
                "datacoverage": 0.9997,
                "id": "COOP:315175",
                "elevationUnit": "METERS",
                "longitude": -79.0022
            },
            {
                "elevation": 34.1,
                "mindate": "1931-01-01",
                "maxdate": "2015-11-01",
                "latitude": 34.6269,
                "name": "LUMBERTON, NC US",
                "datacoverage": 0.9578,
                "id": "COOP:315177",
                "elevationUnit": "METERS",
                "longitude": -79.025
            },
            {
                "elevation": 36.9,
                "mindate": "1948-09-01",
                "maxdate": "2015-11-01",
                "latitude": 34.608,
                "name": "LUMBERTON REGIONAL AIRPORT, NC US",
                "datacoverage": 0.2429,
                "id": "COOP:315182",
                "elevationUnit": "METERS",
                "longitude": -79.0591
            },
            {
                "elevation": 116.1,
                "mindate": "1931-01-01",
                "maxdate": "1971-01-01",
                "latitude": 36.16667,
                "name": "MANGUMS STORE 4 WSW, NC US",
                "datacoverage": 0.9584,
                "id": "COOP:315283",
                "elevationUnit": "METERS",
                "longitude": -78.9
            },
            {
                "elevation": 4,
                "mindate": "1967-01-01",
                "maxdate": "2015-11-01",
                "latitude": 35.9173,
                "name": "MANTEO AIRPORT, NC US",
                "datacoverage": 0.9336,
                "id": "COOP:315303",
                "elevationUnit": "METERS",
                "longitude": -75.7
            },
            {
                "elevation": 429.8,
                "mindate": "1931-01-01",
                "maxdate": "2015-11-01",
                "latitude": 35.6847,
                "name": "MARION, NC US",
                "datacoverage": 0.9254,
                "id": "COOP:315340",
                "elevationUnit": "METERS",
                "longitude": -82.0084
            },
            {
                "elevation": 585.2,
                "mindate": "1931-01-01",
                "maxdate": "2015-11-01",
                "latitude": 35.80336,
                "name": "MARSHALL, NC US",
                "datacoverage": 0.9863,
                "id": "COOP:315356",
                "elevationUnit": "METERS",
                "longitude": -82.66573
            },
            {
                "elevation": 14.3,
                "mindate": "1950-01-01",
                "maxdate": "1980-12-01",
                "latitude": 34.83583,
                "name": "HOFMANN FOREST, NC US",
                "datacoverage": 1,
                "id": "COOP:315420",
                "elevationUnit": "METERS",
                "longitude": -77.30306
            },
            {
                "elevation": 185.9,
                "mindate": "2010-05-01",
                "maxdate": "2013-12-01",
                "latitude": 35.2625,
                "name": "MCADENVILLE, NC US",
                "datacoverage": 0.9987,
                "id": "COOP:315424",
                "elevationUnit": "METERS",
                "longitude": -81.0777
            },
            {
                "elevation": 134.1,
                "mindate": "1937-04-01",
                "maxdate": "1980-11-01",
                "latitude": 35.66667,
                "name": "MC CULLERS 1 W, NC US",
                "datacoverage": 0.9923,
                "id": "COOP:315445",
                "elevationUnit": "METERS",
                "longitude": -78.7
            },
            {
                "elevation": 207.3,
                "mindate": "1932-01-01",
                "maxdate": "2015-11-01",
                "latitude": 35.84219,
                "name": "MOCKSVILLE 5 SE, NC US",
                "datacoverage": 0.9772,
                "id": "COOP:315743",
                "elevationUnit": "METERS",
                "longitude": -80.49777
            },
            {
                "elevation": 61.6,
                "mindate": "1931-01-01",
                "maxdate": "1979-06-01",
                "latitude": 35.58333,
                "name": "MONCURE 3 SE, NC US",
                "datacoverage": 0.9984,
                "id": "COOP:315763",
                "elevationUnit": "METERS",
                "longitude": -79.05
            },
            {
                "elevation": 167.6,
                "mindate": "1896-01-01",
                "maxdate": "2015-11-01",
                "latitude": 34.9797,
                "name": "MONROE 2 SE, NC US",
                "datacoverage": 0.9938,
                "id": "COOP:315771",
                "elevationUnit": "METERS",
                "longitude": -80.5233
            },
            {
                "elevation": 265.2,
                "mindate": "1949-03-24",
                "maxdate": "2014-01-01",
                "latitude": 35.5938,
                "name": "MOORESVILLE 2 WNW, NC US",
                "datacoverage": 0.042,
                "id": "COOP:315814",
                "elevationUnit": "METERS",
                "longitude": -80.8391
            },
            {
                "elevation": 6.7,
                "mindate": "2005-06-01",
                "maxdate": "2015-11-01",
                "latitude": 34.458,
                "name": "MOORES CREEK NATIONAL BATTLEFIELD, NC US",
                "datacoverage": 0.9603,
                "id": "COOP:315820",
                "elevationUnit": "METERS",
                "longitude": -78.1094
            },
            {
                "elevation": 3,
                "mindate": "1948-05-01",
                "maxdate": "2015-11-01",
                "latitude": 34.7336,
                "name": "MOREHEAD CITY 2 WNW, NC US",
                "datacoverage": 0.9975,
                "id": "COOP:315830",
                "elevationUnit": "METERS",
                "longitude": -76.7357
            },
            {
                "elevation": 378,
                "mindate": "2011-01-01",
                "maxdate": "2011-12-01",
                "latitude": 35.6808,
                "name": "MORGANTON AG 4 E, NC US",
                "datacoverage": 1,
                "id": "COOP:315831",
                "elevationUnit": "METERS",
                "longitude": -81.7211
            },
            {
                "elevation": 359.7,
                "mindate": "1931-01-01",
                "maxdate": "2015-11-01",
                "latitude": 35.72972,
                "name": "MORGANTON, NC US",
                "datacoverage": 0.999,
                "id": "COOP:315838",
                "elevationUnit": "METERS",
                "longitude": -81.67273
            },
            {
                "elevation": 458.1,
                "mindate": "1935-09-01",
                "maxdate": "1972-10-01",
                "latitude": 35.98333,
                "name": "MORTIMER, NC US",
                "datacoverage": 0.9372,
                "id": "COOP:315856",
                "elevationUnit": "METERS",
                "longitude": -81.78333
            },
            {
                "elevation": 329.2,
                "mindate": "1931-01-01",
                "maxdate": "2015-11-01",
                "latitude": 36.49618,
                "name": "MOUNT AIRY 2 W, NC US",
                "datacoverage": 0.9971,
                "id": "COOP:315890",
                "elevationUnit": "METERS",
                "longitude": -80.65226
            },
            {
                "elevation": 67.1,
                "mindate": "1931-01-01",
                "maxdate": "1970-06-01",
                "latitude": 35.2078,
                "name": "MOUNT GILEAD 4 W, NC US",
                "datacoverage": 0.9895,
                "id": "COOP:315898",
                "elevationUnit": "METERS",
                "longitude": -80.0636
            },
            {
                "elevation": 185.9,
                "mindate": "1885-10-01",
                "maxdate": "2015-11-01",
                "latitude": 35.3338,
                "name": "MOUNT HOLLY 4 NE, NC US",
                "datacoverage": 0.7017,
                "id": "COOP:315913",
                "elevationUnit": "METERS",
                "longitude": -80.9868
            },
            {
                "elevation": 1991.9,
                "mindate": "1976-10-01",
                "maxdate": "1979-04-26",
                "latitude": 35.73333,
                "name": "MOUNT MITCHELL 2 SSW, NC US",
                "datacoverage": 0.0394,
                "id": "COOP:315922",
                "elevationUnit": "METERS",
                "longitude": -82.28333
            },
            {
                "elevation": 1902,
                "mindate": "1988-12-01",
                "maxdate": "2015-11-01",
                "latitude": 35.7585,
                "name": "MOUNT MITCHELL, NC US",
                "datacoverage": 1,
                "id": "COOP:315923",
                "elevationUnit": "METERS",
                "longitude": -82.2711
            },
            {
                "elevation": 49.4,
                "mindate": "2011-01-01",
                "maxdate": "2015-11-01",
                "latitude": 35.13763,
                "name": "MOUNT OLIVE 6 SE, NC US",
                "datacoverage": 0.9496,
                "id": "COOP:315930",
                "elevationUnit": "METERS",
                "longitude": -77.98908
            },
            {
                "elevation": 225.6,
                "mindate": "1948-01-01",
                "maxdate": "2015-11-01",
                "latitude": 35.4116,
                "name": "MOUNT PLEASANT, NC US",
                "datacoverage": 0.1252,
                "id": "COOP:315945",
                "elevationUnit": "METERS",
                "longitude": -80.4308
            },
            {
                "elevation": 30.5,
                "mindate": "1973-08-01",
                "maxdate": "2015-11-01",
                "latitude": 36.4521,
                "name": "MURFREESBORO, NC US",
                "datacoverage": 0.9666,
                "id": "COOP:315996",
                "elevationUnit": "METERS",
                "longitude": -77.0803
            },
            {
                "elevation": 487.7,
                "mindate": "1931-01-01",
                "maxdate": "2015-11-01",
                "latitude": 35.0714,
                "name": "MURPHY 4 ESE, NC US",
                "datacoverage": 0.9843,
                "id": "COOP:316001",
                "elevationUnit": "METERS",
                "longitude": -83.9684
            },
            {
                "elevation": 613,
                "mindate": "1934-02-01",
                "maxdate": "1976-07-01",
                "latitude": 35.26667,
                "name": "NANTAHALA, NC US",
                "datacoverage": 0.9981,
                "id": "COOP:316031",
                "elevationUnit": "METERS",
                "longitude": -83.68333
            },
            {
                "elevation": 64,
                "mindate": "1931-01-01",
                "maxdate": "1987-09-01",
                "latitude": 35.96667,
                "name": "NASHVILLE, NC US",
                "datacoverage": 0.9986,
                "id": "COOP:316044",
                "elevationUnit": "METERS",
                "longitude": -77.96667
            },
            {
                "elevation": 85.3,
                "mindate": "1931-01-01",
                "maxdate": "1999-09-01",
                "latitude": 35.91667,
                "name": "NEUSE 2 NE, NC US",
                "datacoverage": 1,
                "id": "COOP:316091",
                "elevationUnit": "METERS",
                "longitude": -78.56667
            },
            {
                "elevation": 9.1,
                "mindate": "2009-06-01",
                "maxdate": "2015-11-01",
                "latitude": 34.7763,
                "name": "NEWPORT MOREHEAD CITY WEATHER FORECAST OFFICE, NC US",
                "datacoverage": 1,
                "id": "COOP:316096",
                "elevationUnit": "METERS",
                "longitude": -76.877
            },
            {
                "elevation": 3,
                "mindate": "1931-01-01",
                "maxdate": "1975-12-01",
                "latitude": 35.13333,
                "name": "NEW BERN 3 NW, NC US",
                "datacoverage": 0.9945,
                "id": "COOP:316103",
                "elevationUnit": "METERS",
                "longitude": -77.08333
            },
            {
                "elevation": 5.8,
                "mindate": "1948-09-01",
                "maxdate": "2015-11-01",
                "latitude": 35.0677,
                "name": "NEW BERN ASOS, NC US",
                "datacoverage": 0.9344,
                "id": "COOP:316108",
                "elevationUnit": "METERS",
                "longitude": -77.048
            },
            {
                "elevation": 97.5,
                "mindate": "2003-04-01",
                "maxdate": "2015-11-01",
                "latitude": 35.68107,
                "name": "NEW HILL, NC US",
                "datacoverage": 0.6249,
                "id": "COOP:316122",
                "elevationUnit": "METERS",
                "longitude": -78.91557
            },
            {
                "elevation": 0.6,
                "mindate": "1931-01-01",
                "maxdate": "2003-08-01",
                "latitude": 35.44861,
                "name": "NEW HOLLAND, NC US",
                "datacoverage": 0.953,
                "id": "COOP:316135",
                "elevationUnit": "METERS",
                "longitude": -76.21083
            },
            {
                "elevation": 95.1,
                "mindate": "1971-05-02",
                "maxdate": "1978-06-01",
                "latitude": 35.65,
                "name": "NEW HOPE DAM, NC US",
                "datacoverage": 0.0291,
                "id": "COOP:316139",
                "elevationUnit": "METERS",
                "longitude": -79.06667
            },
            {
                "elevation": 842.8,
                "mindate": "1948-09-01",
                "maxdate": "1981-04-02",
                "latitude": 35.7,
                "name": "NORTH FORK, NC US",
                "datacoverage": 0.0826,
                "id": "COOP:316231",
                "elevationUnit": "METERS",
                "longitude": -82.33333
            },
            {
                "elevation": 755.9,
                "mindate": "1942-10-01",
                "maxdate": "2015-11-01",
                "latitude": 35.66308,
                "name": "NORTH FORK 2, NC US",
                "datacoverage": 1,
                "id": "COOP:316236",
                "elevationUnit": "METERS",
                "longitude": -82.34446
            },
            {
                "elevation": 341.4,
                "mindate": "1931-01-01",
                "maxdate": "2015-11-01",
                "latitude": 36.1638,
                "name": "NORTH WILKESBORO, NC US",
                "datacoverage": 0.9961,
                "id": "COOP:316256",
                "elevationUnit": "METERS",
                "longitude": -81.1536
            },
            {
                "elevation": 320,
                "mindate": "1948-06-01",
                "maxdate": "2005-10-01",
                "latitude": 36.07306,
                "name": "N WILKESBORO 11 SE, NC US",
                "datacoverage": 0.0418,
                "id": "COOP:316261",
                "elevationUnit": "METERS",
                "longitude": -80.9775
            },
            {
                "elevation": 88.4,
                "mindate": "1971-01-01",
                "maxdate": "1989-12-01",
                "latitude": 35.23333,
                "name": "NORWOOD 1 ENE, NC US",
                "datacoverage": 0.9956,
                "id": "COOP:316274",
                "elevationUnit": "METERS",
                "longitude": -80.1
            },
            {
                "elevation": 75.9,
                "mindate": "1956-06-01",
                "maxdate": "1970-12-01",
                "latitude": 35.16667,
                "name": "NORWOOD 6 SW, NC US",
                "datacoverage": 0.96,
                "id": "COOP:316275",
                "elevationUnit": "METERS",
                "longitude": -80.18333
            },
            {
                "elevation": 88.4,
                "mindate": "2001-11-01",
                "maxdate": "2008-09-01",
                "latitude": 35.2475,
                "name": "NORWOOD 2 NE, NC US",
                "datacoverage": 0.8073,
                "id": "COOP:316278",
                "elevationUnit": "METERS",
                "longitude": -80.12444
            },
            {
                "elevation": 137.2,
                "mindate": "1990-01-01",
                "maxdate": "2001-09-01",
                "latitude": 35.22056,
                "name": "NORWOOD 6 W, NC US",
                "datacoverage": 0.986,
                "id": "COOP:316289",
                "elevationUnit": "METERS",
                "longitude": -80.2275
            },
            {
                "elevation": 598.9,
                "mindate": "1958-11-01",
                "maxdate": "2015-11-01",
                "latitude": 35.48997,
                "name": "CHEROKEE, NC US",
                "datacoverage": 0.9913,
                "id": "COOP:316341",
                "elevationUnit": "METERS",
                "longitude": -83.31361
            },
            {
                "elevation": 1.2,
                "mindate": "1957-05-01",
                "maxdate": "2015-11-01",
                "latitude": 35.1075,
                "name": "OCRACOKE, NC US",
                "datacoverage": 0.6045,
                "id": "COOP:316349",
                "elevationUnit": "METERS",
                "longitude": -75.9872
            },
            {
                "elevation": 434.3,
                "mindate": "2011-01-01",
                "maxdate": "2015-11-01",
                "latitude": 35.6672,
                "name": "OLD FORT AG 3 W, NC US",
                "datacoverage": 1,
                "id": "COOP:316380",
                "elevationUnit": "METERS",
                "longitude": -82.1236
            },
            {
                "elevation": 6.1,
                "mindate": "2004-07-01",
                "maxdate": "2015-11-01",
                "latitude": 34.925,
                "name": "RICHLANDS, NC US",
                "datacoverage": 1,
                "id": "COOP:316422",
                "elevationUnit": "METERS",
                "longitude": -77.5113
            },
            {
                "elevation": 152.4,
                "mindate": "1931-01-01",
                "maxdate": "1994-02-01",
                "latitude": 36.3,
                "name": "OXFORD 1 E, NC US",
                "datacoverage": 0.9961,
                "id": "COOP:316507",
                "elevationUnit": "METERS",
                "longitude": -78.61667
            },
            {
                "elevation": 152.4,
                "mindate": "1994-03-01",
                "maxdate": "2015-11-01",
                "latitude": 36.30402,
                "name": "OXFORD AG, NC US",
                "datacoverage": 0.9922,
                "id": "COOP:316510",
                "elevationUnit": "METERS",
                "longitude": -78.61083
            },
            {
                "elevation": 387.1,
                "mindate": "1943-03-01",
                "maxdate": "2011-12-01",
                "latitude": 35.9983,
                "name": "PATTERSON, NC US",
                "datacoverage": 0.9467,
                "id": "COOP:316602",
                "elevationUnit": "METERS",
                "longitude": -81.565
            },
            {
                "elevation": 8.5,
                "mindate": "2003-04-01",
                "maxdate": "2015-11-01",
                "latitude": 35.0556,
                "name": "PERRYTOWN, NC US",
                "datacoverage": 0.9867,
                "id": "COOP:316676",
                "elevationUnit": "METERS",
                "longitude": -77.0859
            },
            {
                "elevation": 289.6,
                "mindate": "2005-05-01",
                "maxdate": "2011-12-01",
                "latitude": 36.1558,
                "name": "PFAFFTOWN, NC US",
                "datacoverage": 0.9746,
                "id": "COOP:316686",
                "elevationUnit": "METERS",
                "longitude": -80.3699
            },
            {
                "elevation": 167.9,
                "mindate": "1931-01-01",
                "maxdate": "1978-02-01",
                "latitude": 35.2,
                "name": "PINEHURST SOUTHERN P, NC US",
                "datacoverage": 0.9824,
                "id": "COOP:316742",
                "elevationUnit": "METERS",
                "longitude": -79.46667
            },
            {
                "elevation": 667.5,
                "mindate": "1939-09-01",
                "maxdate": "2015-11-01",
                "latitude": 35.2719,
                "name": "PISGAH FOREST 3 NE, NC US",
                "datacoverage": 0.9967,
                "id": "COOP:316805",
                "elevationUnit": "METERS",
                "longitude": -82.6475
            },
            {
                "elevation": 6.1,
                "mindate": "1945-02-01",
                "maxdate": "2015-11-01",
                "latitude": 35.8723,
                "name": "PLYMOUTH 5 E, NC US",
                "datacoverage": 1,
                "id": "COOP:316853",
                "elevationUnit": "METERS",
                "longitude": -76.6592
            },
            {
                "elevation": 93,
                "mindate": "1948-06-01",
                "maxdate": "2005-07-01",
                "latitude": 35.02028,
                "name": "POLKTON 2 NE, NC US",
                "datacoverage": 0.0398,
                "id": "COOP:316867",
                "elevationUnit": "METERS",
                "longitude": -80.16389
            },
            {
                "elevation": 66.4,
                "mindate": "1948-02-01",
                "maxdate": "2003-01-01",
                "latitude": 35.17389,
                "name": "FAYETTEVILLE POPE AFB, NC US",
                "datacoverage": 0.4833,
                "id": "COOP:316891",
                "elevationUnit": "METERS",
                "longitude": -79.00889
            },
            {
                "elevation": 792.5,
                "mindate": "1971-01-01",
                "maxdate": "1991-05-01",
                "latitude": 35.13333,
                "name": "QUEBEC, NC US",
                "datacoverage": 0.0418,
                "id": "COOP:317037",
                "elevationUnit": "METERS",
                "longitude": -82.88333
            },
            {
                "elevation": 76.2,
                "mindate": "1992-07-01",
                "maxdate": "2014-12-01",
                "latitude": 34.987,
                "name": "RAEFORD, NC US",
                "datacoverage": 0.9962,
                "id": "COOP:317056",
                "elevationUnit": "METERS",
                "longitude": -79.219
            },
            {
                "elevation": 126.8,
                "mindate": "1948-01-01",
                "maxdate": "2015-11-01",
                "latitude": 35.8923,
                "name": "RALEIGH AIRPORT, NC US",
                "datacoverage": 0.9939,
                "id": "COOP:317069",
                "elevationUnit": "METERS",
                "longitude": -78.7819
            },
            {
                "elevation": 128,
                "mindate": "1931-01-01",
                "maxdate": "2010-05-01",
                "latitude": 35.7294,
                "name": "RALEIGH 4 SW, NC US",
                "datacoverage": 0.9864,
                "id": "COOP:317074",
                "elevationUnit": "METERS",
                "longitude": -78.6838
            },
            {
                "elevation": 121.9,
                "mindate": "1948-06-01",
                "maxdate": "2015-11-01",
                "latitude": 35.7944,
                "name": "RALEIGH STATE UNIVERSITY, NC US",
                "datacoverage": 0.9937,
                "id": "COOP:317079",
                "elevationUnit": "METERS",
                "longitude": -78.6988
            },
            {
                "elevation": 246.9,
                "mindate": "1931-01-01",
                "maxdate": "2015-11-01",
                "latitude": 35.8222,
                "name": "RANDLEMAN, NC US",
                "datacoverage": 0.9833,
                "id": "COOP:317097",
                "elevationUnit": "METERS",
                "longitude": -79.7917
            },
            {
                "elevation": 54.9,
                "mindate": "1931-01-01",
                "maxdate": "2015-11-01",
                "latitude": 34.8122,
                "name": "RED SPRINGS 1 SE, NC US",
                "datacoverage": 0.9696,
                "id": "COOP:317165",
                "elevationUnit": "METERS",
                "longitude": -79.1622
            },
            {
                "elevation": 13.7,
                "mindate": "2007-05-01",
                "maxdate": "2015-11-01",
                "latitude": 35.131,
                "name": "REELSBORO, NC US",
                "datacoverage": 0.9803,
                "id": "COOP:317170",
                "elevationUnit": "METERS",
                "longitude": -76.9153
            },
            {
                "elevation": 271.3,
                "mindate": "1962-01-01",
                "maxdate": "2015-11-01",
                "latitude": 36.3796,
                "name": "REIDSVILLE 2 NW, NC US",
                "datacoverage": 1,
                "id": "COOP:317202",
                "elevationUnit": "METERS",
                "longitude": -79.6944
            },
            {
                "elevation": 297.5,
                "mindate": "1948-01-01",
                "maxdate": "2015-11-01",
                "latitude": 35.7747,
                "name": "RHODHISS HYDRO PLANT, NC US",
                "datacoverage": 0.9755,
                "id": "COOP:317229",
                "elevationUnit": "METERS",
                "longitude": -81.4372
            },
            {
                "elevation": 64,
                "mindate": "1971-08-01",
                "maxdate": "2015-11-01",
                "latitude": 36.4783,
                "name": "ROANOKE RAPIDS, NC US",
                "datacoverage": 0.9905,
                "id": "COOP:317319",
                "elevationUnit": "METERS",
                "longitude": -77.6717
            },
            {
                "elevation": 859.5,
                "mindate": "1942-10-01",
                "maxdate": "2014-01-01",
                "latitude": 36.40869,
                "name": "ROARING GAP 1 NW, NC US",
                "datacoverage": 0.0556,
                "id": "COOP:317324",
                "elevationUnit": "METERS",
                "longitude": -80.99539
            },
            {
                "elevation": 710.2,
                "mindate": "2004-12-01",
                "maxdate": "2015-11-01",
                "latitude": 35.3763,
                "name": "ROBBINSVILLE AG 5 NE, NC US",
                "datacoverage": 0.9926,
                "id": "COOP:317344",
                "elevationUnit": "METERS",
                "longitude": -83.70013
            },
            {
                "elevation": 691.9,
                "mindate": "2005-01-01",
                "maxdate": "2012-12-01",
                "latitude": 35.2989,
                "name": "ROBBINSVILLE 1 S, NC US",
                "datacoverage": 1,
                "id": "COOP:317346",
                "elevationUnit": "METERS",
                "longitude": -83.8128
            },
            {
                "elevation": 39.6,
                "mindate": "1931-01-01",
                "maxdate": "2015-11-01",
                "latitude": 35.9516,
                "name": "ROCKY MOUNT, NC US",
                "datacoverage": 0.9843,
                "id": "COOP:317395",
                "elevationUnit": "METERS",
                "longitude": -77.8189
            },
            {
                "elevation": 25.9,
                "mindate": "1949-01-01",
                "maxdate": "1976-12-01",
                "latitude": 35.96667,
                "name": "ROCKY MOUNT FAA AIRPORT, NC US",
                "datacoverage": 0.997,
                "id": "COOP:317398",
                "elevationUnit": "METERS",
                "longitude": -77.8
            },
            {
                "elevation": 33.5,
                "mindate": "1931-01-01",
                "maxdate": "2015-11-01",
                "latitude": 35.8936,
                "name": "ROCKY MOUNT 8 ESE, NC US",
                "datacoverage": 0.9637,
                "id": "COOP:317400",
                "elevationUnit": "METERS",
                "longitude": -77.6806
            },
            {
                "elevation": 664.5,
                "mindate": "1935-12-01",
                "maxdate": "2015-11-01",
                "latitude": 35.137,
                "name": "ROSMAN, NC US",
                "datacoverage": 0.9823,
                "id": "COOP:317486",
                "elevationUnit": "METERS",
                "longitude": -82.8204
            },
            {
                "elevation": 164.6,
                "mindate": "1931-01-01",
                "maxdate": "2005-03-01",
                "latitude": 36.21194,
                "name": "ROUGEMONT, NC US",
                "datacoverage": 0.9978,
                "id": "COOP:317499",
                "elevationUnit": "METERS",
                "longitude": -78.85694
            },
            {
                "elevation": 221,
                "mindate": "1954-04-01",
                "maxdate": "1982-12-01",
                "latitude": 35.6967,
                "name": "SALISBURY 9 WNW, NC US",
                "datacoverage": 0.9999,
                "id": "COOP:317508",
                "elevationUnit": "METERS",
                "longitude": -80.6225
            },
            {
                "elevation": 216.4,
                "mindate": "1931-01-01",
                "maxdate": "2015-11-01",
                "latitude": 36.3464,
                "name": "ROXBORO 7 ESE, NC US",
                "datacoverage": 0.9882,
                "id": "COOP:317516",
                "elevationUnit": "METERS",
                "longitude": -78.8858
            },
            {
                "elevation": 292.6,
                "mindate": "1948-04-01",
                "maxdate": "2015-11-01",
                "latitude": 36.2333,
                "name": "RURAL HALL, NC US",
                "datacoverage": 0.4557,
                "id": "COOP:317548",
                "elevationUnit": "METERS",
                "longitude": -80.3069
            },
            {
                "elevation": 213.4,
                "mindate": "1931-01-01",
                "maxdate": "2015-11-01",
                "latitude": 35.6836,
                "name": "SALISBURY, NC US",
                "datacoverage": 0.9932,
                "id": "COOP:317615",
                "elevationUnit": "METERS",
                "longitude": -80.4822
            },
            {
                "elevation": 221,
                "mindate": "1983-01-01",
                "maxdate": "2015-11-01",
                "latitude": 35.6967,
                "name": "SALISBURY 9 WNW, NC US",
                "datacoverage": 0.9975,
                "id": "COOP:317618",
                "elevationUnit": "METERS",
                "longitude": -80.6225
            },
            {
                "elevation": 112.5,
                "mindate": "1951-10-01",
                "maxdate": "1972-10-01",
                "latitude": 35.48333,
                "name": "SANFORD 4 ESE, NC US",
                "datacoverage": 0.9998,
                "id": "COOP:317654",
                "elevationUnit": "METERS",
                "longitude": -79.11667
            },
            {
                "elevation": 79.9,
                "mindate": "1972-11-01",
                "maxdate": "2015-11-01",
                "latitude": 35.5347,
                "name": "SANFORD 8 NE, NC US",
                "datacoverage": 0.9981,
                "id": "COOP:317656",
                "elevationUnit": "METERS",
                "longitude": -79.0464
            },
            {
                "elevation": 30.5,
                "mindate": "1996-07-01",
                "maxdate": "2015-11-01",
                "latitude": 36.1369,
                "name": "SCOTLAND NECK NUMBER 2, NC US",
                "datacoverage": 0.9957,
                "id": "COOP:317725",
                "elevationUnit": "METERS",
                "longitude": -77.4231
            },
            {
                "elevation": 1.8,
                "mindate": "1931-01-01",
                "maxdate": "1995-11-01",
                "latitude": 36.20944,
                "name": "SCOTLAND NECK, NC US",
                "datacoverage": 0.9487,
                "id": "COOP:317727",
                "elevationUnit": "METERS",
                "longitude": -77.38417
            },
            {
                "elevation": 6.1,
                "mindate": "2005-07-01",
                "maxdate": "2015-11-01",
                "latitude": 33.9283,
                "name": "SHALLOTTE AG, NC US",
                "datacoverage": 0.9919,
                "id": "COOP:317813",
                "elevationUnit": "METERS",
                "longitude": -78.3894
            },
            {
                "elevation": 11.9,
                "mindate": "1962-06-01",
                "maxdate": "1971-12-01",
                "latitude": 34,
                "name": "SHALLOTTE 4 WNW, NC US",
                "datacoverage": 0.9998,
                "id": "COOP:317817",
                "elevationUnit": "METERS",
                "longitude": -78.45
            },
            {
                "elevation": 249.9,
                "mindate": "1924-04-01",
                "maxdate": "2015-11-01",
                "latitude": 35.31099,
                "name": "SHELBY 2 NW, NC US",
                "datacoverage": 0.9891,
                "id": "COOP:317845",
                "elevationUnit": "METERS",
                "longitude": -81.57096
            },
            {
                "elevation": 237.7,
                "mindate": "1948-06-01",
                "maxdate": "1993-12-29",
                "latitude": 35.26667,
                "name": "SHELBY 2, NC US",
                "datacoverage": 0.0428,
                "id": "COOP:317850",
                "elevationUnit": "METERS",
                "longitude": -81.55
            },
            {
                "elevation": 301.8,
                "mindate": "1974-06-01",
                "maxdate": "1974-12-01",
                "latitude": 35.2652,
                "name": "FOREST CITY 6 SW, NC US",
                "datacoverage": 0.9956,
                "id": "COOP:317906",
                "elevationUnit": "METERS",
                "longitude": -81.9311
            },
            {
                "elevation": 185.9,
                "mindate": "1932-01-01",
                "maxdate": "2015-11-01",
                "latitude": 35.7606,
                "name": "SILER CITY 2 N, NC US",
                "datacoverage": 0.9911,
                "id": "COOP:317924",
                "elevationUnit": "METERS",
                "longitude": -79.4622
            },
            {
                "elevation": 14.9,
                "mindate": "1931-01-01",
                "maxdate": "1980-12-01",
                "latitude": 34.78333,
                "name": "SLOAN 3 S, NC US",
                "datacoverage": 0.99,
                "id": "COOP:317974",
                "elevationUnit": "METERS",
                "longitude": -77.81667
            },
            {
                "elevation": 45.7,
                "mindate": "1931-01-01",
                "maxdate": "2015-11-01",
                "latitude": 35.5171,
                "name": "SMITHFIELD, NC US",
                "datacoverage": 0.999,
                "id": "COOP:317994",
                "elevationUnit": "METERS",
                "longitude": -78.3443
            },
            {
                "elevation": 3,
                "mindate": "1948-06-01",
                "maxdate": "1990-04-01",
                "latitude": 34.55,
                "name": "SNEADS FERRY 2 ENE, NC US",
                "datacoverage": 0.045,
                "id": "COOP:318037",
                "elevationUnit": "METERS",
                "longitude": -77.4
            },
            {
                "elevation": 29,
                "mindate": "1995-05-01",
                "maxdate": "2009-02-01",
                "latitude": 35.452,
                "name": "SNOW HILL 2 SW, NC US",
                "datacoverage": 0.9999,
                "id": "COOP:318060",
                "elevationUnit": "METERS",
                "longitude": -77.6843
            },
            {
                "elevation": 12.5,
                "mindate": "2009-04-01",
                "maxdate": "2015-11-01",
                "latitude": 35.4551,
                "name": "SNOW HILL WASTE WATER TREAMENT PLANT, NC US",
                "datacoverage": 0.9375,
                "id": "COOP:318066",
                "elevationUnit": "METERS",
                "longitude": -77.6668
            },