[
    {
        "metadata": {
            "resultset": {
                "offset": 1,
                "count": 1440,
                "limit": 1000
            }
        },
        "results": [
            {
                "elevation": 213.4,
                "mindate": "1941-02-01",
                "maxdate": "1985-05-01",
                "latitude": 36.63333,
                "name": "ADOLPHUS, TN US",
                "datacoverage": 0.4042,
                "id": "COOP:150043",
                "elevationUnit": "METERS",
                "longitude": -86.25
            },
            {
                "elevation": 160.6,
                "mindate": "1931-01-01",
                "maxdate": "2015-11-01",
                "latitude": 36.6122,
                "name": "MURRAY, KY US",
                "datacoverage": 0.951,
                "id": "COOP:155694",
                "elevationUnit": "METERS",
                "longitude": -88.3083
            },
            {
                "elevation": 1225.3,
                "mindate": "1948-09-01",
                "maxdate": "1981-05-01",
                "latitude": 35.81667,
                "name": "MAX PATCH MOUNTAIN, TN US",
                "datacoverage": 0.0806,
                "id": "COOP:315402",
                "elevationUnit": "METERS",
                "longitude": -82.95
            },
            {
                "elevation": 100.6,
                "mindate": "2001-11-01",
                "maxdate": "2015-11-01",
                "latitude": 35.7977,
                "name": "ALAMO 1 N, TN US",
                "datacoverage": 1,
                "id": "COOP:400049",
                "elevationUnit": "METERS",
                "longitude": -89.1176
            },
            {
                "elevation": 501.4,
                "mindate": "1949-07-01",
                "maxdate": "2015-11-01",
                "latitude": 36.3805,
                "name": "ALLARDT, TN US",
                "datacoverage": 0.9837,
                "id": "COOP:400081",
                "elevationUnit": "METERS",
                "longitude": -84.8744
            },
            {
                "elevation": 140.2,
                "mindate": "1976-01-01",
                "maxdate": "2015-11-01",
                "latitude": 35.1131,
                "name": "AMES PLANTATION, TN US",
                "datacoverage": 0.9917,
                "id": "COOP:400137",
                "elevationUnit": "METERS",
                "longitude": -89.2122
            },
            {
                "elevation": 269.7,
                "mindate": "2008-05-01",
                "maxdate": "2015-11-01",
                "latitude": 34.9925,
                "name": "ARDMORE, TN US",
                "datacoverage": 0.9999,
                "id": "COOP:400235",
                "elevationUnit": "METERS",
                "longitude": -86.85611
            },
            {
                "elevation": 223.1,
                "mindate": "1893-01-01",
                "maxdate": "1977-03-01",
                "latitude": 35.58333,
                "name": "ASHWOOD, TN US",
                "datacoverage": 0.9803,
                "id": "COOP:400271",
                "elevationUnit": "METERS",
                "longitude": -87.13333
            },
            {
                "elevation": 286.5,
                "mindate": "1962-01-01",
                "maxdate": "2015-11-01",
                "latitude": 35.4322,
                "name": "ATHENS, TN US",
                "datacoverage": 0.9908,
                "id": "COOP:400284",
                "elevationUnit": "METERS",
                "longitude": -84.5833
            },
            {
                "elevation": 390.1,
                "mindate": "2000-08-01",
                "maxdate": "2003-09-01",
                "latitude": 36.35667,
                "name": "BEAN STATION 3 NW, TN US",
                "datacoverage": 1,
                "id": "COOP:400487",
                "elevationUnit": "METERS",
                "longitude": -83.35444
            },
            {
                "elevation": 140.2,
                "mindate": "2008-08-01",
                "maxdate": "2015-11-01",
                "latitude": 36.1572,
                "name": "BELLS BEND NATURE CENTER, TN US",
                "datacoverage": 1,
                "id": "COOP:400580",
                "elevationUnit": "METERS",
                "longitude": -86.9252
            },
            {
                "elevation": 296,
                "mindate": "1948-09-05",
                "maxdate": "1976-08-01",
                "latitude": 35.13333,
                "name": "BELVIDERE, TN US",
                "datacoverage": 0.0614,
                "id": "COOP:400603",
                "elevationUnit": "METERS",
                "longitude": -86.2
            },
            {
                "elevation": 170.7,
                "mindate": "1953-07-01",
                "maxdate": "2015-11-01",
                "latitude": 36.4583,
                "name": "BETHPAGE 1 S, TN US",
                "datacoverage": 0.9786,
                "id": "COOP:400669",
                "elevationUnit": "METERS",
                "longitude": -86.324
            },
            {
                "elevation": 111.3,
                "mindate": "1997-08-01",
                "maxdate": "2015-11-01",
                "latitude": 36.235,
                "name": "BIG SANDY, TN US",
                "datacoverage": 1,
                "id": "COOP:400705",
                "elevationUnit": "METERS",
                "longitude": -88.0908
            },
            {
                "elevation": 619,
                "mindate": "1948-09-01",
                "maxdate": "1979-01-31",
                "latitude": 36.51667,
                "name": "BIG SYCAMORE, TN US",
                "datacoverage": 0.0709,
                "id": "COOP:400724",
                "elevationUnit": "METERS",
                "longitude": -83.33333
            },
            {
                "elevation": 479.1,
                "mindate": "1979-02-01",
                "maxdate": "1980-11-01",
                "latitude": 36.5,
                "name": "BIG SYCAMORE 2, TN US",
                "datacoverage": 0.0792,
                "id": "COOP:400725",
                "elevationUnit": "METERS",
                "longitude": -83.33333
            },
            {
                "elevation": 487.7,
                "mindate": "1997-08-01",
                "maxdate": "2006-10-01",
                "latitude": 36.48972,
                "name": "BLOUNTVILLE 6 SW, TN US",
                "datacoverage": 0.9909,
                "id": "COOP:400836",
                "elevationUnit": "METERS",
                "longitude": -82.41472
            },
            {
                "elevation": 138.7,
                "mindate": "1931-01-01",
                "maxdate": "2015-11-01",
                "latitude": 35.2622,
                "name": "BOLIVAR WATER WORKS, TN US",
                "datacoverage": 0.9951,
                "id": "COOP:400876",
                "elevationUnit": "METERS",
                "longitude": -88.9891
            },
            {
                "elevation": 91.4,
                "mindate": "1948-03-01",
                "maxdate": "1989-10-01",
                "latitude": 35.31667,
                "name": "BOLTON, TN US",
                "datacoverage": 0.9519,
                "id": "COOP:400884",
                "elevationUnit": "METERS",
                "longitude": -89.75
            },
            {
                "elevation": 215.5,
                "mindate": "1995-11-01",
                "maxdate": "2015-11-01",
                "latitude": 35.9902,
                "name": "BRENTWOOD, TN US",
                "datacoverage": 0.9876,
                "id": "COOP:401039",
                "elevationUnit": "METERS",
                "longitude": -86.7786
            },
            {
                "elevation": 456.3,
                "mindate": "1948-01-01",
                "maxdate": "2015-11-01",
                "latitude": 36.47967,
                "name": "BRISTOL AIRPORT, TN US",
                "datacoverage": 1,
                "id": "COOP:401094",
                "elevationUnit": "METERS",
                "longitude": -82.39898
            },
            {
                "elevation": 100.6,
                "mindate": "1931-01-01",
                "maxdate": "2015-11-01",
                "latitude": 35.5894,
                "name": "BROWNSVILLE, TN US",
                "datacoverage": 0.9902,
                "id": "COOP:401145",
                "elevationUnit": "METERS",
                "longitude": -89.2586
            },
            {
                "elevation": 108.2,
                "mindate": "1948-09-09",
                "maxdate": "2014-01-01",
                "latitude": 35.5847,
                "name": "BROWNSVILLE SEWER PLANT, TN US",
                "datacoverage": 0.0354,
                "id": "COOP:401150",
                "elevationUnit": "METERS",
                "longitude": -89.2691
            },
            {
                "elevation": 606.9,
                "mindate": "1948-09-06",
                "maxdate": "1980-11-01",
                "latitude": 36.35,
                "name": "BUTLER, TN US",
                "datacoverage": 0.0757,
                "id": "COOP:401295",
                "elevationUnit": "METERS",
                "longitude": -82.01667
            },
            {
                "elevation": 268.2,
                "mindate": "1998-12-01",
                "maxdate": "2015-11-01",
                "latitude": 36.58028,
                "name": "BYRDSTOWN, TN US",
                "datacoverage": 1,
                "id": "COOP:401310",
                "elevationUnit": "METERS",
                "longitude": -85.12556
            },
            {
                "elevation": 627.9,
                "mindate": "1948-09-08",
                "maxdate": "1980-11-01",
                "latitude": 35.46667,
                "name": "CAGLE, TN US",
                "datacoverage": 0.0772,
                "id": "COOP:401323",
                "elevationUnit": "METERS",
                "longitude": -85.45
            },
            {
                "elevation": 128.9,
                "mindate": "1997-08-01",
                "maxdate": "2015-11-01",
                "latitude": 36.0519,
                "name": "CAMDEN, TN US",
                "datacoverage": 0.9728,
                "id": "COOP:401352",
                "elevationUnit": "METERS",
                "longitude": -88.0828
            },
            {
                "elevation": 157,
                "mindate": "1931-01-01",
                "maxdate": "2015-11-01",
                "latitude": 36.2455,
                "name": "CARTHAGE, TN US",
                "datacoverage": 0.8881,
                "id": "COOP:401480",
                "elevationUnit": "METERS",
                "longitude": -85.945
            },
            {
                "elevation": 164.6,
                "mindate": "1931-01-01",
                "maxdate": "2015-11-01",
                "latitude": 36.5409,
                "name": "CELINA, TN US",
                "datacoverage": 0.6526,
                "id": "COOP:401561",
                "elevationUnit": "METERS",
                "longitude": -85.4596
            },
            {
                "elevation": 167.6,
                "mindate": "1942-05-01",
                "maxdate": "1970-11-01",
                "latitude": 36.11667,
                "name": "LANCASTER 1 SE, TN US",
                "datacoverage": 0.9766,
                "id": "COOP:401569",
                "elevationUnit": "METERS",
                "longitude": -85.85
            },
            {
                "elevation": 225.6,
                "mindate": "2000-06-01",
                "maxdate": "2015-11-01",
                "latitude": 35.8318,
                "name": "CENTERVILLE 4 NE, TN US",
                "datacoverage": 1,
                "id": "COOP:401585",
                "elevationUnit": "METERS",
                "longitude": -87.4219
            },
            {
                "elevation": 201.2,
                "mindate": "1949-01-01",
                "maxdate": "2006-09-01",
                "latitude": 35.75528,
                "name": "CENTERVILLE WATER PLANT, TN US",
                "datacoverage": 0.9928,
                "id": "COOP:401587",
                "elevationUnit": "METERS",
                "longitude": -87.42611
            },
            {
                "elevation": 211.5,
                "mindate": "2006-06-01",
                "maxdate": "2015-11-01",
                "latitude": 36.17222,
                "name": "CHARLOTTE, TN US",
                "datacoverage": 1,
                "id": "COOP:401640",
                "elevationUnit": "METERS",
                "longitude": -87.18056
            },
            {
                "elevation": 204.2,
                "mindate": "1948-01-01",
                "maxdate": "2015-11-01",
                "latitude": 35.03362,
                "name": "CHATTANOOGA AIRPORT, TN US",
                "datacoverage": 1,
                "id": "COOP:401656",
                "elevationUnit": "METERS",
                "longitude": -85.20044
            },
            {
                "elevation": 119.5,
                "mindate": "1971-03-01",
                "maxdate": "2015-11-01",
                "latitude": 36.3211,
                "name": "CHEATHAM LOCK AND DAM, TN US",
                "datacoverage": 0.9682,
                "id": "COOP:401663",
                "elevationUnit": "METERS",
                "longitude": -87.2218
            },
            {
                "elevation": 228.6,
                "mindate": "2004-05-01",
                "maxdate": "2015-11-01",
                "latitude": 35.7047,
                "name": "CHRISTIANA 5 W, TN US",
                "datacoverage": 1,
                "id": "COOP:401720",
                "elevationUnit": "METERS",
                "longitude": -86.4869
            },
            {
                "elevation": 566,
                "mindate": "2002-07-01",
                "maxdate": "2003-01-01",
                "latitude": 36.11667,
                "name": "CLARKRANGE NUMBER 2, TN US",
                "datacoverage": 0.991,
                "id": "COOP:401784",
                "elevationUnit": "METERS",
                "longitude": -85.05917
            },
            {
                "elevation": 122.5,
                "mindate": "1931-01-01",
                "maxdate": "2015-11-01",
                "latitude": 36.5471,
                "name": "CLARKSVILLE SEWAGE PLANT, TN US",
                "datacoverage": 0.9833,
                "id": "COOP:401790",
                "elevationUnit": "METERS",
                "longitude": -87.3353
            },
            {
                "elevation": 170.7,
                "mindate": "2005-12-01",
                "maxdate": "2015-11-01",
                "latitude": 36.62389,
                "name": "CLARKSVILLE OUTLAW AIRPORT, TN US",
                "datacoverage": 0.9585,
                "id": "COOP:401792",
                "elevationUnit": "METERS",
                "longitude": -87.41944
            },
            {
                "elevation": 151.2,
                "mindate": "2002-09-01",
                "maxdate": "2015-11-01",
                "latitude": 36.4975,
                "name": "CLARKSVILLE NUMBER 2, TN US",
                "datacoverage": 1,
                "id": "COOP:401795",
                "elevationUnit": "METERS",
                "longitude": -87.33556
            },
            {
                "elevation": 256.6,
                "mindate": "1955-10-01",
                "maxdate": "2015-11-01",
                "latitude": 35.2191,
                "name": "CLEVELAND FILTER PLANT, TN US",
                "datacoverage": 0.9889,
                "id": "COOP:401808",
                "elevationUnit": "METERS",
                "longitude": -84.7916
            },
            {
                "elevation": 565.7,
                "mindate": "1999-05-01",
                "maxdate": "2015-11-01",
                "latitude": 35.3684,
                "name": "COALMONT, TN US",
                "datacoverage": 0.9998,
                "id": "COOP:401887",
                "elevationUnit": "METERS",
                "longitude": -85.7014
            },
            {
                "elevation": 192,
                "mindate": "1898-01-01",
                "maxdate": "1975-12-01",
                "latitude": 35.08333,
                "name": "COLDWATER, TN US",
                "datacoverage": 0.9819,
                "id": "COOP:401916",
                "elevationUnit": "METERS",
                "longitude": -86.73333
            },
            {
                "elevation": 91.4,
                "mindate": "1996-10-01",
                "maxdate": "2015-11-01",
                "latitude": 35.0781,
                "name": "COLLIERVILLE, TN US",
                "datacoverage": 0.9784,
                "id": "COOP:401950",
                "elevationUnit": "METERS",
                "longitude": -89.6653
            },
            {
                "elevation": 198.1,
                "mindate": "1941-02-01",
                "maxdate": "2015-11-01",
                "latitude": 35.6381,
                "name": "COLUMBIA 3 WNW, TN US",
                "datacoverage": 0.9845,
                "id": "COOP:401957",
                "elevationUnit": "METERS",
                "longitude": -87.0864
            },
            {
                "elevation": 260.3,
                "mindate": "1943-03-01",
                "maxdate": "2003-11-01",
                "latitude": 35.03278,
                "name": "CONASAUGA 2 N, TN US",
                "datacoverage": 0.9039,
                "id": "COOP:401978",
                "elevationUnit": "METERS",
                "longitude": -84.73472
            },
            {
                "elevation": 332.2,
                "mindate": "1931-01-01",
                "maxdate": "2015-11-01",
                "latitude": 36.1075,
                "name": "COOKEVILLE, TN US",
                "datacoverage": 0.9382,
                "id": "COOP:402009",
                "elevationUnit": "METERS",
                "longitude": -85.5033
            },
            {
                "elevation": 442,
                "mindate": "1931-01-01",
                "maxdate": "2009-01-01",
                "latitude": 34.99389,
                "name": "COPPERHILL, TN US",
                "datacoverage": 0.9818,
                "id": "COOP:402024",
                "elevationUnit": "METERS",
                "longitude": -84.37583
            },
            {
                "elevation": 156.1,
                "mindate": "1973-10-01",
                "maxdate": "1980-06-01",
                "latitude": 36.28333,
                "name": "CORDELL HULL LOCK AND DAM, TN US",
                "datacoverage": 1,
                "id": "COOP:402035",
                "elevationUnit": "METERS",
                "longitude": -85.93333
            },
            {
                "elevation": 117.3,
                "mindate": "1931-01-01",
                "maxdate": "2015-11-01",
                "latitude": 35.5497,
                "name": "COVINGTON 3 SW, TN US",
                "datacoverage": 0.9941,
                "id": "COOP:402108",
                "elevationUnit": "METERS",
                "longitude": -89.7
            },
            {
                "elevation": 502.9,
                "mindate": "2010-12-01",
                "maxdate": "2015-11-01",
                "latitude": 35.91833,
                "name": "CRAB ORCHARD, TN US",
                "datacoverage": 1,
                "id": "COOP:402140",
                "elevationUnit": "METERS",
                "longitude": -84.86861
            },
            {
                "elevation": 569.1,
                "mindate": "1954-05-01",
                "maxdate": "2015-11-01",
                "latitude": 35.9509,
                "name": "CROSSVILLE MEMORIAL AIRPORT, TN US",
                "datacoverage": 0.9986,
                "id": "COOP:402197",
                "elevationUnit": "METERS",
                "longitude": -85.0813
            },
            {
                "elevation": 551.7,
                "mindate": "1931-01-01",
                "maxdate": "2015-11-01",
                "latitude": 36.0148,
                "name": "CROSSVILLE EXPERIMENTAL STATION, TN US",
                "datacoverage": 1,
                "id": "COOP:402202",
                "elevationUnit": "METERS",
                "longitude": -85.1313
            },
            {
                "elevation": 128,
                "mindate": "1965-11-01",
                "maxdate": "1970-09-01",
                "latitude": 36.38333,
                "name": "CUMBERLAND CITY, TN US",
                "datacoverage": 0.9835,
                "id": "COOP:402239",
                "elevationUnit": "METERS",
                "longitude": -87.63333
            },
            {
                "elevation": 171,
                "mindate": "1942-05-01",
                "maxdate": "1971-01-01",
                "latitude": 36.53333,
                "name": "DALE HOLLOW DAM, TN US",
                "datacoverage": 0.965,
                "id": "COOP:402305",
                "elevationUnit": "METERS",
                "longitude": -85.45
            },
            {
                "elevation": 250.5,
                "mindate": "1956-09-01",
                "maxdate": "2015-11-01",
                "latitude": 35.4721,
                "name": "DAYTON 2 SE, TN US",
                "datacoverage": 0.9691,
                "id": "COOP:402360",
                "elevationUnit": "METERS",
                "longitude": -84.9957
            },
            {
                "elevation": 228.6,
                "mindate": "1997-08-01",
                "maxdate": "2015-11-01",
                "latitude": 35.6394,
                "name": "DECATUR 7 NE, TN US",
                "datacoverage": 1,
                "id": "COOP:402388",
                "elevationUnit": "METERS",
                "longitude": -84.665
            },
            {
                "elevation": 150.9,
                "mindate": "2010-09-01",
                "maxdate": "2015-11-01",
                "latitude": 35.5952,
                "name": "DECATURVILLE, TN US",
                "datacoverage": 1,
                "id": "COOP:402390",
                "elevationUnit": "METERS",
                "longitude": -88.1175
            },
            {
                "elevation": 237.7,
                "mindate": "1931-01-01",
                "maxdate": "2015-11-01",
                "latitude": 36.0749,
                "name": "DICKSON, TN US",
                "datacoverage": 0.9922,
                "id": "COOP:402489",
                "elevationUnit": "METERS",
                "longitude": -87.3959
            },
            {
                "elevation": 115.8,
                "mindate": "2009-07-01",
                "maxdate": "2015-11-01",
                "latitude": 36.4933,
                "name": "DOVER, TN US",
                "datacoverage": 0.8701,
                "id": "COOP:402583",
                "elevationUnit": "METERS",
                "longitude": -87.7946
            },
            {
                "elevation": 144.8,
                "mindate": "1931-01-01",
                "maxdate": "2015-11-01",
                "latitude": 36.48194,
                "name": "DOVER 1 W, TN US",
                "datacoverage": 0.9902,
                "id": "COOP:402589",
                "elevationUnit": "METERS",
                "longitude": -87.86278
            },
            {
                "elevation": 137.2,
                "mindate": "1931-01-01",
                "maxdate": "2015-11-01",
                "latitude": 36.2836,
                "name": "DRESDEN, TN US",
                "datacoverage": 0.9755,
                "id": "COOP:402600",
                "elevationUnit": "METERS",
                "longitude": -88.7063
            },
            {
                "elevation": 137.2,
                "mindate": "1958-03-01",
                "maxdate": "1985-07-01",
                "latitude": 35.46667,
                "name": "DRUMMONDS, TN US",
                "datacoverage": 0.0268,
                "id": "COOP:402608",
                "elevationUnit": "METERS",
                "longitude": -89.91667
            },
            {
                "elevation": 91.4,
                "mindate": "1948-09-07",
                "maxdate": "2014-01-01",
                "latitude": 35.9986,
                "name": "DYERSBURG, TN US",
                "datacoverage": 0.0371,
                "id": "COOP:402680",
                "elevationUnit": "METERS",
                "longitude": -89.409
            },
            {
                "elevation": 91.4,
                "mindate": "1948-03-01",
                "maxdate": "2015-11-01",
                "latitude": 36.0002,
                "name": "DYERSBURG MUNICIPAL AIRPORT, TN US",
                "datacoverage": 0.9619,
                "id": "COOP:402685",
                "elevationUnit": "METERS",
                "longitude": -89.4094
            },
            {
                "elevation": 243.8,
                "mindate": "2001-10-01",
                "maxdate": "2011-12-01",
                "latitude": 35.7285,
                "name": "EAGLEVILLE 1 SW, TN US",
                "datacoverage": 0.943,
                "id": "COOP:402711",
                "elevationUnit": "METERS",
                "longitude": -86.6435
            },
            {
                "elevation": 453.2,
                "mindate": "1931-01-01",
                "maxdate": "2014-12-01",
                "latitude": 36.354,
                "name": "ELIZABETHTON, TN US",
                "datacoverage": 0.7103,
                "id": "COOP:402806",
                "elevationUnit": "METERS",
                "longitude": -82.2486
            },
            {
                "elevation": 524.3,
                "mindate": "1979-05-01",
                "maxdate": "2015-11-01",
                "latitude": 36.1422,
                "name": "ERWIN 1 W, TN US",
                "datacoverage": 0.9931,
                "id": "COOP:402934",
                "elevationUnit": "METERS",
                "longitude": -82.4261
            },
            {
                "elevation": 262.1,
                "mindate": "2001-08-01",
                "maxdate": "2015-11-01",
                "latitude": 35.96889,
                "name": "FAIRVIEW BOWIE NAT CTR, TN US",
                "datacoverage": 0.9942,
                "id": "COOP:402989",
                "elevationUnit": "METERS",
                "longitude": -87.13639
            },
            {
                "elevation": 545.6,
                "mindate": "1999-12-01",
                "maxdate": "2015-11-01",
                "latitude": 35.6391,
                "name": "FALL CREEK FALLS SP, TN US",
                "datacoverage": 1,
                "id": "COOP:403040",
                "elevationUnit": "METERS",
                "longitude": -85.3586
            },
            {
                "elevation": 226.2,
                "mindate": "1926-01-01",
                "maxdate": "2015-11-01",
                "latitude": 35.1342,
                "name": "FAYETTEVILLE WATER PLANT, TN US",
                "datacoverage": 0.9778,
                "id": "COOP:403074",
                "elevationUnit": "METERS",
                "longitude": -86.5419
            },
            {
                "elevation": 344.4,
                "mindate": "2001-04-01",
                "maxdate": "2008-02-01",
                "latitude": 36.05556,
                "name": "FOREST HILLS DYER OBSERVATORY, TN US",
                "datacoverage": 0.8435,
                "id": "COOP:403200",
                "elevationUnit": "METERS",
                "longitude": -86.80667
            },
            {
                "elevation": 199.6,
                "mindate": "1931-01-01",
                "maxdate": "2015-11-01",
                "latitude": 35.9417,
                "name": "FRANKLIN SEWAGE PLANT, TN US",
                "datacoverage": 0.9892,
                "id": "COOP:403280",
                "elevationUnit": "METERS",
                "longitude": -86.8685
            },
            {
                "elevation": 177.1,
                "mindate": "1940-05-01",
                "maxdate": "1975-11-01",
                "latitude": 36.36667,
                "name": "GAINESBORO, TN US",
                "datacoverage": 0.9555,
                "id": "COOP:403366",
                "elevationUnit": "METERS",
                "longitude": -85.63333
            },
            {
                "elevation": 148.4,
                "mindate": "1975-12-01",
                "maxdate": "2015-11-01",
                "latitude": 36.3661,
                "name": "GAINESBORO, TN US",
                "datacoverage": 0.9771,
                "id": "COOP:403370",
                "elevationUnit": "METERS",
                "longitude": -85.6552
            },
            {
                "elevation": 155.4,
                "mindate": "2011-01-01",
                "maxdate": "2012-12-01",
                "latitude": 36.3911,
                "name": "GALLATIN 2 W, TN US",
                "datacoverage": 0.9993,
                "id": "COOP:403379",
                "elevationUnit": "METERS",
                "longitude": -86.4823
            },
            {
                "elevation": 443.2,
                "mindate": "1932-12-01",
                "maxdate": "2015-11-01",
                "latitude": 35.6878,
                "name": "GATLINBURG 2 SW, TN US",
                "datacoverage": 0.996,
                "id": "COOP:403420",
                "elevationUnit": "METERS",
                "longitude": -83.5373
            },
            {
                "elevation": 97.5,
                "mindate": "2000-11-01",
                "maxdate": "2015-11-01",
                "latitude": 35.0761,
                "name": "GERMANTOWN 4 SE, TN US",
                "datacoverage": 0.9947,
                "id": "COOP:403447",
                "elevationUnit": "METERS",
                "longitude": -89.743
            },
            {
                "elevation": 182.9,
                "mindate": "2001-11-01",
                "maxdate": "2015-11-01",
                "latitude": 36.065,
                "name": "GLADEVILLE, TN US",
                "datacoverage": 1,
                "id": "COOP:403465",
                "elevationUnit": "METERS",
                "longitude": -86.4175
            },
            {
                "elevation": 249.9,
                "mindate": "2000-05-01",
                "maxdate": "2015-11-01",
                "latitude": 36.34083,
                "name": "GOODLETTSVILLE 7 WNW, TN US",
                "datacoverage": 0.9786,
                "id": "COOP:403636",
                "elevationUnit": "METERS",
                "longitude": -86.8275
            },
            {
                "elevation": 402.3,
                "mindate": "1932-12-01",
                "maxdate": "2015-11-01",
                "latitude": 36.1056,
                "name": "GREENEVILLE EXPERIMENTAL STATION, TN US",
                "datacoverage": 0.997,
                "id": "COOP:403679",
                "elevationUnit": "METERS",
                "longitude": -82.8436
            },
            {
                "elevation": 121.9,
                "mindate": "1948-09-01",
                "maxdate": "2014-01-01",
                "latitude": 36.1679,
                "name": "GREENFIELD, TN US",
                "datacoverage": 0.0339,
                "id": "COOP:403697",
                "elevationUnit": "METERS",
                "longitude": -88.7974
            },
            {
                "elevation": 570,
                "mindate": "2010-07-01",
                "maxdate": "2015-11-01",
                "latitude": 35.8325,
                "name": "HARTFORD 2 NE, TN US",
                "datacoverage": 0.9997,
                "id": "COOP:403932",
                "elevationUnit": "METERS",
                "longitude": -83.1163
            },
            {
                "elevation": 155.8,
                "mindate": "1998-07-01",
                "maxdate": "2015-11-01",
                "latitude": 36.37556,
                "name": "HARTSVILLE, TN US",
                "datacoverage": 0.9951,
                "id": "COOP:403938",
                "elevationUnit": "METERS",
                "longitude": -86.18083
            },
            {
                "elevation": 140.2,
                "mindate": "2002-04-01",
                "maxdate": "2015-11-01",
                "latitude": 35.4442,
                "name": "HENDERSON 4 W, TN US",
                "datacoverage": 0.9695,
                "id": "COOP:404033",
                "elevationUnit": "METERS",
                "longitude": -88.7244
            },
            {
                "elevation": 298.7,
                "mindate": "1893-01-01",
                "maxdate": "2015-11-01",
                "latitude": 35.5567,
                "name": "HOHENWALD, TN US",
                "datacoverage": 0.6651,
                "id": "COOP:404223",
                "elevationUnit": "METERS",
                "longitude": -87.5414
            },
            {
                "elevation": 100.9,
                "mindate": "1948-09-05",
                "maxdate": "1989-04-01",
                "latitude": 35.81667,
                "name": "HUMBOLDT, TN US",
                "datacoverage": 0.0437,
                "id": "COOP:404392",
                "elevationUnit": "METERS",
                "longitude": -88.93333
            },
            {
                "elevation": 134.1,
                "mindate": "1962-06-01",
                "maxdate": "2015-11-01",
                "latitude": 36.0027,
                "name": "HUNTINGDON WATER PLA, TN US",
                "datacoverage": 0.9985,
                "id": "COOP:404417",
                "elevationUnit": "METERS",
                "longitude": -88.4252
            },
            {
                "elevation": 132,
                "mindate": "1948-05-01",
                "maxdate": "2015-11-01",
                "latitude": 35.593,
                "name": "JACKSON MCKELLAR SIPES AIRPORT, TN US",
                "datacoverage": 0.9679,
                "id": "COOP:404556",
                "elevationUnit": "METERS",
                "longitude": -88.9167
            },
            {
                "elevation": 121.9,
                "mindate": "1931-01-01",
                "maxdate": "2015-11-01",
                "latitude": 35.6213,
                "name": "JACKSON EXPERIMENTAL STATION, TN US",
                "datacoverage": 0.9922,
                "id": "COOP:404561",
                "elevationUnit": "METERS",
                "longitude": -88.8456
            },
            {
                "elevation": 121,
                "mindate": "2005-08-01",
                "maxdate": "2015-11-01",
                "latitude": 35.5501,
                "name": "JACKSON 4 SE, TN US",
                "datacoverage": 0.7259,
                "id": "COOP:404567",
                "elevationUnit": "METERS",
                "longitude": -88.717
            },
            {
                "elevation": 131.1,
                "mindate": "2003-06-01",
                "maxdate": "2015-11-01",
                "latitude": 35.7103,
                "name": "JACKSON 4 NE, TN US",
                "datacoverage": 0.8399,
                "id": "COOP:404568",
                "elevationUnit": "METERS",
                "longitude": -88.8223
            },
            {
                "elevation": 515.1,
                "mindate": "1951-11-01",
                "maxdate": "2015-11-01",
                "latitude": 36.4259,
                "name": "JAMESTOWN, TN US",
                "datacoverage": 0.9883,
                "id": "COOP:404590",
                "elevationUnit": "METERS",
                "longitude": -84.942
            },
            {
                "elevation": 366.1,
                "mindate": "1949-02-01",
                "maxdate": "1981-08-01",
                "latitude": 36.11667,
                "name": "JEFFERSON CITY EVAP, TN US",
                "datacoverage": 0.9975,
                "id": "COOP:404609",
                "elevationUnit": "METERS",
                "longitude": -83.5
            },
            {
                "elevation": 337.7,
                "mindate": "1948-01-01",
                "maxdate": "2010-07-01",
                "latitude": 36.12222,
                "name": "JEFFERSON CITY, TN US",
                "datacoverage": 0.498,
                "id": "COOP:404613",
                "elevationUnit": "METERS",
                "longitude": -83.47389
            },
            {
                "elevation": 548.9,
                "mindate": "2001-10-01",
                "maxdate": "2007-12-01",
                "latitude": 36.29889,
                "name": "JOHNSON CITY ETSU, TN US",
                "datacoverage": 0.9999,
                "id": "COOP:404659",
                "elevationUnit": "METERS",
                "longitude": -82.3675
            },
            {
                "elevation": 487.1,
                "mindate": "2009-05-01",
                "maxdate": "2015-11-01",
                "latitude": 36.3471,
                "name": "JOHNSON CITY 2, TN US",
                "datacoverage": 0.9998,
                "id": "COOP:404666",
                "elevationUnit": "METERS",
                "longitude": -82.3459
            },
            {
                "elevation": 125,
                "mindate": "1949-09-05",
                "maxdate": "1980-11-01",
                "latitude": 36.03333,
                "name": "JOHNSONVILLE STEAM P, TN US",
                "datacoverage": 0.0532,
                "id": "COOP:404678",
                "elevationUnit": "METERS",
                "longitude": -87.98333
            },
            {
                "elevation": 93,
                "mindate": "1931-01-01",
                "maxdate": "2015-01-01",
                "latitude": 36.1946,
                "name": "KENTON, TN US",
                "datacoverage": 0.3716,
                "id": "COOP:404771",
                "elevationUnit": "METERS",
                "longitude": -89.0117
            },
            {
                "elevation": 391.4,
                "mindate": "1931-01-01",
                "maxdate": "2015-11-01",
                "latitude": 36.5194,
                "name": "KINGSPORT, TN US",
                "datacoverage": 0.9833,
                "id": "COOP:404858",
                "elevationUnit": "METERS",
                "longitude": -82.5275
            },
            {
                "elevation": 248.1,
                "mindate": "1931-01-01",
                "maxdate": "2015-11-01",
                "latitude": 35.8572,
                "name": "KINGSTON, TN US",
                "datacoverage": 0.9892,
                "id": "COOP:404871",
                "elevationUnit": "METERS",
                "longitude": -84.5281
            },
            {
                "elevation": 157.6,
                "mindate": "1941-01-01",
                "maxdate": "2015-11-01",
                "latitude": 36.10333,
                "name": "KINGSTON SPRINGS, TN US",
                "datacoverage": 0.9711,
                "id": "COOP:404876",
                "elevationUnit": "METERS",
                "longitude": -87.11528
            },
            {
                "elevation": 253,
                "mindate": "1966-01-01",
                "maxdate": "2015-11-01",
                "latitude": 35.8984,
                "name": "KNOXVILLE EXPERIMENTAL STATION, TN US",
                "datacoverage": 0.9683,
                "id": "COOP:404946",
                "elevationUnit": "METERS",
                "longitude": -83.9569
            },
            {
                "elevation": 293.2,
                "mindate": "1948-09-04",
                "maxdate": "2015-11-01",
                "latitude": 35.8181,
                "name": "KNOXVILLE AIRPORT, TN US",
                "datacoverage": 1,
                "id": "COOP:404950",
                "elevationUnit": "METERS",
                "longitude": -83.9858
            },
            {
                "elevation": 272.8,
                "mindate": "1943-04-01",
                "maxdate": "1982-08-01",
                "latitude": 35.95,
                "name": "KNOXVILLE UNIVERSITY OF TN, TN US",
                "datacoverage": 0.9957,
                "id": "COOP:404955",
                "elevationUnit": "METERS",
                "longitude": -83.91667
            },
            {
                "elevation": 297.2,
                "mindate": "1955-08-01",
                "maxdate": "2015-11-01",
                "latitude": 36.5193,
                "name": "LAFAYETTE, TN US",
                "datacoverage": 0.9655,
                "id": "COOP:404987",
                "elevationUnit": "METERS",
                "longitude": -86.0299
            },
            {
                "elevation": 192,
                "mindate": "1995-05-01",
                "maxdate": "2015-11-01",
                "latitude": 36.0827,
                "name": "LANCASTER EDGAR EVINS, TN US",
                "datacoverage": 0.9109,
                "id": "COOP:405035",
                "elevationUnit": "METERS",
                "longitude": -85.826
            },
            {
                "elevation": 463.3,
                "mindate": "1989-05-01",
                "maxdate": "2011-12-01",
                "latitude": 36.15,
                "name": "LANCING 6 NW, TN US",
                "datacoverage": 0.9962,
                "id": "COOP:405040",
                "elevationUnit": "METERS",
                "longitude": -84.7283
            },
            {
                "elevation": 167.9,
                "mindate": "1957-11-01",
                "maxdate": "1979-04-01",
                "latitude": 35.91667,
                "name": "LASCASSAS 3 SW, TN US",
                "datacoverage": 0.9576,
                "id": "COOP:405061",
                "elevationUnit": "METERS",
                "longitude": -86.33333
            },
            {
                "elevation": 240.8,
                "mindate": "2007-06-01",
                "maxdate": "2015-11-01",
                "latitude": 35.24222,
                "name": "LAWRENCEBURG WWTP, TN US",
                "datacoverage": 0.9509,
                "id": "COOP:405085",
                "elevationUnit": "METERS",
                "longitude": -87.35222
            },
            {
                "elevation": 265.2,
                "mindate": "1954-10-01",
                "maxdate": "2015-11-01",
                "latitude": 35.2436,
                "name": "LAWRENCEBURG FILTER PLANT, TN US",
                "datacoverage": 0.9837,
                "id": "COOP:405089",
                "elevationUnit": "METERS",
                "longitude": -87.3508
            },
            {
                "elevation": 160,
                "mindate": "1948-01-01",
                "maxdate": "2015-11-01",
                "latitude": 36.2291,
                "name": "LEBANON, TN US",
                "datacoverage": 0.935,
                "id": "COOP:405108",
                "elevationUnit": "METERS",
                "longitude": -86.318
            },
            {
                "elevation": 155.4,
                "mindate": "1956-07-01",
                "maxdate": "2015-11-01",
                "latitude": 36.29806,
                "name": "LEBANON 7 N, TN US",
                "datacoverage": 0.979,
                "id": "COOP:405118",
                "elevationUnit": "METERS",
                "longitude": -86.26306
            },
            {
                "elevation": 239.3,
                "mindate": "1962-07-01",
                "maxdate": "2015-11-01",
                "latitude": 35.7875,
                "name": "LENOIR CITY, TN US",
                "datacoverage": 0.9968,
                "id": "COOP:405158",
                "elevationUnit": "METERS",
                "longitude": -84.2622
            },
            {
                "elevation": 239.9,
                "mindate": "1898-04-01",
                "maxdate": "2015-11-01",
                "latitude": 35.414,
                "name": "LEWISBURG EXPERIMENTAL STATION, TN US",
                "datacoverage": 0.9901,
                "id": "COOP:405187",
                "elevationUnit": "METERS",
                "longitude": -86.8086
            },
            {
                "elevation": 164.6,
                "mindate": "1962-09-01",
                "maxdate": "2015-11-01",
                "latitude": 35.6502,
                "name": "LEXINGTON, TN US",
                "datacoverage": 0.9233,
                "id": "COOP:405210",
                "elevationUnit": "METERS",
                "longitude": -88.3904
            },
            {
                "elevation": 165.5,
                "mindate": "2005-12-01",
                "maxdate": "2010-04-01",
                "latitude": 35.71361,
                "name": "LEXINGTON 10 NW, TN US",
                "datacoverage": 1,
                "id": "COOP:405214",
                "elevationUnit": "METERS",
                "longitude": -88.56083
            },
            {
                "elevation": 153.9,
                "mindate": "1962-09-01",
                "maxdate": "2015-11-01",
                "latitude": 35.6047,
                "name": "LINDEN WATER PLANT, TN US",
                "datacoverage": 0.9609,
                "id": "COOP:405278",
                "elevationUnit": "METERS",
                "longitude": -87.8408
            },
            {
                "elevation": 292.6,
                "mindate": "1948-01-01",
                "maxdate": "1992-01-01",
                "latitude": 36.43333,
                "name": "LIVINGSTON 5 NE, TN US",
                "datacoverage": 0.9939,
                "id": "COOP:405327",
                "elevationUnit": "METERS",
                "longitude": -85.28333
            },
            {
                "elevation": 297.2,
                "mindate": "1961-07-01",
                "maxdate": "2015-11-01",
                "latitude": 36.3776,
                "name": "LIVINGSTON RADIO WLIV, TN US",
                "datacoverage": 0.9831,
                "id": "COOP:405332",
                "elevationUnit": "METERS",
                "longitude": -85.3365
            },
            {
                "elevation": 135.6,
                "mindate": "1997-08-01",
                "maxdate": "2015-11-01",
                "latitude": 35.7522,
                "name": "LOBELVILLE, TN US",
                "datacoverage": 0.9864,
                "id": "COOP:405358",
                "elevationUnit": "METERS",
                "longitude": -87.7958
            },
            {
                "elevation": 643.1,
                "mindate": "1995-12-01",
                "maxdate": "2015-11-01",
                "latitude": 35.0097,
                "name": "LOOKOUT MTN POINT PARK, TN US",
                "datacoverage": 0.9833,
                "id": "COOP:405431",
                "elevationUnit": "METERS",
                "longitude": -85.3444
            },
            {
                "elevation": 246.9,
                "mindate": "1941-11-01",
                "maxdate": "2015-11-01",
                "latitude": 35.2983,
                "name": "LYNCHBURG, TN US",
                "datacoverage": 0.4882,
                "id": "COOP:405525",
                "elevationUnit": "METERS",
                "longitude": -86.3631
            },
            {
                "elevation": 223.1,
                "mindate": "1893-01-01",
                "maxdate": "1971-12-01",
                "latitude": 35.33333,
                "name": "LYNNVILLE 4 SSW, TN US",
                "datacoverage": 0.9811,
                "id": "COOP:405535",
                "elevationUnit": "METERS",
                "longitude": -87.05
            },
            {
                "elevation": 326.1,
                "mindate": "2000-05-01",
                "maxdate": "2015-11-01",
                "latitude": 35.51583,
                "name": "MANCHESTER NUMBER 2, TN US",
                "datacoverage": 1,
                "id": "COOP:405595",
                "elevationUnit": "METERS",
                "longitude": -86.0875
            },
            {
                "elevation": 103.6,
                "mindate": "1936-09-01",
                "maxdate": "2015-11-01",
                "latitude": 36.3444,
                "name": "MARTIN UNIVERSITY OF TN EXPERIMENT STATION, TN US",
                "datacoverage": 0.9822,
                "id": "COOP:405681",
                "elevationUnit": "METERS",
                "longitude": -88.8636
            },
            {
                "elevation": 97.2,
                "mindate": "1948-10-01",
                "maxdate": "2014-01-01",
                "latitude": 35.4158,
                "name": "MASON, TN US",
                "datacoverage": 0.0374,
                "id": "COOP:405720",
                "elevationUnit": "METERS",
                "longitude": -89.5317
            },
            {
                "elevation": 343.2,
                "mindate": "1999-03-01",
                "maxdate": "2003-03-01",
                "latitude": 36.18472,
                "name": "MAYNARDVILLE 5 SW, TN US",
                "datacoverage": 0.918,
                "id": "COOP:405778",
                "elevationUnit": "METERS",
                "longitude": -83.85833
            },
            {
                "elevation": 286.5,
                "mindate": "1931-01-01",
                "maxdate": "2015-11-01",
                "latitude": 35.6723,
                "name": "MC MINNVILLE, TN US",
                "datacoverage": 1,
                "id": "COOP:405882",
                "elevationUnit": "METERS",
                "longitude": -85.781
            },
            {
                "elevation": 53.3,
                "mindate": "1965-08-01",
                "maxdate": "1986-01-01",
                "latitude": 35.2,
                "name": "MEMPHIS SEWAGE PLANT, TN US",
                "datacoverage": 0.0376,
                "id": "COOP:405946",
                "elevationUnit": "METERS",
                "longitude": -90.03333
            },
            {
                "elevation": 77.4,
                "mindate": "1948-01-01",
                "maxdate": "2015-11-01",
                "latitude": 35.0564,
                "name": "MEMPHIS INTERNATIONAL AIRPORT, TN US",
                "datacoverage": 0.9951,
                "id": "COOP:405954",
                "elevationUnit": "METERS",
                "longitude": -89.9865
            },
            {
                "elevation": 94.5,
                "mindate": "1987-08-01",
                "maxdate": "2015-11-01",
                "latitude": 35.1298,
                "name": "MEMPHIS WEATHER FORECAST OFFICE, TN US",
                "datacoverage": 0.9706,
                "id": "COOP:405956",
                "elevationUnit": "METERS",
                "longitude": -89.8037
            },
            {
                "elevation": 76.2,
                "mindate": "2002-09-01",
                "maxdate": "2014-12-01",
                "latitude": 35.1152,
                "name": "MEMPHIS ZOO, TN US",
                "datacoverage": 0.8108,
                "id": "COOP:405966",
                "elevationUnit": "METERS",
                "longitude": -89.9924
            },
            {
                "elevation": 126.5,
                "mindate": "1931-01-01",
                "maxdate": "2015-11-01",
                "latitude": 35.9327,
                "name": "MILAN EXPERIMENTAL STATION, TN US",
                "datacoverage": 0.9549,
                "id": "COOP:406012",
                "elevationUnit": "METERS",
                "longitude": -88.7268
            },
            {
                "elevation": 192,
                "mindate": "1948-02-01",
                "maxdate": "1976-07-01",
                "latitude": 35.66667,
                "name": "MONSANTO, TN US",
                "datacoverage": 0.9825,
                "id": "COOP:406154",
                "elevationUnit": "METERS",
                "longitude": -87.11667
            },
            {
                "elevation": 563.9,
                "mindate": "1938-11-01",
                "maxdate": "2015-11-01",
                "latitude": 35.2243,
                "name": "MONTEAGLE, TN US",
                "datacoverage": 0.9914,
                "id": "COOP:406162",
                "elevationUnit": "METERS",
                "longitude": -85.8414
            },
            {
                "elevation": 566.9,
                "mindate": "1932-07-01",
                "maxdate": "2015-11-01",
                "latitude": 36.1482,
                "name": "MONTEREY, TN US",
                "datacoverage": 0.958,
                "id": "COOP:406170",
                "elevationUnit": "METERS",
                "longitude": -85.2649
            },
            {
                "elevation": 182.9,
                "mindate": "2005-02-01",
                "maxdate": "2015-11-01",
                "latitude": 36.10139,
                "name": "MONTGOMERY BELL SP, TN US",
                "datacoverage": 0.9928,
                "id": "COOP:406180",
                "elevationUnit": "METERS",
                "longitude": -87.28472
            },
            {
                "elevation": 409.7,
                "mindate": "1982-07-01",
                "maxdate": "2015-11-01",
                "latitude": 36.2067,
                "name": "MORRISTOWN RADIO WCRK, TN US",
                "datacoverage": 1,
                "id": "COOP:406271",
                "elevationUnit": "METERS",
                "longitude": -83.3325
            },
            {
                "elevation": 402.3,
                "mindate": "1995-01-06",
                "maxdate": "2015-11-01",
                "latitude": 36.1682,
                "name": "MORRISTOWN WEATHER FORECAST OFFICE, TN US",
                "datacoverage": 0.9999,
                "id": "COOP:406272",
                "elevationUnit": "METERS",
                "longitude": -83.4027
            },
            {
                "elevation": 102.1,
                "mindate": "1931-01-01",
                "maxdate": "2012-12-01",
                "latitude": 35.0711,
                "name": "MOSCOW, TN US",
                "datacoverage": 0.9776,
                "id": "COOP:406274",
                "elevationUnit": "METERS",
                "longitude": -89.4117
            },
            {
                "elevation": 737.3,
                "mindate": "1956-02-01",
                "maxdate": "2015-11-01",
                "latitude": 36.474,
                "name": "MOUNTAIN CITY 2, TN US",
                "datacoverage": 0.8231,
                "id": "COOP:406292",
                "elevationUnit": "METERS",
                "longitude": -81.8033
            },
            {
                "elevation": 137.2,
                "mindate": "2005-11-01",
                "maxdate": "2015-11-01",
                "latitude": 35.65583,
                "name": "MOUSETAIL LANDING STATE PARK, TN US",
                "datacoverage": 1,
                "id": "COOP:406308",
                "elevationUnit": "METERS",
                "longitude": -88.00639
            },
            {
                "elevation": 1979.1,
                "mindate": "1988-01-01",
                "maxdate": "2015-11-01",
                "latitude": 35.655,
                "name": "MOUNT LECONTE, TN US",
                "datacoverage": 0.9971,
                "id": "COOP:406328",
                "elevationUnit": "METERS",
                "longitude": -83.4411
            },
            {
                "elevation": 115.8,
                "mindate": "2004-10-01",
                "maxdate": "2015-11-01",
                "latitude": 35.9675,
                "name": "MOUNT MORIAH BIRDSONG, TN US",
                "datacoverage": 0.9778,
                "id": "COOP:406330",
                "elevationUnit": "METERS",
                "longitude": -88.0458
            },
            {
                "elevation": 237.1,
                "mindate": "1953-01-01",
                "maxdate": "2015-11-01",
                "latitude": 35.55722,
                "name": "MOUNT PLEASANT 1 N, TN US",
                "datacoverage": 0.8981,
                "id": "COOP:406340",
                "elevationUnit": "METERS",
                "longitude": -87.20194
            },
            {
                "elevation": 136.6,
                "mindate": "1948-09-08",
                "maxdate": "2014-01-01",
                "latitude": 35.4552,
                "name": "MUNFORD, TN US",
                "datacoverage": 0.021,
                "id": "COOP:406358",
                "elevationUnit": "METERS",
                "longitude": -89.8116
            },
            {
                "elevation": 163.1,
                "mindate": "1893-01-01",
                "maxdate": "2015-11-01",
                "latitude": 35.9204,
                "name": "MURFREESBORO 5 N, TN US",
                "datacoverage": 0.9892,
                "id": "COOP:406371",
                "elevationUnit": "METERS",
                "longitude": -86.3727
            },
            {
                "elevation": 173.7,
                "mindate": "2007-09-01",
                "maxdate": "2015-11-01",
                "latitude": 35.88028,
                "name": "MURFREESBORO STONES RIVER N.B., TN US",
                "datacoverage": 0.9698,
                "id": "COOP:406374",
                "elevationUnit": "METERS",
                "longitude": -86.435
            },
            {
                "elevation": 182.9,
                "mindate": "1948-09-03",
                "maxdate": "2015-11-01",
                "latitude": 36.11889,
                "name": "NASHVILLE INTERNATIONAL AIRPORT, TN US",
                "datacoverage": 0.9937,
                "id": "COOP:406402",
                "elevationUnit": "METERS",
                "longitude": -86.68917
            },
            {
                "elevation": 170.7,
                "mindate": "1999-12-01",
                "maxdate": "2015-11-01",
                "latitude": 36.1135,
                "name": "NASHVILLE BERRY FIELD, TN US",
                "datacoverage": 0.9948,
                "id": "COOP:406403",
                "elevationUnit": "METERS",
                "longitude": -86.6781
            },
            {
                "elevation": 173.7,
                "mindate": "1997-04-01",
                "maxdate": "2000-11-01",
                "latitude": 35.12722,
                "name": "NASHVILLE 1 NW, TN US",
                "datacoverage": 0.9991,
                "id": "COOP:406404",
                "elevationUnit": "METERS",
                "longitude": -86.70278
            },
            {
                "elevation": 152.4,
                "mindate": "2003-10-01",
                "maxdate": "2004-04-01",
                "latitude": 36.17083,
                "name": "NASHVILLE SHELBY PARK, TN US",
                "datacoverage": 0.8574,
                "id": "COOP:406410",
                "elevationUnit": "METERS",
                "longitude": -86.73583
            },
            {
                "elevation": 213.4,
                "mindate": "1975-11-01",
                "maxdate": "2015-11-01",
                "latitude": 35.7197,
                "name": "NEAPOLIS EXPERIMENTAL STATION, TN US",
                "datacoverage": 0.9896,
                "id": "COOP:406435",
                "elevationUnit": "METERS",
                "longitude": -86.9654
            },
            {
                "elevation": 119.5,
                "mindate": "1936-01-01",
                "maxdate": "1971-04-01",
                "latitude": 36.3211,
                "name": "CHEATHAM LOCK AND DAM, TN US",
                "datacoverage": 0.9907,
                "id": "COOP:406454",
                "elevationUnit": "METERS",
                "longitude": -87.2218
            },
            {
                "elevation": 113.1,
                "mindate": "1931-01-01",
                "maxdate": "1993-09-01",
                "latitude": 36.11667,
                "name": "NEWBERN, TN US",
                "datacoverage": 0.9867,
                "id": "COOP:406471",
                "elevationUnit": "METERS",
                "longitude": -89.26667
            },
            {
                "elevation": 309.1,
                "mindate": "1951-12-01",
                "maxdate": "2015-11-01",
                "latitude": 36.5516,
                "name": "NEWCOMB, TN US",
                "datacoverage": 0.9922,
                "id": "COOP:406493",
                "elevationUnit": "METERS",
                "longitude": -84.1728
            },
            {
                "elevation": 1536.2,
                "mindate": "2011-01-01",
                "maxdate": "2015-11-01",
                "latitude": 35.6108,
                "name": "NEWFOUND GAP, TN US",
                "datacoverage": 1,
                "id": "COOP:406500",
                "elevationUnit": "METERS",
                "longitude": -83.4289
            },
            {
                "elevation": 315.8,
                "mindate": "1931-01-01",
                "maxdate": "2015-11-01",
                "latitude": 35.9833,
                "name": "NEWPORT 1 NW, TN US",
                "datacoverage": 0.9981,
                "id": "COOP:406534",
                "elevationUnit": "METERS",
                "longitude": -83.2008
            },
            {
                "elevation": 338.3,
                "mindate": "1953-01-01",
                "maxdate": "2015-11-01",
                "latitude": 36.213,
                "name": "NORRIS, TN US",
                "datacoverage": 0.9762,
                "id": "COOP:406619",
                "elevationUnit": "METERS",
                "longitude": -84.0602
            },
            {
                "elevation": 173.7,
                "mindate": "1957-11-01",
                "maxdate": "2008-10-01",
                "latitude": 36.46639,
                "name": "NORTH SPRINGS 4 NW, TN US",
                "datacoverage": 0.9052,
                "id": "COOP:406666",
                "elevationUnit": "METERS",
                "longitude": -85.71806
            },
            {
                "elevation": 161.8,
                "mindate": "1948-09-06",
                "maxdate": "1980-11-01",
                "latitude": 35.66667,
                "name": "OAK GROVE, TN US",
                "datacoverage": 0.0621,
                "id": "COOP:406709",
                "elevationUnit": "METERS",
                "longitude": -88.35
            },
            {
                "elevation": 274.3,
                "mindate": "1999-05-01",
                "maxdate": "2015-11-01",
                "latitude": 36.023,
                "name": "OAK RIDGE ASOS, TN US",
                "datacoverage": 0.9998,
                "id": "COOP:406742",
                "elevationUnit": "METERS",
                "longitude": -84.2337
            },
            {
                "elevation": 310.6,
                "mindate": "1948-01-01",
                "maxdate": "2015-11-01",
                "latitude": 35.998,
                "name": "OAK RIDGE ATDD, TN US",
                "datacoverage": 0.989,
                "id": "COOP:406750",
                "elevationUnit": "METERS",
                "longitude": -84.2192
            },
            {
                "elevation": 140.2,
                "mindate": "1954-09-01",
                "maxdate": "2015-11-01",
                "latitude": 36.29528,
                "name": "OLD HICKORY DAM, TN US",
                "datacoverage": 0.9687,
                "id": "COOP:406803",
                "elevationUnit": "METERS",
                "longitude": -86.65694
            },
            {
                "elevation": 179.8,
                "mindate": "1990-11-01",
                "maxdate": "2015-11-01",
                "latitude": 36.247,
                "name": "OLD HICKORY WEATHER FORECAST OFFICE, TN US",
                "datacoverage": 0.9934,
                "id": "COOP:406806",
                "elevationUnit": "METERS",
                "longitude": -86.5631
            },
            {
                "elevation": 438.9,
                "mindate": "1952-03-01",
                "maxdate": "2015-11-01",
                "latitude": 36.5027,
                "name": "ONEIDA, TN US",
                "datacoverage": 0.9503,
                "id": "COOP:406829",
                "elevationUnit": "METERS",
                "longitude": -84.5308
            },
            {
                "elevation": 213.4,
                "mindate": "1950-12-01",
                "maxdate": "1997-12-01",
                "latitude": 36.6,
                "name": "ORLINDA, TN US",
                "datacoverage": 0.9557,
                "id": "COOP:406861",
                "elevationUnit": "METERS",
                "longitude": -86.7
            },
            {
                "elevation": 235,
                "mindate": "1893-03-01",
                "maxdate": "1977-03-01",
                "latitude": 35.48333,
                "name": "PALMETTO, TN US",
                "datacoverage": 0.9861,
                "id": "COOP:406950",
                "elevationUnit": "METERS",
                "longitude": -86.58333
            },
            {
                "elevation": 135,
                "mindate": "1937-01-01",
                "maxdate": "2015-11-01",
                "latitude": 36.2872,
                "name": "PARIS 2 SE, TN US",
                "datacoverage": 0.9916,
                "id": "COOP:406977",
                "elevationUnit": "METERS",
                "longitude": -88.2958
            },
            {
                "elevation": 125,
                "mindate": "1968-08-01",
                "maxdate": "2015-11-01",
                "latitude": 35.6082,
                "name": "PARSONS WATER PLANT, TN US",
                "datacoverage": 0.581,
                "id": "COOP:407015",
                "elevationUnit": "METERS",
                "longitude": -88.12
            },
            {
                "elevation": 495.3,
                "mindate": "2000-05-01",
                "maxdate": "2015-11-01",
                "latitude": 36.5514,
                "name": "PICKETT STATE PARK, TN US",
                "datacoverage": 0.9893,
                "id": "COOP:407141",
                "elevationUnit": "METERS",
                "longitude": -84.7968
            },
            {
                "elevation": 263.3,
                "mindate": "1962-03-01",
                "maxdate": "2015-11-01",
                "latitude": 35.5982,
                "name": "PIKEVILLE, TN US",
                "datacoverage": 0.9783,
                "id": "COOP:407184",
                "elevationUnit": "METERS",
                "longitude": -85.1939
            },
            {
                "elevation": 242,
                "mindate": "1953-06-01",
                "maxdate": "2015-11-01",
                "latitude": 36.5877,
                "name": "PORTLAND SEWAGE PLANT, TN US",
                "datacoverage": 0.9835,
                "id": "COOP:407359",
                "elevationUnit": "METERS",
                "longitude": -86.5258
            },
            {
                "elevation": 155.4,
                "mindate": "2002-12-01",
                "maxdate": "2015-11-01",
                "latitude": 36.5342,
                "name": "PORT ROYAL, TN US",
                "datacoverage": 0.9808,
                "id": "COOP:407369",
                "elevationUnit": "METERS",
                "longitude": -87.2195
            },
            {
                "elevation": 196.3,
                "mindate": "1957-06-01",
                "maxdate": "2015-11-01",
                "latitude": 35.18417,
                "name": "PULASKI WATER PLANT, TN US",
                "datacoverage": 0.9886,
                "id": "COOP:407459",
                "elevationUnit": "METERS",
                "longitude": -87.04222
            },
            {
                "elevation": 253,
                "mindate": "1942-11-01",
                "maxdate": "2011-12-01",
                "latitude": 36.53778,
                "name": "RED BOILING SPRINGS, TN US",
                "datacoverage": 0.3542,
                "id": "COOP:407589",
                "elevationUnit": "METERS",
                "longitude": -85.85222
            },
            {
                "elevation": 121.9,
                "mindate": "1962-06-01",
                "maxdate": "2015-11-01",
                "latitude": 35.7178,
                "name": "RIPLEY, TN US",
                "datacoverage": 0.9174,
                "id": "COOP:407710",
                "elevationUnit": "METERS",
                "longitude": -89.4986
            },
            {
                "elevation": 890.9,
                "mindate": "2002-04-01",
                "maxdate": "2015-11-01",
                "latitude": 36.1637,
                "name": "ROAN MOUNTAIN 3 SW, TN US",
                "datacoverage": 0.4695,
                "id": "COOP:407770",
                "elevationUnit": "METERS",
                "longitude": -82.0952
            },
            {
                "elevation": 268.2,
                "mindate": "2006-01-01",
                "maxdate": "2015-11-01",
                "latitude": 35.80917,
                "name": "ROCK ISLAND STATE PARK, TN US",
                "datacoverage": 0.9914,
                "id": "COOP:407808",
                "elevationUnit": "METERS",
                "longitude": -85.64167
            },
            {
                "elevation": 265.2,
                "mindate": "1948-09-01",
                "maxdate": "2014-01-01",
                "latitude": 35.8058,
                "name": "ROCK ISLAND 2 NW, TN US",
                "datacoverage": 0.0397,
                "id": "COOP:407811",
                "elevationUnit": "METERS",
                "longitude": -85.6347
            },
            {
                "elevation": 233.8,
                "mindate": "1962-04-01",
                "maxdate": "2015-11-01",
                "latitude": 35.836,
                "name": "ROCKWOOD 2, TN US",
                "datacoverage": 0.9487,
                "id": "COOP:407834",
                "elevationUnit": "METERS",
                "longitude": -84.692
            },
            {
                "elevation": 246.9,
                "mindate": "1948-09-04",
                "maxdate": "2003-04-22",
                "latitude": 35.76556,
                "name": "RODDY, TN US",
                "datacoverage": 0.0549,
                "id": "COOP:407850",
                "elevationUnit": "METERS",
                "longitude": -84.77722
            },
            {
                "elevation": 413,
                "mindate": "1931-01-01",
                "maxdate": "2015-11-01",
                "latitude": 36.4161,
                "name": "ROGERSVILLE 1 NE, TN US",
                "datacoverage": 0.9932,
                "id": "COOP:407884",
                "elevationUnit": "METERS",
                "longitude": -82.9838
            },
            {
                "elevation": 94.5,
                "mindate": "1931-01-01",
                "maxdate": "2015-11-01",
                "latitude": 36.4527,
                "name": "SAMBURG W. L. REFUGE, TN US",
                "datacoverage": 0.9794,
                "id": "COOP:408065",
                "elevationUnit": "METERS",
                "longitude": -89.3027
            },
            {
                "elevation": 128,
                "mindate": "1931-01-01",
                "maxdate": "2015-11-01",
                "latitude": 35.1524,
                "name": "SAVANNAH 6 SW, TN US",
                "datacoverage": 0.9843,
                "id": "COOP:408108",
                "elevationUnit": "METERS",
                "longitude": -88.3213
            },
            {
                "elevation": 131.1,
                "mindate": "1948-09-09",
                "maxdate": "1980-11-01",
                "latitude": 35.23333,
                "name": "SAVANNAH TVA, TN US",
                "datacoverage": 0.0582,
                "id": "COOP:408113",
                "elevationUnit": "METERS",
                "longitude": -88.21667
            },
            {
                "elevation": 548.6,
                "mindate": "2004-08-01",
                "maxdate": "2005-12-01",
                "latitude": 35.25694,
                "name": "SOUTH CUMBERLAND STATE PARK, TN US",
                "datacoverage": 0.9989,
                "id": "COOP:408158",
                "elevationUnit": "METERS",
                "longitude": -85.79083
            },
            {
                "elevation": 143.3,
                "mindate": "1931-01-01",
                "maxdate": "2015-11-01",
                "latitude": 35.1647,
                "name": "SELMER, TN US",
                "datacoverage": 0.9892,
                "id": "COOP:408160",
                "elevationUnit": "METERS",
                "longitude": -88.5994
            },
            {
                "elevation": 274,
                "mindate": "1955-05-01",
                "maxdate": "2015-11-01",
                "latitude": 35.9296,
                "name": "SEVIERVILLE, TN US",
                "datacoverage": 0.9807,
                "id": "COOP:408179",
                "elevationUnit": "METERS",
                "longitude": -83.5983
            },
            {
                "elevation": 587.7,
                "mindate": "1931-01-01",
                "maxdate": "2015-11-01",
                "latitude": 35.2028,
                "name": "SEWANEE, TN US",
                "datacoverage": 0.5476,
                "id": "COOP:408184",
                "elevationUnit": "METERS",
                "longitude": -85.9172
            },
            {
                "elevation": 166.1,
                "mindate": "1948-09-07",
                "maxdate": "1980-11-01",
                "latitude": 35.75,
                "name": "SHADY GROVE, TN US",
                "datacoverage": 0.0612,
                "id": "COOP:408203",
                "elevationUnit": "METERS",
                "longitude": -87.28333
            },
            {
                "elevation": 123.4,
                "mindate": "2008-07-01",
                "maxdate": "2015-11-01",
                "latitude": 36.1661,
                "name": "SHELBY BOTTOMS NATURE CENTER, TN US",
                "datacoverage": 0.955,
                "id": "COOP:408238",
                "elevationUnit": "METERS",
                "longitude": -86.7247
            },
            {
                "elevation": 244.8,
                "mindate": "2008-04-01",
                "maxdate": "2015-10-01",
                "latitude": 35.56111,
                "name": "SHELBYVILLE MUNICIPAL AIRPORT, TN US",
                "datacoverage": 0.901,
                "id": "COOP:408242",
                "elevationUnit": "METERS",
                "longitude": -86.44583
            },
            {
                "elevation": 231.6,
                "mindate": "1951-06-01",
                "maxdate": "2015-11-01",
                "latitude": 35.49222,
                "name": "SHELBYVILLE WATER, TN US",
                "datacoverage": 0.9741,
                "id": "COOP:408246",
                "elevationUnit": "METERS",
                "longitude": -86.4775
            },
            {
                "elevation": 271.3,
                "mindate": "1971-03-01",
                "maxdate": "2015-11-01",
                "latitude": 35.94194,
                "name": "SMITHVILLE 2 SE, TN US",
                "datacoverage": 0.9981,
                "id": "COOP:408405",
                "elevationUnit": "METERS",
                "longitude": -85.78917
            },
            {
                "elevation": 167.6,
                "mindate": "1941-01-01",
                "maxdate": "2015-11-01",
                "latitude": 35.9106,
                "name": "SMYRNA 6 S, TN US",
                "datacoverage": 0.3804,
                "id": "COOP:408414",
                "elevationUnit": "METERS",
                "longitude": -86.5578
            },
            {
                "elevation": 518.2,
                "mindate": "1997-12-01",
                "maxdate": "2015-11-01",
                "latitude": 35.2802,
                "name": "SODDY DAISY MOWBRAY MOUNTAIN, TN US",
                "datacoverage": 0.8658,
                "id": "COOP:408445",
                "elevationUnit": "METERS",
                "longitude": -85.2414
            },
            {
                "elevation": 112.8,
                "mindate": "1996-11-01",
                "maxdate": "2015-11-01",
                "latitude": 35.3884,
                "name": "SOMERVILLE 10 N, TN US",
                "datacoverage": 0.9958,
                "id": "COOP:408450",
                "elevationUnit": "METERS",
                "longitude": -89.3717
            },
            {
                "elevation": 269.7,
                "mindate": "2010-03-01",
                "maxdate": "2015-11-01",
                "latitude": 35.8146,
                "name": "SPENCER 5 NE, TN US",
                "datacoverage": 0.9996,
                "id": "COOP:408515",
                "elevationUnit": "METERS",
                "longitude": -85.4244
            },
            {
                "elevation": 275.8,
                "mindate": "1940-05-01",
                "maxdate": "2015-11-01",
                "latitude": 35.9067,
                "name": "SPARTA WASTEWATER PLANT, TN US",
                "datacoverage": 0.9691,
                "id": "COOP:408522",
                "elevationUnit": "METERS",
                "longitude": -85.4751
            },
            {
                "elevation": 230.1,
                "mindate": "2003-05-01",
                "maxdate": "2015-11-01",
                "latitude": 35.6763,
                "name": "SPRING CITY, TN US",
                "datacoverage": 0.9799,
                "id": "COOP:408540",
                "elevationUnit": "METERS",
                "longitude": -84.8547
            },
            {
                "elevation": 227.1,
                "mindate": "1938-01-01",
                "maxdate": "2015-11-01",
                "latitude": 36.471,
                "name": "SPRINGFIELD EXPERIMENTAL STATION, TN US",
                "datacoverage": 0.9904,
                "id": "COOP:408562",
                "elevationUnit": "METERS",
                "longitude": -86.8415
            },
            {
                "elevation": 396.8,
                "mindate": "1948-09-01",
                "maxdate": "1980-11-01",
                "latitude": 36.48333,
                "name": "STANLEY KNOBS, TN US",
                "datacoverage": 0.0609,
                "id": "COOP:408598",
                "elevationUnit": "METERS",
                "longitude": -82.93333
            },
            {
                "elevation": 220.4,
                "mindate": "1951-11-01",
                "maxdate": "2001-08-01",
                "latitude": 36.03139,
                "name": "STATESVILLE, TN US",
                "datacoverage": 0.9849,
                "id": "COOP:408609",
                "elevationUnit": "METERS",
                "longitude": -86.12528
            },
            {
                "elevation": 161.8,
                "mindate": "1948-09-07",
                "maxdate": "1977-03-01",
                "latitude": 35.53333,
                "name": "SUGAR HILL, TN US",
                "datacoverage": 0.0573,
                "id": "COOP:408704",
                "elevationUnit": "METERS",
                "longitude": -87.81667
            },
            {
                "elevation": 342,
                "mindate": "1948-09-04",
                "maxdate": "1980-11-01",
                "latitude": 35.55,
                "name": "SUMMITVILLE, TN US",
                "datacoverage": 0.0614,
                "id": "COOP:408758",
                "elevationUnit": "METERS",
                "longitude": -85.98333
            },
            {
                "elevation": 459,
                "mindate": "1948-09-07",
                "maxdate": "2014-01-01",
                "latitude": 36.2431,
                "name": "SUNBRIGHT 1 W, TN US",
                "datacoverage": 0.0447,
                "id": "COOP:408766",
                "elevationUnit": "METERS",
                "longitude": -84.695
            },
            {
                "elevation": 416.1,
                "mindate": "1966-05-01",
                "maxdate": "2015-11-01",
                "latitude": 36.465,
                "name": "TAZEWELL, TN US",
                "datacoverage": 0.9983,
                "id": "COOP:408868",
                "elevationUnit": "METERS",
                "longitude": -83.5603
            },
            {
                "elevation": 277.4,
                "mindate": "1931-01-01",
                "maxdate": "2015-11-01",
                "latitude": 35.3696,
                "name": "TELLICO PLAINS, TN US",
                "datacoverage": 0.5623,
                "id": "COOP:408886",
                "elevationUnit": "METERS",
                "longitude": -84.2999
            },
            {
                "elevation": 220.1,
                "mindate": "1999-05-01",
                "maxdate": "2015-11-01",
                "latitude": 36.325,
                "name": "TENNESSEE RIDGE, TN US",
                "datacoverage": 0.9948,
                "id": "COOP:408916",
                "elevationUnit": "METERS",
                "longitude": -87.7886
            },
            {
                "elevation": 131.1,
                "mindate": "2009-10-01",
                "maxdate": "2015-11-01",
                "latitude": 35.96472,
                "name": "TENNESSEE NWR DUCK R, TN US",
                "datacoverage": 1,
                "id": "COOP:408918",
                "elevationUnit": "METERS",
                "longitude": -87.96389
            },
            {
                "elevation": 236.2,
                "mindate": "2002-01-01",
                "maxdate": "2015-11-01",
                "latitude": 35.7635,
                "name": "THOMPSON STATION, TN US",
                "datacoverage": 1,
                "id": "COOP:408953",
                "elevationUnit": "METERS",
                "longitude": -86.9321
            },
            {
                "elevation": 550.8,
                "mindate": "1999-03-01",
                "maxdate": "2015-11-01",
                "latitude": 35.6031,
                "name": "TOWNSEND 5 S, TN US",
                "datacoverage": 0.97,
                "id": "COOP:409065",
                "elevationUnit": "METERS",
                "longitude": -83.7781
            },
            {
                "elevation": 311.5,
                "mindate": "1893-05-01",
                "maxdate": "2015-11-01",
                "latitude": 35.34528,
                "name": "TULLAHOMA, TN US",
                "datacoverage": 0.9857,
                "id": "COOP:409155",
                "elevationUnit": "METERS",
                "longitude": -86.20889
            },
            {
                "elevation": 310.9,
                "mindate": "2011-01-01",
                "maxdate": "2015-11-01",
                "latitude": 35.42944,
                "name": "TULLAHOMA 4 NE, TN US",
                "datacoverage": 1,
                "id": "COOP:409157",
                "elevationUnit": "METERS",
                "longitude": -86.19667
            },
            {
                "elevation": 641,
                "mindate": "1956-09-01",
                "maxdate": "1979-05-01",
                "latitude": 36.16667,
                "name": "UNICOI 3 SW, TN US",
                "datacoverage": 1,
                "id": "COOP:409209",
                "elevationUnit": "METERS",
                "longitude": -82.4
            },
            {
                "elevation": 106.7,
                "mindate": "1931-01-01",
                "maxdate": "2015-11-01",
                "latitude": 36.3925,
                "name": "UNION CITY, TN US",
                "datacoverage": 0.9814,
                "id": "COOP:409219",
                "elevationUnit": "METERS",
                "longitude": -89.0317
            },
            {
                "elevation": 103.9,
                "mindate": "1969-12-01",
                "maxdate": "1972-09-01",
                "latitude": 36.41667,
                "name": "UNION CITY, TN US",
                "datacoverage": 0.0299,
                "id": "COOP:409223",
                "elevationUnit": "METERS",
                "longitude": -89.06667
            },
            {
                "elevation": 196.6,
                "mindate": "2001-03-01",
                "maxdate": "2003-07-01",
                "latitude": 36.21,
                "name": "VANLEER, TN US",
                "datacoverage": 0.9996,
                "id": "COOP:409283",
                "elevationUnit": "METERS",
                "longitude": -87.47306
            },
            {
                "elevation": 260.9,
                "mindate": "2004-04-01",
                "maxdate": "2005-09-01",
                "latitude": 36.23361,
                "name": "VAN LEER 2, TN US",
                "datacoverage": 0.7776,
                "id": "COOP:409286",
                "elevationUnit": "METERS",
                "longitude": -87.44389
            },
            {
                "elevation": 296,
                "mindate": "1948-09-01",
                "maxdate": "1980-11-01",
                "latitude": 35.08333,
                "name": "VICTORY, TN US",
                "datacoverage": 0.0594,
                "id": "COOP:409339",
                "elevationUnit": "METERS",
                "longitude": -87.81667
            },
            {
                "elevation": 190.5,
                "mindate": "2000-11-01",
                "maxdate": "2015-11-01",
                "latitude": 36.06083,
                "name": "WARNER PARK, TN US",
                "datacoverage": 1,
                "id": "COOP:409431",
                "elevationUnit": "METERS",
                "longitude": -86.90639
            },
            {
                "elevation": 309.1,
                "mindate": "2001-06-01",
                "maxdate": "2015-11-01",
                "latitude": 35.5392,
                "name": "WARTRACE 6 E, TN US",
                "datacoverage": 1,
                "id": "COOP:409434",
                "elevationUnit": "METERS",
                "longitude": -86.2284
            },
            {
                "elevation": 522.1,
                "mindate": "1949-01-01",
                "maxdate": "1982-03-01",
                "latitude": 36.33333,
                "name": "WATAUGA DAM, TN US",
                "datacoverage": 0.9951,
                "id": "COOP:409455",
                "elevationUnit": "METERS",
                "longitude": -82.11667
            },
            {
                "elevation": 196.6,
                "mindate": "2001-08-01",
                "maxdate": "2015-11-01",
                "latitude": 36.0968,
                "name": "WATERTOWN PUBLIC SAFETY COMPLEX, TN US",
                "datacoverage": 0.9245,
                "id": "COOP:409481",
                "elevationUnit": "METERS",
                "longitude": -86.1397
            },
            {
                "elevation": 164.6,
                "mindate": "1962-06-01",
                "maxdate": "2000-09-01",
                "latitude": 36.0825,
                "name": "WAVERLY, TN US",
                "datacoverage": 0.9913,
                "id": "COOP:409492",
                "elevationUnit": "METERS",
                "longitude": -87.83472
            },
            {
                "elevation": 228.3,
                "mindate": "2000-09-01",
                "maxdate": "2014-01-01",
                "latitude": 36.1142,
                "name": "WAVERLY AIRPORT, TN US",
                "datacoverage": 0.9056,
                "id": "COOP:409493",
                "elevationUnit": "METERS",
                "longitude": -87.7419
            },
            {
                "elevation": 228.6,
                "mindate": "1931-01-01",
                "maxdate": "2015-11-01",
                "latitude": 35.3041,
                "name": "WAYNESBORO, TN US",
                "datacoverage": 0.9775,
                "id": "COOP:409502",
                "elevationUnit": "METERS",
                "longitude": -87.7591
            },
            {
                "elevation": 310.9,
                "mindate": "2000-08-01",
                "maxdate": "2015-11-01",
                "latitude": 35.2897,
                "name": "WHITWELL SEQUATCHIE VLY, TN US",
                "datacoverage": 1,
                "id": "COOP:409691",
                "elevationUnit": "METERS",
                "longitude": -85.4736
            },
            {
                "elevation": 458.1,
                "mindate": "1948-09-09",
                "maxdate": "1979-01-31",
                "latitude": 36.36667,
                "name": "WHITE HOLLOW, TN US",
                "datacoverage": 0.0766,
                "id": "COOP:409701",
                "elevationUnit": "METERS",
                "longitude": -83.9
            },
            {
                "elevation": 499.9,
                "mindate": "1979-02-01",
                "maxdate": "1980-11-01",
                "latitude": 36.36667,
                "name": "WHITE HOLLOW 2, TN US",
                "datacoverage": 0.0805,
                "id": "COOP:409702",
                "elevationUnit": "METERS",
                "longitude": -83.9
            },
            {
                "elevation": 249.9,
                "mindate": "2001-11-01",
                "maxdate": "2015-11-01",
                "latitude": 36.4511,
                "name": "WHITE HOUSE, TN US",
                "datacoverage": 1,
                "id": "COOP:409709",
                "elevationUnit": "METERS",
                "longitude": -86.6455
            },
            {
                "elevation": 286.8,
                "mindate": "1985-12-01",
                "maxdate": "2015-11-01",
                "latitude": 35.1615,
                "name": "WINCHESTER 5 SE, TN US",
                "datacoverage": 0.9889,
                "id": "COOP:409800",
                "elevationUnit": "METERS",
                "longitude": -86.0315
            },
            {
                "elevation": 228.6,
                "mindate": "1954-07-01",
                "maxdate": "2015-11-01",
                "latitude": 35.8375,
                "name": "WOODBURY 1 WNW, TN US",
                "datacoverage": 0.9945,
                "id": "COOP:409866",
                "elevationUnit": "METERS",
                "longitude": -86.0894
            },
            {
                "elevation": 282.5,
                "mindate": "2007-11-01",
                "maxdate": "2016-08-27",
                "latitude": 35.011389,
                "name": "ARDMORE 1.3 NE, TN US",
                "datacoverage": 1,
                "id": "GHCND:US1CHARM185",
                "elevationUnit": "METERS",
                "longitude": -86.839167
            },
            {
                "elevation": 270.1,
                "mindate": "2007-05-01",
                "maxdate": "2020-05-17",
                "latitude": 36.019079,
                "name": "OAK RIDGE 5.7 NE, TN US",
                "datacoverage": 0.9996,
                "id": "GHCND:US1TNAN0003",
                "elevationUnit": "METERS",
                "longitude": -84.221136
            },
            {
                "elevation": 360,
                "mindate": "2007-04-01",
                "maxdate": "2009-07-07",
                "latitude": 36.0083,
                "name": "OAK RIDGE 3.3 NNW, TN US",
                "datacoverage": 0.9991,
                "id": "GHCND:US1TNAN0004",
                "elevationUnit": "METERS",
                "longitude": -84.3112
            },
            {
                "elevation": 274.3,
                "mindate": "2007-04-01",
                "maxdate": "2016-11-12",
                "latitude": 36.0312,
                "name": "CLINTON 4.3 SSW, TN US",
                "datacoverage": 0.6088,
                "id": "GHCND:US1TNAN0006",
                "elevationUnit": "METERS",
                "longitude": -84.15
            },
            {
                "elevation": 353,
                "mindate": "2007-09-01",
                "maxdate": "2020-05-14",
                "latitude": 36.1997,
                "name": "NORRIS 0.6 NW, TN US",
                "datacoverage": 1,
                "id": "GHCND:US1TNAN0008",
                "elevationUnit": "METERS",
                "longitude": -84.0765
            },
            {
                "elevation": 260.3,
                "mindate": "2009-07-01",
                "maxdate": "2020-05-17",
                "latitude": 36.021157,
                "name": "OAK RIDGE 5.7 NE, TN US",
                "datacoverage": 0.9998,
                "id": "GHCND:US1TNAN0009",
                "elevationUnit": "METERS",
                "longitude": -84.223414
            },
            {
                "elevation": 327.1,
                "mindate": "2010-08-01",
                "maxdate": "2011-10-05",
                "latitude": 36.046201,
                "name": "OAK RIDGE 6.9 NNE, TN US",
                "datacoverage": 0.7992,
                "id": "GHCND:US1TNAN0010",
                "elevationUnit": "METERS",
                "longitude": -84.229841
            },
            {
                "elevation": 249,
                "mindate": "2012-10-01",
                "maxdate": "2020-05-12",
                "latitude": 36.019905090332,
                "name": "CLINTON 4.9 S, TN US",
                "datacoverage": 0.9288,
                "id": "GHCND:US1TNAN0012",
                "elevationUnit": "METERS",
                "longitude": -84.1255340576172
            },
            {
                "elevation": 263,
                "mindate": "2018-05-13",
                "maxdate": "2020-05-17",
                "latitude": 36.018248,
                "name": "OAK RIDGE 5.4 NE, TN US",
                "datacoverage": 1,
                "id": "GHCND:US1TNAN0013",
                "elevationUnit": "METERS",
                "longitude": -84.227999
            },
            {
                "elevation": 269.4,
                "mindate": "2019-05-01",
                "maxdate": "2020-05-17",
                "latitude": 36.02462,
                "name": "OAK RIDGE 8.1 ENE, TN US",
                "datacoverage": 0.942,
                "id": "GHCND:US1TNAN0014",
                "elevationUnit": "METERS",
                "longitude": -84.17415
            },
            {
                "elevation": 238,
                "mindate": "2007-04-01",
                "maxdate": "2014-01-01",
                "latitude": 35.57,
                "name": "SHELBYVILLE 5.5 N, TN US",
                "datacoverage": 0.9986,
                "id": "GHCND:US1TNBF0001",
                "elevationUnit": "METERS",
                "longitude": -86.46
            },
            {
                "elevation": 224,
                "mindate": "2007-04-01",
                "maxdate": "2020-05-17",
                "latitude": 35.55104,
                "name": "SHELBYVILLE 7.5 NW, TN US",
                "datacoverage": 0.9998,
                "id": "GHCND:US1TNBF0003",
                "elevationUnit": "METERS",
                "longitude": -86.55815
            },
            {
                "elevation": 299,
                "mindate": "2007-04-01",
                "maxdate": "2020-05-16",
                "latitude": 35.5698,
                "name": "BELL BUCKLE 2.0 SE, TN US",
                "datacoverage": 0.9998,
                "id": "GHCND:US1TNBF0004",
                "elevationUnit": "METERS",
                "longitude": -86.3291
            },
            {
                "elevation": 228.9,
                "mindate": "2007-07-01",
                "maxdate": "2020-05-16",
                "latitude": 35.466259,
                "name": "SHELBYVILLE 3.1 ESE, TN US",
                "datacoverage": 0.9901,
                "id": "GHCND:US1TNBF0005",
                "elevationUnit": "METERS",
                "longitude": -86.40026
            },
            {
                "elevation": 243.8,
                "mindate": "2007-06-01",
                "maxdate": "2016-10-31",
                "latitude": 35.445538,
                "name": "SHELBYVILLE 6.5 WSW, TN US",
                "datacoverage": 0.7028,
                "id": "GHCND:US1TNBF0007",
                "elevationUnit": "METERS",
                "longitude": -86.547479
            },
            {
                "elevation": 239,
                "mindate": "2007-07-01",
                "maxdate": "2011-09-19",
                "latitude": 35.48,
                "name": "SHELBYVILLE 0.7 SSW, TN US",
                "datacoverage": 0.9986,
                "id": "GHCND:US1TNBF0008",
                "elevationUnit": "METERS",
                "longitude": -86.45
            },
            {
                "elevation": 335.9,
                "mindate": "2007-07-01",
                "maxdate": "2012-05-13",
                "latitude": 35.4576,
                "name": "SHELBYVILLE 1.3 SW, TN US",
                "datacoverage": 0.9993,
                "id": "GHCND:US1TNBF0009",
                "elevationUnit": "METERS",
                "longitude": -86.2759
            },
            {
                "elevation": 365.2,
                "mindate": "2007-11-01",
                "maxdate": "2013-07-22",
                "latitude": 35.357927,
                "name": "SHELBYVILLE 9.3 SSW, TN US",
                "datacoverage": 1,
                "id": "GHCND:US1TNBF0010",
                "elevationUnit": "METERS",
                "longitude": -86.479514
            },
            {
                "elevation": 243.8,
                "mindate": "2007-09-01",
                "maxdate": "2013-01-02",
                "latitude": 35.44181,
                "name": "SHELBYVILLE 10.2 WSW, TN US",
                "datacoverage": 0.9685,
                "id": "GHCND:US1TNBF0013",
                "elevationUnit": "METERS",
                "longitude": -86.617375
            },