{
    "metadata": {
        "resultset": {
            "offset": 1,
            "count": 1162,
            "limit": 1000
        }
    },
    "results": [
        {
            "elevation": 609.9,
            "mindate": "1950-10-01",
            "maxdate": "1981-03-01",
            "latitude": 36.66667,
            "name": "ABINGDON 7 WSW, VA US",
            "datacoverage": 0.0738,
            "id": "COOP:440013",
            "elevationUnit": "METERS",
            "longitude": -82.1
        },
        {
            "elevation": 586.7,
            "mindate": "1970-01-01",
            "maxdate": "2015-11-01",
            "latitude": 36.6687,
            "name": "ABINGDON 3 S, VA US",
            "datacoverage": 0.9474,
            "id": "COOP:440021",
            "elevationUnit": "METERS",
            "longitude": -81.9646
        },
        {
            "elevation": 114.6,
            "mindate": "2004-11-01",
            "maxdate": "2015-11-01",
            "latitude": 36.94,
            "name": "ALBERTA 5 N, VA US",
            "datacoverage": 1,
            "id": "COOP:440079",
            "elevationUnit": "METERS",
            "longitude": -77.8981
        },
        {
            "elevation": 21,
            "mindate": "1958-03-01",
            "maxdate": "1975-12-01",
            "latitude": 38.8,
            "name": "ALEXANDRIA CITY GARA, VA US",
            "datacoverage": 0.9998,
            "id": "COOP:440090",
            "elevationUnit": "METERS",
            "longitude": -77.08333
        },
        {
            "elevation": 554.7,
            "mindate": "1952-02-01",
            "maxdate": "2003-01-01",
            "latitude": 36.92472,
            "name": "ALLISONIA 2 SSE, VA US",
            "datacoverage": 0.9853,
            "id": "COOP:440135",
            "elevationUnit": "METERS",
            "longitude": -80.72833
        },
        {
            "elevation": 161.2,
            "mindate": "1945-05-01",
            "maxdate": "2015-11-01",
            "latitude": 37.1122,
            "name": "ALTAVISTA, VA US",
            "datacoverage": 0.889,
            "id": "COOP:440166",
            "elevationUnit": "METERS",
            "longitude": -79.2751
        },
        {
            "elevation": 105.2,
            "mindate": "1970-01-01",
            "maxdate": "2015-11-01",
            "latitude": 37.3451,
            "name": "AMELIA COURTHOUSE 1, VA US",
            "datacoverage": 0.7949,
            "id": "COOP:440187",
            "elevationUnit": "METERS",
            "longitude": -77.9781
        },
        {
            "elevation": 27.4,
            "mindate": "2003-07-01",
            "maxdate": "2010-05-01",
            "latitude": 37.4255,
            "name": "AMELIA 8 NE, VA US",
            "datacoverage": 0.9515,
            "id": "COOP:440188",
            "elevationUnit": "METERS",
            "longitude": -77.8915
        },
        {
            "elevation": 167.9,
            "mindate": "1943-07-01",
            "maxdate": "1982-10-01",
            "latitude": 38.68333,
            "name": "AMISSVILLE, VA US",
            "datacoverage": 0.9427,
            "id": "COOP:440193",
            "elevationUnit": "METERS",
            "longitude": -78.01667
        },
        {
            "elevation": 259.1,
            "mindate": "1937-11-01",
            "maxdate": "2015-11-01",
            "latitude": 37.3261,
            "name": "APPOMATTOX, VA US",
            "datacoverage": 0.968,
            "id": "COOP:440243",
            "elevationUnit": "METERS",
            "longitude": -78.8274
        },
        {
            "elevation": 67.1,
            "mindate": "1948-01-01",
            "maxdate": "2015-11-01",
            "latitude": 37.75,
            "name": "ASHLAND, VA US",
            "datacoverage": 0.9301,
            "id": "COOP:440327",
            "elevationUnit": "METERS",
            "longitude": -77.4833
        },
        {
            "elevation": 3,
            "mindate": "1953-12-01",
            "maxdate": "2007-05-01",
            "latitude": 36.662,
            "name": "BACK BAY WILDLF REF, VA US",
            "datacoverage": 0.9969,
            "id": "COOP:440385",
            "elevationUnit": "METERS",
            "longitude": -75.9115
        },
        {
            "elevation": 272.5,
            "mindate": "1931-07-01",
            "maxdate": "2006-03-01",
            "latitude": 37.33388,
            "name": "BEDFORD, VA US",
            "datacoverage": 0.9654,
            "id": "COOP:440551",
            "elevationUnit": "METERS",
            "longitude": -79.50684
        },
        {
            "elevation": 374.3,
            "mindate": "1996-02-01",
            "maxdate": "2015-11-01",
            "latitude": 37.3788,
            "name": "BEDFORD 4 NW, VA US",
            "datacoverage": 1,
            "id": "COOP:440561",
            "elevationUnit": "METERS",
            "longitude": -79.5588
        },
        {
            "elevation": 182.9,
            "mindate": "1931-06-01",
            "maxdate": "1987-11-01",
            "latitude": 39.15,
            "name": "BERRYVILLE, VA US",
            "datacoverage": 0.9026,
            "id": "COOP:440670",
            "elevationUnit": "METERS",
            "longitude": -77.98333
        },
        {
            "elevation": 1079,
            "mindate": "1935-03-01",
            "maxdate": "2011-12-01",
            "latitude": 38.5216,
            "name": "BIG MEADOWS, VA US",
            "datacoverage": 0.9197,
            "id": "COOP:440720",
            "elevationUnit": "METERS",
            "longitude": -78.4355
        },
        {
            "elevation": 446.8,
            "mindate": "1990-01-01",
            "maxdate": "2015-11-01",
            "latitude": 36.8567,
            "name": "BIG STONE GAP, VA US",
            "datacoverage": 0.9808,
            "id": "COOP:440735",
            "elevationUnit": "METERS",
            "longitude": -82.7998
        },
        {
            "elevation": 641,
            "mindate": "1952-01-01",
            "maxdate": "2015-11-01",
            "latitude": 37.2039,
            "name": "BLACKSBURG NATIONAL WEATHER SERVICE OFFICE, VA US",
            "datacoverage": 0.9805,
            "id": "COOP:440766",
            "elevationUnit": "METERS",
            "longitude": -80.4144
        },
        {
            "elevation": 135.9,
            "mindate": "1945-05-01",
            "maxdate": "1972-07-01",
            "latitude": 37.08333,
            "name": "BLACKSTONE, VA US",
            "datacoverage": 0.9846,
            "id": "COOP:440773",
            "elevationUnit": "METERS",
            "longitude": -77.95
        },
        {
            "elevation": 128,
            "mindate": "1951-11-14",
            "maxdate": "1974-05-01",
            "latitude": 37.08333,
            "name": "BLACKSTONE WATER WOR, VA US",
            "datacoverage": 0.0516,
            "id": "COOP:440778",
            "elevationUnit": "METERS",
            "longitude": -78.01667
        },
        {
            "elevation": 609.6,
            "mindate": "1951-09-01",
            "maxdate": "2011-12-01",
            "latitude": 37.0997,
            "name": "BLAND, VA US",
            "datacoverage": 0.989,
            "id": "COOP:440792",
            "elevationUnit": "METERS",
            "longitude": -81.1161
        },
        {
            "elevation": 179.8,
            "mindate": "1998-09-01",
            "maxdate": "2014-12-01",
            "latitude": 38.5459,
            "name": "BOSTON 4 SE, VA US",
            "datacoverage": 0.9949,
            "id": "COOP:440860",
            "elevationUnit": "METERS",
            "longitude": -78.0981
        },
        {
            "elevation": 11.9,
            "mindate": "1954-03-01",
            "maxdate": "1978-12-01",
            "latitude": 36.58333,
            "name": "BOYKINS, VA US",
            "datacoverage": 0.973,
            "id": "COOP:440956",
            "elevationUnit": "METERS",
            "longitude": -77.2
        },
        {
            "elevation": 12.2,
            "mindate": "1980-09-01",
            "maxdate": "1982-05-01",
            "latitude": 36.56667,
            "name": "BRANCHVILLE 1 S, VA US",
            "datacoverage": 0.6202,
            "id": "COOP:440975",
            "elevationUnit": "METERS",
            "longitude": -77.25
        },
        {
            "elevation": 577,
            "mindate": "1999-09-01",
            "maxdate": "2010-12-01",
            "latitude": 37.2889,
            "name": "BREAKS INTERSTATE PARK, VA US",
            "datacoverage": 0.9631,
            "id": "COOP:440982",
            "elevationUnit": "METERS",
            "longitude": -82.2928
        },
        {
            "elevation": 68.6,
            "mindate": "1939-11-01",
            "maxdate": "2015-11-01",
            "latitude": 37.7091,
            "name": "BREMO BLUFF, VA US",
            "datacoverage": 0.9748,
            "id": "COOP:440993",
            "elevationUnit": "METERS",
            "longitude": -78.2885
        },
        {
            "elevation": 124.4,
            "mindate": "1950-09-01",
            "maxdate": "2015-11-01",
            "latitude": 37.0679,
            "name": "BROOKNEAL, VA US",
            "datacoverage": 0.8251,
            "id": "COOP:441082",
            "elevationUnit": "METERS",
            "longitude": -78.9517
        },
        {
            "elevation": 381,
            "mindate": "2004-02-01",
            "maxdate": "2010-12-01",
            "latitude": 37.9408,
            "name": "BROWNSBURG 2 W, VA US",
            "datacoverage": 1,
            "id": "COOP:441099",
            "elevationUnit": "METERS",
            "longitude": -79.3517
        },
        {
            "elevation": 268.2,
            "mindate": "1931-01-01",
            "maxdate": "2012-12-01",
            "latitude": 37.5247,
            "name": "BUCHANAN, VA US",
            "datacoverage": 0.938,
            "id": "COOP:441121",
            "elevationUnit": "METERS",
            "longitude": -79.6816
        },
        {
            "elevation": 176.8,
            "mindate": "1937-11-01",
            "maxdate": "2015-11-01",
            "latitude": 37.5083,
            "name": "BUCKINGHAM, VA US",
            "datacoverage": 0.8794,
            "id": "COOP:441136",
            "elevationUnit": "METERS",
            "longitude": -78.5333
        },
        {
            "elevation": 256,
            "mindate": "1937-07-01",
            "maxdate": "2015-11-01",
            "latitude": 37.7268,
            "name": "BUENA VISTA, VA US",
            "datacoverage": 0.9065,
            "id": "COOP:441159",
            "elevationUnit": "METERS",
            "longitude": -79.3629
        },
        {
            "elevation": 31.1,
            "mindate": "1971-01-01",
            "maxdate": "1971-12-01",
            "latitude": 37.88333,
            "name": "BURGESS 1 ESE, VA US",
            "datacoverage": 1,
            "id": "COOP:441202",
            "elevationUnit": "METERS",
            "longitude": -76.33333
        },
        {
            "elevation": 935.1,
            "mindate": "1931-01-01",
            "maxdate": "2015-11-01",
            "latitude": 37.0908,
            "name": "BURKES GARDEN, VA US",
            "datacoverage": 0.9853,
            "id": "COOP:441209",
            "elevationUnit": "METERS",
            "longitude": -81.33639
        },
        {
            "elevation": 797.1,
            "mindate": "1967-05-01",
            "maxdate": "2005-08-01",
            "latitude": 36.77194,
            "name": "BYLLESBY 1 S, VA US",
            "datacoverage": 0.9934,
            "id": "COOP:441259",
            "elevationUnit": "METERS",
            "longitude": -80.93861
        },
        {
            "elevation": 100.6,
            "mindate": "1972-12-01",
            "maxdate": "2015-11-01",
            "latitude": 37.0375,
            "name": "FORT PICKETT, VA US",
            "datacoverage": 1,
            "id": "COOP:441322",
            "elevationUnit": "METERS",
            "longitude": -77.9462
        },
        {
            "elevation": 164.9,
            "mindate": "2010-03-01",
            "maxdate": "2011-12-01",
            "latitude": 38.6047,
            "name": "CASTLETON, VA US",
            "datacoverage": 0.998,
            "id": "COOP:441434",
            "elevationUnit": "METERS",
            "longitude": -78.11
        },
        {
            "elevation": 573,
            "mindate": "1931-01-01",
            "maxdate": "1978-06-01",
            "latitude": 37.38333,
            "name": "CATAWBA HOSPITAL, VA US",
            "datacoverage": 0.9615,
            "id": "COOP:441471",
            "elevationUnit": "METERS",
            "longitude": -80.08333
        },
        {
            "elevation": 173.4,
            "mindate": "1946-06-01",
            "maxdate": "2014-12-01",
            "latitude": 37.0521,
            "name": "CHARLOTTE COURT HOUSE, VA US",
            "datacoverage": 0.9137,
            "id": "COOP:441585",
            "elevationUnit": "METERS",
            "longitude": -78.6496
        },
        {
            "elevation": 264,
            "mindate": "1931-01-01",
            "maxdate": "2015-11-01",
            "latitude": 38.0329,
            "name": "CHARLOTTESVILLE 2 W, VA US",
            "datacoverage": 0.9824,
            "id": "COOP:441593",
            "elevationUnit": "METERS",
            "longitude": -78.5226
        },
        {
            "elevation": 164.9,
            "mindate": "1948-01-01",
            "maxdate": "1971-06-01",
            "latitude": 38.03333,
            "name": "CHARLOTTESVILLE 1 W, VA US",
            "datacoverage": 0.915,
            "id": "COOP:441598",
            "elevationUnit": "METERS",
            "longitude": -78.51667
        },
        {
            "elevation": 155.4,
            "mindate": "1948-01-01",
            "maxdate": "2015-11-01",
            "latitude": 36.7775,
            "name": "CHASE CITY, VA US",
            "datacoverage": 0.9215,
            "id": "COOP:441606",
            "elevationUnit": "METERS",
            "longitude": -78.4756
        },
        {
            "elevation": 197.2,
            "mindate": "1931-01-01",
            "maxdate": "2015-11-01",
            "latitude": 36.82204,
            "name": "CHATHAM, VA US",
            "datacoverage": 0.9902,
            "id": "COOP:441614",
            "elevationUnit": "METERS",
            "longitude": -79.4102
        },
        {
            "elevation": 3,
            "mindate": "1936-10-01",
            "maxdate": "1976-11-01",
            "latitude": 37.28333,
            "name": "CHERITON, VA US",
            "datacoverage": 0.9481,
            "id": "COOP:441636",
            "elevationUnit": "METERS",
            "longitude": -75.96667
        },
        {
            "elevation": 609.9,
            "mindate": "1952-04-01",
            "maxdate": "1976-09-01",
            "latitude": 36.78333,
            "name": "CHILHOWIE 1 S, VA US",
            "datacoverage": 0.9898,
            "id": "COOP:441675",
            "elevationUnit": "METERS",
            "longitude": -81.68333
        },
        {
            "elevation": 640.1,
            "mindate": "1995-08-01",
            "maxdate": "2015-11-01",
            "latitude": 37.1278,
            "name": "CHRISTIANSBURG, VA US",
            "datacoverage": 1,
            "id": "COOP:441692",
            "elevationUnit": "METERS",
            "longitude": -80.4033
        },
        {
            "elevation": 451.1,
            "mindate": "1948-05-07",
            "maxdate": "1973-01-01",
            "latitude": 38.23333,
            "name": "CHURCHVILLE, VA US",
            "datacoverage": 0.0621,
            "id": "COOP:441708",
            "elevationUnit": "METERS",
            "longitude": -79.16667
        },
        {
            "elevation": 100.6,
            "mindate": "1931-01-01",
            "maxdate": "2015-11-01",
            "latitude": 36.6213,
            "name": "CLARKSVILLE, VA US",
            "datacoverage": 0.9667,
            "id": "COOP:441746",
            "elevationUnit": "METERS",
            "longitude": -78.5506
        },
        {
            "elevation": 426.7,
            "mindate": "1931-04-01",
            "maxdate": "1983-10-01",
            "latitude": 37.85,
            "name": "CLIFTON FORGE 2 NW, VA US",
            "datacoverage": 0.9191,
            "id": "COOP:441801",
            "elevationUnit": "METERS",
            "longitude": -79.83333
        },
        {
            "elevation": 467,
            "mindate": "1951-09-01",
            "maxdate": "1974-06-01",
            "latitude": 37.16667,
            "name": "CLINCHCO, VA US",
            "datacoverage": 0.938,
            "id": "COOP:441808",
            "elevationUnit": "METERS",
            "longitude": -82.31667
        },
        {
            "elevation": 477.3,
            "mindate": "1993-07-01",
            "maxdate": "2015-11-01",
            "latitude": 37.14556,
            "name": "CLINTWOOD 1 W, VA US",
            "datacoverage": 1,
            "id": "COOP:441825",
            "elevationUnit": "METERS",
            "longitude": -82.49078
        },
        {
            "elevation": 3,
            "mindate": "1963-12-01",
            "maxdate": "2002-06-01",
            "latitude": 38.25056,
            "name": "COLONIAL BEACH, VA US",
            "datacoverage": 0.9547,
            "id": "COOP:441913",
            "elevationUnit": "METERS",
            "longitude": -76.96278
        },
        {
            "elevation": 88.4,
            "mindate": "1931-01-01",
            "maxdate": "1986-07-01",
            "latitude": 37.73333,
            "name": "COLUMBIA 2 SSE, VA US",
            "datacoverage": 0.985,
            "id": "COOP:441929",
            "elevationUnit": "METERS",
            "longitude": -78.15
        },
        {
            "elevation": 248.4,
            "mindate": "1950-09-01",
            "maxdate": "2015-11-01",
            "latitude": 37.2819,
            "name": "CONCORD 4 SSW, VA US",
            "datacoverage": 0.977,
            "id": "COOP:441955",
            "elevationUnit": "METERS",
            "longitude": -78.9591
        },
        {
            "elevation": 326.1,
            "mindate": "1940-10-01",
            "maxdate": "1971-05-01",
            "latitude": 38.63694,
            "name": "COOTES STORE, VA US",
            "datacoverage": 0.8778,
            "id": "COOP:441986",
            "elevationUnit": "METERS",
            "longitude": -78.85306
        },
        {
            "elevation": 870.8,
            "mindate": "1940-04-01",
            "maxdate": "2015-11-01",
            "latitude": 37.08169,
            "name": "COPPER HILL, VA US",
            "datacoverage": 0.9538,
            "id": "COOP:441999",
            "elevationUnit": "METERS",
            "longitude": -80.13486
        },
        {
            "elevation": 67.1,
            "mindate": "1959-01-01",
            "maxdate": "2015-11-01",
            "latitude": 38.2022,
            "name": "CORBIN, VA US",
            "datacoverage": 0.9927,
            "id": "COOP:442009",
            "elevationUnit": "METERS",
            "longitude": -77.3747
        },
        {
            "elevation": 367.9,
            "mindate": "1937-03-01",
            "maxdate": "1999-03-01",
            "latitude": 37.78861,
            "name": "COVINGTON, VA US",
            "datacoverage": 0.9557,
            "id": "COOP:442041",
            "elevationUnit": "METERS",
            "longitude": -80.00528
        },
        {
            "elevation": 379.2,
            "mindate": "1960-10-01",
            "maxdate": "2015-11-01",
            "latitude": 37.81112,
            "name": "COVINGTON FILTER PLANT, VA US",
            "datacoverage": 0.9819,
            "id": "COOP:442044",
            "elevationUnit": "METERS",
            "longitude": -79.98822
        },
        {
            "elevation": 535.8,
            "mindate": "1963-09-01",
            "maxdate": "2014-12-01",
            "latitude": 38.0517,
            "name": "CRAIGSVILLE 2 S, VA US",
            "datacoverage": 0.9367,
            "id": "COOP:442064",
            "elevationUnit": "METERS",
            "longitude": -79.3858
        },
        {
            "elevation": 106.7,
            "mindate": "1976-06-01",
            "maxdate": "2015-11-01",
            "latitude": 37.6664,
            "name": "CROZIER, VA US",
            "datacoverage": 0.9831,
            "id": "COOP:442142",
            "elevationUnit": "METERS",
            "longitude": -77.8769
        },
        {
            "elevation": 144.8,
            "mindate": "1931-01-01",
            "maxdate": "1990-06-01",
            "latitude": 38.48333,
            "name": "CULPEPER, VA US",
            "datacoverage": 0.916,
            "id": "COOP:442155",
            "elevationUnit": "METERS",
            "longitude": -77.98333
        },
        {
            "elevation": 79.2,
            "mindate": "1979-07-01",
            "maxdate": "2004-02-01",
            "latitude": 38.35861,
            "name": "CULPEPER RIVRSIDE COAST GUARD, VA US",
            "datacoverage": 0.0267,
            "id": "COOP:442159",
            "elevationUnit": "METERS",
            "longitude": -77.96472
        },
        {
            "elevation": 140.2,
            "mindate": "1979-08-01",
            "maxdate": "1994-12-01",
            "latitude": 37.5,
            "name": "CUMBERLAND, VA US",
            "datacoverage": 0.9782,
            "id": "COOP:442160",
            "elevationUnit": "METERS",
            "longitude": -78.25
        },
        {
            "elevation": 413.9,
            "mindate": "1931-01-01",
            "maxdate": "2015-11-01",
            "latitude": 38.4547,
            "name": "DALE ENTERPRISE, VA US",
            "datacoverage": 0.9843,
            "id": "COOP:442208",
            "elevationUnit": "METERS",
            "longitude": -78.9352
        },
        {
            "elevation": 595,
            "mindate": "1931-01-01",
            "maxdate": "1974-07-01",
            "latitude": 36.63333,
            "name": "DAMASCUS, VA US",
            "datacoverage": 0.9771,
            "id": "COOP:442216",
            "elevationUnit": "METERS",
            "longitude": -81.8
        },
        {
            "elevation": 119.5,
            "mindate": "1931-01-01",
            "maxdate": "2011-12-01",
            "latitude": 36.56269,
            "name": "DANVILLE 2 SE, VA US",
            "datacoverage": 0.9866,
            "id": "COOP:442245",
            "elevationUnit": "METERS",
            "longitude": -79.36331
        },
        {
            "elevation": 174,
            "mindate": "1945-11-01",
            "maxdate": "2015-11-01",
            "latitude": 36.5729,
            "name": "DANVILLE REGIONAL AIRPORT, VA US",
            "datacoverage": 0.3758,
            "id": "COOP:442250",
            "elevationUnit": "METERS",
            "longitude": -79.3351
        },
        {
            "elevation": 488,
            "mindate": "1957-08-01",
            "maxdate": "1986-07-01",
            "latitude": 37.11667,
            "name": "DAVENPORT 2 NE, VA US",
            "datacoverage": 0.0699,
            "id": "COOP:442269",
            "elevationUnit": "METERS",
            "longitude": -82.1
        },
        {
            "elevation": 524.9,
            "mindate": "1931-01-01",
            "maxdate": "1980-12-01",
            "latitude": 38.16667,
            "name": "DEERFIELD 1 S, VA US",
            "datacoverage": 0.8966,
            "id": "COOP:442315",
            "elevationUnit": "METERS",
            "longitude": -79.36667
        },
        {
            "elevation": 159.1,
            "mindate": "1948-05-03",
            "maxdate": "1970-02-01",
            "latitude": 38.93333,
            "name": "DELAPLANE 1 NW, VA US",
            "datacoverage": 0.0584,
            "id": "COOP:442326",
            "elevationUnit": "METERS",
            "longitude": -77.93333
        },
        {
            "elevation": 9.1,
            "mindate": "1931-01-01",
            "maxdate": "1980-12-01",
            "latitude": 36.9,
            "name": "DIAMOND SPRINGS, VA US",
            "datacoverage": 0.9916,
            "id": "COOP:442368",
            "elevationUnit": "METERS",
            "longitude": -76.2
        },
        {
            "elevation": 39.6,
            "mindate": "2006-08-01",
            "maxdate": "2015-11-01",
            "latitude": 37.1122,
            "name": "DISPUTANTA, VA US",
            "datacoverage": 0.9821,
            "id": "COOP:442400",
            "elevationUnit": "METERS",
            "longitude": -77.2017
        },
        {
            "elevation": 6.1,
            "mindate": "1941-06-01",
            "maxdate": "1986-09-01",
            "latitude": 36.88333,
            "name": "DRIVE 4 NE, VA US",
            "datacoverage": 0.9541,
            "id": "COOP:442504",
            "elevationUnit": "METERS",
            "longitude": -76.48333
        },
        {
            "elevation": 283.5,
            "mindate": "2005-03-01",
            "maxdate": "2005-09-01",
            "latitude": 37.6414,
            "name": "EAGLE ROCK, VA US",
            "datacoverage": 0.9956,
            "id": "COOP:442581",
            "elevationUnit": "METERS",
            "longitude": -79.7992
        },
        {
            "elevation": 620.9,
            "mindate": "1976-09-01",
            "maxdate": "2010-12-01",
            "latitude": 37.6658,
            "name": "EARLEHURST, VA US",
            "datacoverage": 0.9855,
            "id": "COOP:442600",
            "elevationUnit": "METERS",
            "longitude": -80.2441
        },
        {
            "elevation": 3,
            "mindate": "2001-04-01",
            "maxdate": "2015-11-01",
            "latitude": 37.3876,
            "name": "EASTVILLE, VA US",
            "datacoverage": 0.9943,
            "id": "COOP:442635",
            "elevationUnit": "METERS",
            "longitude": -75.9744
        },
        {
            "elevation": 282.9,
            "mindate": "1996-06-01",
            "maxdate": "2015-11-01",
            "latitude": 38.8025,
            "name": "EDINBURG, VA US",
            "datacoverage": 1,
            "id": "COOP:442663",
            "elevationUnit": "METERS",
            "longitude": -78.5853
        },
        {
            "elevation": 100,
            "mindate": "1940-05-01",
            "maxdate": "1984-07-01",
            "latitude": 38.45,
            "name": "ELKWOOD 6 SE, VA US",
            "datacoverage": 0.9426,
            "id": "COOP:442729",
            "elevationUnit": "METERS",
            "longitude": -77.76667
        },
        {
            "elevation": 30.5,
            "mindate": "1931-01-01",
            "maxdate": "2015-11-01",
            "latitude": 36.6983,
            "name": "EMPORIA 1 WNW, VA US",
            "datacoverage": 0.9804,
            "id": "COOP:442790",
            "elevationUnit": "METERS",
            "longitude": -77.5597
        },
        {
            "elevation": 98.1,
            "mindate": "1949-12-01",
            "maxdate": "1970-12-01",
            "latitude": 38.85,
            "name": "FALLS CHURCH 2 SW, VA US",
            "datacoverage": 0.9802,
            "id": "COOP:442922",
            "elevationUnit": "METERS",
            "longitude": -77.2
        },
        {
            "elevation": 137.2,
            "mindate": "1931-01-01",
            "maxdate": "2015-11-01",
            "latitude": 37.3263,
            "name": "FARMVILLE 2 N, VA US",
            "datacoverage": 0.9932,
            "id": "COOP:442941",
            "elevationUnit": "METERS",
            "longitude": -78.3864
        },
        {
            "elevation": 397.8,
            "mindate": "2003-12-01",
            "maxdate": "2007-08-01",
            "latitude": 37.5431,
            "name": "FINCASTLE 7 NE, VA US",
            "datacoverage": 0.9998,
            "id": "COOP:443006",
            "elevationUnit": "METERS",
            "longitude": -79.8039
        },
        {
            "elevation": 800.1,
            "mindate": "1933-02-01",
            "maxdate": "2006-09-01",
            "latitude": 36.92778,
            "name": "FLOYD 2 NE, VA US",
            "datacoverage": 0.974,
            "id": "COOP:443071",
            "elevationUnit": "METERS",
            "longitude": -80.29083
        },
        {
            "elevation": 18,
            "mindate": "1950-04-01",
            "maxdate": "1970-12-01",
            "latitude": 37.23333,
            "name": "FORT LEE, VA US",
            "datacoverage": 0.9999,
            "id": "COOP:443127",
            "elevationUnit": "METERS",
            "longitude": -77.33333
        },
        {
            "elevation": 27.4,
            "mindate": "1931-01-01",
            "maxdate": "1997-03-01",
            "latitude": 38.31667,
            "name": "FREDERICKSBURG NATIONAL PARK, VA US",
            "datacoverage": 0.9598,
            "id": "COOP:443192",
            "elevationUnit": "METERS",
            "longitude": -77.45
        },
        {
            "elevation": 36.6,
            "mindate": "1978-09-01",
            "maxdate": "1993-04-01",
            "latitude": 38.3,
            "name": "FREDERICKSBURG 2, VA US",
            "datacoverage": 0.008,
            "id": "COOP:443200",
            "elevationUnit": "METERS",
            "longitude": -77.46667
        },
        {
            "elevation": 18.3,
            "mindate": "1995-01-01",
            "maxdate": "2015-11-01",
            "latitude": 38.2875,
            "name": "FREDERICKSBURG SEWAGE, VA US",
            "datacoverage": 0.9842,
            "id": "COOP:443204",
            "elevationUnit": "METERS",
            "longitude": -77.4507
        },
        {
            "elevation": 179.8,
            "mindate": "1955-07-01",
            "maxdate": "2015-11-01",
            "latitude": 38.09079,
            "name": "FREE UNION, VA US",
            "datacoverage": 0.92,
            "id": "COOP:443213",
            "elevationUnit": "METERS",
            "longitude": -78.58937
        },
        {
            "elevation": 283.5,
            "mindate": "1979-01-01",
            "maxdate": "2015-11-01",
            "latitude": 38.9038,
            "name": "FRONT ROYAL, VA US",
            "datacoverage": 1,
            "id": "COOP:443229",
            "elevationUnit": "METERS",
            "longitude": -78.1821
        },
        {
            "elevation": 726.9,
            "mindate": "1940-04-01",
            "maxdate": "2015-11-01",
            "latitude": 36.6633,
            "name": "GALAX RADIO WBRF, VA US",
            "datacoverage": 0.9317,
            "id": "COOP:443267",
            "elevationUnit": "METERS",
            "longitude": -80.9139
        },
        {
            "elevation": 713.5,
            "mindate": "1958-02-01",
            "maxdate": "2015-11-01",
            "latitude": 36.65452,
            "name": "GALAX WATER PLANT, VA US",
            "datacoverage": 1,
            "id": "COOP:443272",
            "elevationUnit": "METERS",
            "longitude": -80.91732
        },
        {
            "elevation": 539.5,
            "mindate": "1980-05-01",
            "maxdate": "2015-11-01",
            "latitude": 37.9458,
            "name": "GATHRIGHT DAM, VA US",
            "datacoverage": 1,
            "id": "COOP:443310",
            "elevationUnit": "METERS",
            "longitude": -79.9542
        },
        {
            "elevation": 224.6,
            "mindate": "1967-11-01",
            "maxdate": "2015-11-01",
            "latitude": 37.61838,
            "name": "GLASGOW 1 SE, VA US",
            "datacoverage": 1,
            "id": "COOP:443375",
            "elevationUnit": "METERS",
            "longitude": -79.43575
        },
        {
            "elevation": 463.3,
            "mindate": "1931-01-01",
            "maxdate": "2006-07-01",
            "latitude": 37.3733,
            "name": "GLEN LYN, VA US",
            "datacoverage": 0.9802,
            "id": "COOP:443397",
            "elevationUnit": "METERS",
            "longitude": -80.8597
        },
        {
            "elevation": 140.2,
            "mindate": "1961-07-01",
            "maxdate": "2003-04-01",
            "latitude": 38.08611,
            "name": "GORDONSVILLE 3 S, VA US",
            "datacoverage": 0.9921,
            "id": "COOP:443466",
            "elevationUnit": "METERS",
            "longitude": -78.1825
        },
        {
            "elevation": 347.5,
            "mindate": "1997-05-01",
            "maxdate": "2001-07-01",
            "latitude": 39.2875,
            "name": "GORE 3 E, VA US",
            "datacoverage": 0.9996,
            "id": "COOP:443468",
            "elevationUnit": "METERS",
            "longitude": -78.3625
        },
        {
            "elevation": 411.5,
            "mindate": "1939-12-01",
            "maxdate": "2009-10-01",
            "latitude": 37.9839,
            "name": "GOSHEN, VA US",
            "datacoverage": 0.969,
            "id": "COOP:443470",
            "elevationUnit": "METERS",
            "longitude": -79.5008
        },
        {
            "elevation": 152.4,
            "mindate": "2004-05-01",
            "maxdate": "2015-11-01",
            "latitude": 37.1756,
            "name": "GREENBAY 3 NE, VA US",
            "datacoverage": 0.9856,
            "id": "COOP:443565",
            "elevationUnit": "METERS",
            "longitude": -78.2786
        },
        {
            "elevation": 777.8,
            "mindate": "1949-01-01",
            "maxdate": "1981-03-01",
            "latitude": 36.86667,
            "name": "GROSECLOSE, VA US",
            "datacoverage": 0.0678,
            "id": "COOP:443623",
            "elevationUnit": "METERS",
            "longitude": -81.35
        },
        {
            "elevation": 75.9,
            "mindate": "1951-11-01",
            "maxdate": "1970-12-01",
            "latitude": 38.76667,
            "name": "GROVETON, VA US",
            "datacoverage": 0.9348,
            "id": "COOP:443635",
            "elevationUnit": "METERS",
            "longitude": -77.1
        },
        {
            "elevation": 352.7,
            "mindate": "1948-11-01",
            "maxdate": "2015-11-01",
            "latitude": 37.28217,
            "name": "GRUNDY, VA US",
            "datacoverage": 0.8957,
            "id": "COOP:443640",
            "elevationUnit": "METERS",
            "longitude": -82.08849
        },
        {
            "elevation": 153,
            "mindate": "1955-08-01",
            "maxdate": "1977-06-01",
            "latitude": 36.73333,
            "name": "HALIFAX 2 SSE, VA US",
            "datacoverage": 0.9848,
            "id": "COOP:443695",
            "elevationUnit": "METERS",
            "longitude": -78.91667
        },
        {
            "elevation": 3,
            "mindate": "2002-12-01",
            "maxdate": "2012-12-01",
            "latitude": 37.0225,
            "name": "HAMPTON UNIVERSITY, VA US",
            "datacoverage": 0.9914,
            "id": "COOP:443713",
            "elevationUnit": "METERS",
            "longitude": -76.3366
        },
        {
            "elevation": 420.9,
            "mindate": "1957-07-01",
            "maxdate": "1971-08-31",
            "latitude": 37.2,
            "name": "HAYSI, VA US",
            "datacoverage": 0.0648,
            "id": "COOP:443863",
            "elevationUnit": "METERS",
            "longitude": -82.28333
        },
        {
            "elevation": 787.9,
            "mindate": "1940-04-01",
            "maxdate": "2005-12-01",
            "latitude": 36.80167,
            "name": "HILLSVILLE, VA US",
            "datacoverage": 0.967,
            "id": "COOP:443991",
            "elevationUnit": "METERS",
            "longitude": -80.77528
        },
        {
            "elevation": 274.3,
            "mindate": "1960-05-01",
            "maxdate": "2015-11-01",
            "latitude": 37.5443,
            "name": "BIG ISLAND, VA US",
            "datacoverage": 0.6402,
            "id": "COOP:444039",
            "elevationUnit": "METERS",
            "longitude": -79.403
        },
        {
            "elevation": 24.4,
            "mindate": "1933-03-01",
            "maxdate": "2015-11-01",
            "latitude": 36.683,
            "name": "HOLLAND 1 E, VA US",
            "datacoverage": 0.9819,
            "id": "COOP:444044",
            "elevationUnit": "METERS",
            "longitude": -76.7684
        },
        {
            "elevation": 146.3,
            "mindate": "2003-12-01",
            "maxdate": "2006-11-01",
            "latitude": 37.3956,
            "name": "HOLLIDAY LAKE, VA US",
            "datacoverage": 0.9998,
            "id": "COOP:444046",
            "elevationUnit": "METERS",
            "longitude": -78.6406
        },
        {
            "elevation": 598,
            "mindate": "1948-11-19",
            "maxdate": "1981-03-01",
            "latitude": 37.01667,
            "name": "HONAKER, VA US",
            "datacoverage": 0.0679,
            "id": "COOP:444078",
            "elevationUnit": "METERS",
            "longitude": -82
        },
        {
            "elevation": 12.2,
            "mindate": "1931-01-01",
            "maxdate": "2015-11-01",
            "latitude": 37.2992,
            "name": "HOPEWELL, VA US",
            "datacoverage": 0.9882,
            "id": "COOP:444101",
            "elevationUnit": "METERS",
            "longitude": -77.2775
        },
        {
            "elevation": 684,
            "mindate": "1931-01-01",
            "maxdate": "2015-11-01",
            "latitude": 37.99951,
            "name": "HOT SPRINGS, VA US",
            "datacoverage": 0.9529,
            "id": "COOP:444128",
            "elevationUnit": "METERS",
            "longitude": -79.83227
        },
        {
            "elevation": 273.4,
            "mindate": "1950-09-01",
            "maxdate": "2015-11-01",
            "latitude": 37.12587,
            "name": "HUDDLESTON 4 SW, VA US",
            "datacoverage": 0.9796,
            "id": "COOP:444148",
            "elevationUnit": "METERS",
            "longitude": -79.5251
        },
        {
            "elevation": 331.6,
            "mindate": "1964-10-01",
            "maxdate": "2010-02-01",
            "latitude": 37.3652,
            "name": "HURLEY 4 S, VA US",
            "datacoverage": 0.9997,
            "id": "COOP:444180",
            "elevationUnit": "METERS",
            "longitude": -82.0561
        },
        {
            "elevation": 796.1,
            "mindate": "1953-01-01",
            "maxdate": "1989-06-01",
            "latitude": 36.65,
            "name": "INDEPENDENCE 2, VA US",
            "datacoverage": 0.9933,
            "id": "COOP:444234",
            "elevationUnit": "METERS",
            "longitude": -81.16667
        },
        {
            "elevation": 823,
            "mindate": "1948-08-01",
            "maxdate": "1993-11-01",
            "latitude": 36.9,
            "name": "INDIAN VALLEY, VA US",
            "datacoverage": 0.0517,
            "id": "COOP:444246",
            "elevationUnit": "METERS",
            "longitude": -80.56667
        },
        {
            "elevation": 453.5,
            "mindate": "1970-01-01",
            "maxdate": "2015-11-01",
            "latitude": 37.23235,
            "name": "JOHN FLANNAGAN LAKE, VA US",
            "datacoverage": 0.9728,
            "id": "COOP:444410",
            "elevationUnit": "METERS",
            "longitude": -82.34642
        },
        {
            "elevation": 76.2,
            "mindate": "1951-01-01",
            "maxdate": "2015-11-01",
            "latitude": 36.6002,
            "name": "JOHN H KERR DAM, VA US",
            "datacoverage": 0.9949,
            "id": "COOP:444414",
            "elevationUnit": "METERS",
            "longitude": -78.3011
        },
        {
            "elevation": 427,
            "mindate": "1948-08-03",
            "maxdate": "1972-12-26",
            "latitude": 37.68333,
            "name": "JORDAN MINES 1 NE, VA US",
            "datacoverage": 0.0667,
            "id": "COOP:444452",
            "elevationUnit": "METERS",
            "longitude": -80.1
        },
        {
            "elevation": 457.2,
            "mindate": "1939-12-01",
            "maxdate": "2011-12-01",
            "latitude": 37.8706,
            "name": "KERRS CREEK 6 WNW, VA US",
            "datacoverage": 0.9098,
            "id": "COOP:444565",
            "elevationUnit": "METERS",
            "longitude": -79.5689
        },
        {
            "elevation": 190.5,
            "mindate": "1979-09-01",
            "maxdate": "2015-11-01",
            "latitude": 37.0179,
            "name": "KEYSVILLE 2 S, VA US",
            "datacoverage": 0.862,
            "id": "COOP:444568",
            "elevationUnit": "METERS",
            "longitude": -78.48
        },
        {
            "elevation": 18.3,
            "mindate": "1979-01-01",
            "maxdate": "1998-05-01",
            "latitude": 37.72333,
            "name": "KILMARNOCK 1 N, VA US",
            "datacoverage": 0.9701,
            "id": "COOP:444600",
            "elevationUnit": "METERS",
            "longitude": -76.39
        },
        {
            "elevation": 402.3,
            "mindate": "1951-06-01",
            "maxdate": "2015-11-01",
            "latitude": 37.2392,
            "name": "LAFAYETTE 1 NE, VA US",
            "datacoverage": 0.9974,
            "id": "COOP:444676",
            "elevationUnit": "METERS",
            "longitude": -80.1994
        },
        {
            "elevation": 109.7,
            "mindate": "1999-08-01",
            "maxdate": "2001-10-01",
            "latitude": 38.35056,
            "name": "LAKE OF THE WOODS, VA US",
            "datacoverage": 0.9986,
            "id": "COOP:444692",
            "elevationUnit": "METERS",
            "longitude": -77.75306
        },
        {
            "elevation": 3,
            "mindate": "1931-01-01",
            "maxdate": "2007-08-01",
            "latitude": 37.08278,
            "name": "LANGLEY AIR FORCE BASE, VA US",
            "datacoverage": 0.9413,
            "id": "COOP:444720",
            "elevationUnit": "METERS",
            "longitude": -76.36028
        },
        {
            "elevation": 99.1,
            "mindate": "1945-05-01",
            "maxdate": "2010-05-01",
            "latitude": 36.7711,
            "name": "LAWRENCEVILLE 3 E, VA US",
            "datacoverage": 0.9654,
            "id": "COOP:444768",
            "elevationUnit": "METERS",
            "longitude": -77.7928
        },
        {
            "elevation": 582.8,
            "mindate": "1989-09-01",
            "maxdate": "2015-11-01",
            "latitude": 36.9028,
            "name": "LEBANON, VA US",
            "datacoverage": 0.9969,
            "id": "COOP:444777",
            "elevationUnit": "METERS",
            "longitude": -82.0384
        },
        {
            "elevation": 334.4,
            "mindate": "1931-01-01",
            "maxdate": "2015-11-01",
            "latitude": 37.7767,
            "name": "LEXINGTON, VA US",
            "datacoverage": 0.9824,
            "id": "COOP:444876",
            "elevationUnit": "METERS",
            "longitude": -79.4385
        },
        {
            "elevation": 155.4,
            "mindate": "1931-01-01",
            "maxdate": "2015-11-01",
            "latitude": 39.14216,
            "name": "PURCELLVILLE, VA US",
            "datacoverage": 0.9716,
            "id": "COOP:444909",
            "elevationUnit": "METERS",
            "longitude": -77.70939
        },
        {
            "elevation": 128,
            "mindate": "1941-03-01",
            "maxdate": "2015-11-01",
            "latitude": 38.0421,
            "name": "LOUISA, VA US",
            "datacoverage": 0.9944,
            "id": "COOP:445050",
            "elevationUnit": "METERS",
            "longitude": -78.0061
        },
        {
            "elevation": 426.7,
            "mindate": "1941-03-01",
            "maxdate": "2015-11-01",
            "latitude": 38.6661,
            "name": "LURAY 5 E, VA US",
            "datacoverage": 0.9855,
            "id": "COOP:445096",
            "elevationUnit": "METERS",
            "longitude": -78.3727
        },
        {
            "elevation": 224.3,
            "mindate": "1998-04-01",
            "maxdate": "2012-12-01",
            "latitude": 37.3818,
            "name": "LYNCHBURG NUMBER 2, VA US",
            "datacoverage": 0.9997,
            "id": "COOP:445117",
            "elevationUnit": "METERS",
            "longitude": -79.233
        },
        {
            "elevation": 286.5,
            "mindate": "1948-08-02",
            "maxdate": "2015-11-01",
            "latitude": 37.3208,
            "name": "LYNCHBURG INTERNATIONAL AIRPORT, VA US",
            "datacoverage": 0.9975,
            "id": "COOP:445120",
            "elevationUnit": "METERS",
            "longitude": -79.2067
        },
        {
            "elevation": 309.1,
            "mindate": "1983-10-01",
            "maxdate": "1984-01-01",
            "latitude": 38.3225,
            "name": "LYNNWOOD, VA US",
            "datacoverage": 0.0168,
            "id": "COOP:445142",
            "elevationUnit": "METERS",
            "longitude": -78.755
        },
        {
            "elevation": 175.9,
            "mindate": "1996-01-01",
            "maxdate": "2015-11-01",
            "latitude": 38.3683,
            "name": "MADISON, VA US",
            "datacoverage": 0.7532,
            "id": "COOP:445150",
            "elevationUnit": "METERS",
            "longitude": -78.2503
        },
        {
            "elevation": 74.7,
            "mindate": "2004-04-01",
            "maxdate": "2015-11-01",
            "latitude": 38.73332,
            "name": "MANASSAS, VA US",
            "datacoverage": 0.9572,
            "id": "COOP:445204",
            "elevationUnit": "METERS",
            "longitude": -77.49263
        },
        {
            "elevation": 100.9,
            "mindate": "1948-03-01",
            "maxdate": "1985-07-01",
            "latitude": 38.78333,
            "name": "MANASSAS, VA US",
            "datacoverage": 0.8419,
            "id": "COOP:445213",
            "elevationUnit": "METERS",
            "longitude": -77.5
        },
        {
            "elevation": 640.1,
            "mindate": "1960-10-01",
            "maxdate": "1989-05-01",
            "latitude": 36.81667,
            "name": "MARION, VA US",
            "datacoverage": 0.9419,
            "id": "COOP:445271",
            "elevationUnit": "METERS",
            "longitude": -81.51667
        },
        {
            "elevation": 231.6,
            "mindate": "1946-11-01",
            "maxdate": "2015-11-01",
            "latitude": 36.7056,
            "name": "MARTINSVILLE FILTER PLANT, VA US",
            "datacoverage": 0.9385,
            "id": "COOP:445300",
            "elevationUnit": "METERS",
            "longitude": -79.865
        },
        {
            "elevation": 1.5,
            "mindate": "1950-08-01",
            "maxdate": "2000-03-01",
            "latitude": 37.40306,
            "name": "MATHEWS 4 SE, VA US",
            "datacoverage": 0.6342,
            "id": "COOP:445338",
            "elevationUnit": "METERS",
            "longitude": -76.26889
        },
        {
            "elevation": 609.9,
            "mindate": "1948-08-01",
            "maxdate": "1980-12-01",
            "latitude": 38.33333,
            "name": "MC DOWELL, VA US",
            "datacoverage": 0.4601,
            "id": "COOP:445414",
            "elevationUnit": "METERS",
            "longitude": -79.5
        },
        {
            "elevation": 731.2,
            "mindate": "1981-04-01",
            "maxdate": "1996-11-01",
            "latitude": 38.35,
            "name": "MCDOWELL 3 W, VA US",
            "datacoverage": 0.9946,
            "id": "COOP:445416",
            "elevationUnit": "METERS",
            "longitude": -79.53333
        },
        {
            "elevation": 331.9,
            "mindate": "1948-05-02",
            "maxdate": "1984-01-01",
            "latitude": 38.35,
            "name": "MC GAHEYSVILLE 2 S, VA US",
            "datacoverage": 0.0464,
            "id": "COOP:445423",
            "elevationUnit": "METERS",
            "longitude": -78.73333
        },
        {
            "elevation": 678.2,
            "mindate": "1950-12-01",
            "maxdate": "2015-11-01",
            "latitude": 36.6667,
            "name": "MEADOWS OF DAN 5 SW, VA US",
            "datacoverage": 0.959,
            "id": "COOP:445453",
            "elevationUnit": "METERS",
            "longitude": -80.4481
        },
        {
            "elevation": 412.1,
            "mindate": "1931-01-01",
            "maxdate": "1976-09-01",
            "latitude": 36.7,
            "name": "MENDOTA, VA US",
            "datacoverage": 0.9672,
            "id": "COOP:445501",
            "elevationUnit": "METERS",
            "longitude": -82.31667
        },
        {
            "elevation": 737.9,
            "mindate": "1976-09-01",
            "maxdate": "2015-11-01",
            "latitude": 38.3064,
            "name": "MILL GAP, VA US",
            "datacoverage": 0.9851,
            "id": "COOP:445595",
            "elevationUnit": "METERS",
            "longitude": -79.7197
        },
        {
            "elevation": 634,
            "mindate": "1977-07-01",
            "maxdate": "1979-09-01",
            "latitude": 38.21667,
            "name": "MILL RUN FARM, VA US",
            "datacoverage": 0.6295,
            "id": "COOP:445599",
            "elevationUnit": "METERS",
            "longitude": -79.73333
        },
        {
            "elevation": 6.1,
            "mindate": "1974-10-01",
            "maxdate": "1979-01-01",
            "latitude": 37.71667,
            "name": "MOLLUSK 1 SW, VA US",
            "datacoverage": 0.8455,
            "id": "COOP:445646",
            "elevationUnit": "METERS",
            "longitude": -76.55
        },
        {
            "elevation": 816.9,
            "mindate": "1937-01-01",
            "maxdate": "2000-06-01",
            "latitude": 37.88139,
            "name": "MONTEBELLO 3 NE, VA US",
            "datacoverage": 0.9056,
            "id": "COOP:445685",
            "elevationUnit": "METERS",
            "longitude": -79.13167
        },
        {
            "elevation": 812.9,
            "mindate": "1948-01-01",
            "maxdate": "2015-11-01",
            "latitude": 37.8444,
            "name": "MONTEBELLO FISH CULTURAL STATION, VA US",
            "datacoverage": 0.1215,
            "id": "COOP:445690",
            "elevationUnit": "METERS",
            "longitude": -79.1303
        },
        {
            "elevation": 890.9,
            "mindate": "1941-03-01",
            "maxdate": "1990-05-01",
            "latitude": 38.41667,
            "name": "MONTEREY, VA US",
            "datacoverage": 0.9188,
            "id": "COOP:445698",
            "elevationUnit": "METERS",
            "longitude": -79.58333
        },
        {
            "elevation": 231,
            "mindate": "1931-01-01",
            "maxdate": "2015-11-01",
            "latitude": 38.0111,
            "name": "MONTICELLO, VA US",
            "datacoverage": 0.5084,
            "id": "COOP:445700",
            "elevationUnit": "METERS",
            "longitude": -78.4494
        },
        {
            "elevation": 595,
            "mindate": "1936-04-01",
            "maxdate": "1976-01-01",
            "latitude": 37.75,
            "name": "MOORES CREEK DAM, VA US",
            "datacoverage": 0.7029,
            "id": "COOP:445729",
            "elevationUnit": "METERS",
            "longitude": -79.65
        },
        {
            "elevation": 541,
            "mindate": "1976-07-01",
            "maxdate": "2015-11-01",
            "latitude": 38.1025,
            "name": "MOUNTAIN GROVE, VA US",
            "datacoverage": 0.8013,
            "id": "COOP:445756",
            "elevationUnit": "METERS",
            "longitude": -79.8871
        },
        {
            "elevation": 1179.6,
            "mindate": "1972-01-01",
            "maxdate": "1998-01-01",
            "latitude": 37.38333,
            "name": "MOUNT LAKE BIOL STATION, VA US",
            "datacoverage": 0.9456,
            "id": "COOP:445828",
            "elevationUnit": "METERS",
            "longitude": -80.53333
        },
        {
            "elevation": 76.2,
            "mindate": "2004-04-01",
            "maxdate": "2009-09-01",
            "latitude": 37.8644,
            "name": "MONTPELIER, VA US",
            "datacoverage": 0.5454,
            "id": "COOP:445833",
            "elevationUnit": "METERS",
            "longitude": -77.6383
        },
        {
            "elevation": 475.5,
            "mindate": "1980-04-01",
            "maxdate": "1982-01-01",
            "latitude": 38.35,
            "name": "MOUNT SOLON, VA US",
            "datacoverage": 0.9526,
            "id": "COOP:445838",
            "elevationUnit": "METERS",
            "longitude": -79.08333
        },
        {
            "elevation": 505.7,
            "mindate": "1931-01-01",
            "maxdate": "2015-11-01",
            "latitude": 39.0643,
            "name": "MOUNT WEATHER, VA US",
            "datacoverage": 0.9755,
            "id": "COOP:445851",
            "elevationUnit": "METERS",
            "longitude": -77.8883
        },
        {
            "elevation": 721.5,
            "mindate": "1982-07-01",
            "maxdate": "2015-11-01",
            "latitude": 38.31437,
            "name": "MUSTOE 1 SW, VA US",
            "datacoverage": 0.9921,
            "id": "COOP:445880",
            "elevationUnit": "METERS",
            "longitude": -79.65893
        },
        {
            "elevation": 11.9,
            "mindate": "1956-07-01",
            "maxdate": "1976-12-01",
            "latitude": 37.46667,
            "name": "NASSAWADOX, VA US",
            "datacoverage": 0.9998,
            "id": "COOP:445931",
            "elevationUnit": "METERS",
            "longitude": -75.86667
        },
        {
            "elevation": 14.9,
            "mindate": "1959-06-01",
            "maxdate": "1976-12-01",
            "latitude": 37.81667,
            "name": "NELSONIA, VA US",
            "datacoverage": 0.7012,
            "id": "COOP:445983",
            "elevationUnit": "METERS",
            "longitude": -75.58333
        },
        {
            "elevation": 92,
            "mindate": "1931-01-01",
            "maxdate": "1976-10-01",
            "latitude": 37.7,
            "name": "NEW CANTON, VA US",
            "datacoverage": 0.9873,
            "id": "COOP:446004",
            "elevationUnit": "METERS",
            "longitude": -78.3
        },
        {
            "elevation": 383.4,
            "mindate": "1937-07-01",
            "maxdate": "2015-11-01",
            "latitude": 37.5092,
            "name": "NEW CASTLE, VA US",
            "datacoverage": 0.6334,
            "id": "COOP:446012",
            "elevationUnit": "METERS",
            "longitude": -80.098
        },
        {
            "elevation": 627.9,
            "mindate": "1945-06-01",
            "maxdate": "2005-02-01",
            "latitude": 37.29694,
            "name": "NEWPORT 2 NNW, VA US",
            "datacoverage": 0.9456,
            "id": "COOP:446046",
            "elevationUnit": "METERS",
            "longitude": -80.49389
        },
        {
            "elevation": 14.9,
            "mindate": "1948-08-01",
            "maxdate": "1980-12-01",
            "latitude": 37.01667,
            "name": "NEWPORT NEWS PRESS B, VA US",
            "datacoverage": 0.9948,
            "id": "COOP:446054",
            "elevationUnit": "METERS",
            "longitude": -76.45
        },
        {
            "elevation": 810.2,
            "mindate": "2006-06-01",
            "maxdate": "2015-11-01",
            "latitude": 37.01529,
            "name": "NORA 4 SSE, VA US",
            "datacoverage": 1,
            "id": "COOP:446125",
            "elevationUnit": "METERS",
            "longitude": -82.31981
        },
        {
            "elevation": 9.1,
            "mindate": "1940-07-01",
            "maxdate": "2015-11-01",
            "latitude": 36.9033,
            "name": "NORFOLK INTERNATIONAL AIRPORT, VA US",
            "datacoverage": 0.9934,
            "id": "COOP:446139",
            "elevationUnit": "METERS",
            "longitude": -76.1922
        },
        {
            "elevation": 3,
            "mindate": "2003-04-01",
            "maxdate": "2015-11-01",
            "latitude": 36.8707,
            "name": "NORFOLK SOUTH, VA US",
            "datacoverage": 0.9933,
            "id": "COOP:446147",
            "elevationUnit": "METERS",
            "longitude": -76.2289
        },
        {
            "elevation": 1.2,
            "mindate": "2002-01-01",
            "maxdate": "2015-11-01",
            "latitude": 37.4339,
            "name": "NORTH, VA US",
            "datacoverage": 1,
            "id": "COOP:446161",
            "elevationUnit": "METERS",
            "longitude": -76.4414
        },
        {
            "elevation": 510.5,
            "mindate": "1970-01-01",
            "maxdate": "2015-11-01",
            "latitude": 37.1244,
            "name": "NORTH FORK LAKE, VA US",
            "datacoverage": 0.9638,
            "id": "COOP:446173",
            "elevationUnit": "METERS",
            "longitude": -82.6339
        },
        {
            "elevation": 209.1,
            "mindate": "1971-06-01",
            "maxdate": "1992-04-01",
            "latitude": 37.95,
            "name": "NORTH GARDEN, VA US",
            "datacoverage": 0.0336,
            "id": "COOP:446178",
            "elevationUnit": "METERS",
            "longitude": -78.63333
        },
        {
            "elevation": 732.1,
            "mindate": "1931-01-01",
            "maxdate": "1979-12-01",
            "latitude": 38.36667,
            "name": "NORTH RIVER DAM, VA US",
            "datacoverage": 0.9728,
            "id": "COOP:446199",
            "elevationUnit": "METERS",
            "longitude": -79.26667
        },
        {
            "elevation": 8.2,
            "mindate": "1977-05-01",
            "maxdate": "1985-11-01",
            "latitude": 37.28333,
            "name": "OYSTER 1 W, VA US",
            "datacoverage": 0.7765,
            "id": "COOP:446456",
            "elevationUnit": "METERS",
            "longitude": -75.93333
        },
        {
            "elevation": 766.6,
            "mindate": "1993-08-01",
            "maxdate": "1996-11-01",
            "latitude": 37.55,
            "name": "PAINT BANK 1 W, VA US",
            "datacoverage": 0.9996,
            "id": "COOP:446470",
            "elevationUnit": "METERS",
            "longitude": -80.28333
        },
        {
            "elevation": 9.1,
            "mindate": "1955-12-01",
            "maxdate": "2015-11-01",
            "latitude": 37.5844,
            "name": "PAINTER 2 W, VA US",
            "datacoverage": 0.9958,
            "id": "COOP:446475",
            "elevationUnit": "METERS",
            "longitude": -75.8217
        },
        {
            "elevation": 125,
            "mindate": "1957-05-01",
            "maxdate": "2015-11-01",
            "latitude": 37.8141,
            "name": "PALMYRA 3 S, VA US",
            "datacoverage": 0.9929,
            "id": "COOP:446491",
            "elevationUnit": "METERS",
            "longitude": -78.2645
        },
        {
            "elevation": 75.9,
            "mindate": "1952-06-01",
            "maxdate": "1976-12-01",
            "latitude": 38.05,
            "name": "PARTLOW 3 WNW, VA US",
            "datacoverage": 0.9965,
            "id": "COOP:446533",
            "elevationUnit": "METERS",
            "longitude": -77.7
        },
        {
            "elevation": 796.1,
            "mindate": "1958-01-01",
            "maxdate": "1976-11-01",
            "latitude": 37.46667,
            "name": "PEAKS OF OTTER, VA US",
            "datacoverage": 1,
            "id": "COOP:446573",
            "elevationUnit": "METERS",
            "longitude": -79.6
        },
        {
            "elevation": 312.1,
            "mindate": "1931-01-01",
            "maxdate": "2015-11-01",
            "latitude": 37.6694,
            "name": "PEDLAR DAM, VA US",
            "datacoverage": 0.8675,
            "id": "COOP:446593",
            "elevationUnit": "METERS",
            "longitude": -79.2774
        },
        {
            "elevation": 414.5,
            "mindate": "1931-07-01",
            "maxdate": "2010-11-01",
            "latitude": 36.7586,
            "name": "PENNINGTON GAP, VA US",
            "datacoverage": 0.9569,
            "id": "COOP:446626",
            "elevationUnit": "METERS",
            "longitude": -83.0105
        },
        {
            "elevation": 5.8,
            "mindate": "1979-08-01",
            "maxdate": "2015-11-01",
            "latitude": 37.2388,
            "name": "PETERSBURG, VA US",
            "datacoverage": 0.5138,
            "id": "COOP:446656",
            "elevationUnit": "METERS",
            "longitude": -77.3925
        },
        {
            "elevation": 342.3,
            "mindate": "1953-09-01",
            "maxdate": "2009-07-01",
            "latitude": 36.7764,
            "name": "PHILPOTT DAM 2, VA US",
            "datacoverage": 0.9938,
            "id": "COOP:446692",
            "elevationUnit": "METERS",
            "longitude": -80.0272
        },
        {
            "elevation": 158.5,
            "mindate": "1946-11-01",
            "maxdate": "2015-11-01",
            "latitude": 38.2323,
            "name": "PIEDMONT RESEARCH STATION, VA US",
            "datacoverage": 0.9916,
            "id": "COOP:446712",
            "elevationUnit": "METERS",
            "longitude": -78.1202
        },
        {
            "elevation": 665.1,
            "mindate": "1940-04-01",
            "maxdate": "1985-12-01",
            "latitude": 37.06667,
            "name": "PILOT 1 ENE, VA US",
            "datacoverage": 0.9599,
            "id": "COOP:446723",
            "elevationUnit": "METERS",
            "longitude": -80.35
        },
        {
            "elevation": 228.9,
            "mindate": "1977-01-01",
            "maxdate": "1985-08-01",
            "latitude": 37.7,
            "name": "PINEY RIVER 2 SE, VA US",
            "datacoverage": 1,
            "id": "COOP:446747",
            "elevationUnit": "METERS",
            "longitude": -79
        },
        {
            "elevation": 121.9,
            "mindate": "1931-01-01",
            "maxdate": "2011-12-01",
            "latitude": 37.5145,
            "name": "POWHATAN, VA US",
            "datacoverage": 0.7747,
            "id": "COOP:446906",
            "elevationUnit": "METERS",
            "longitude": -77.8859
        },
        {
            "elevation": 563.9,
            "mindate": "1940-04-01",
            "maxdate": "2015-11-01",
            "latitude": 37.0556,
            "name": "PULASKI 2 E, VA US",
            "datacoverage": 0.9383,
            "id": "COOP:446955",
            "elevationUnit": "METERS",
            "longitude": -80.7842
        },
        {
            "elevation": 3,
            "mindate": "1931-01-01",
            "maxdate": "1976-03-01",
            "latitude": 38.5,
            "name": "QUANTICO 1 S, VA US",
            "datacoverage": 0.9669,
            "id": "COOP:446979",
            "elevationUnit": "METERS",
            "longitude": -77.31667
        },
        {
            "elevation": 548.6,
            "mindate": "1968-06-01",
            "maxdate": "2015-11-01",
            "latitude": 37.2008,
            "name": "RADFORD 3 N, VA US",
            "datacoverage": 0.6649,
            "id": "COOP:446999",
            "elevationUnit": "METERS",
            "longitude": -80.5864
        },
        {
            "elevation": 107,
            "mindate": "1931-01-01",
            "maxdate": "1984-03-01",
            "latitude": 36.98333,
            "name": "RANDOLPH 5 NNE, VA US",
            "datacoverage": 0.9701,
            "id": "COOP:447025",
            "elevationUnit": "METERS",
            "longitude": -78.7
        },
        {
            "elevation": 91.4,
            "mindate": "1944-11-01",
            "maxdate": "1981-12-01",
            "latitude": 38.3,
            "name": "RAPIDAN, VA US",
            "datacoverage": 0.9597,
            "id": "COOP:447033",
            "elevationUnit": "METERS",
            "longitude": -78.06667
        },
        {
            "elevation": 85.3,
            "mindate": "1979-07-01",
            "maxdate": "2010-03-01",
            "latitude": 38.5325,
            "name": "REMINGTON 2, VA US",
            "datacoverage": 0.972,
            "id": "COOP:447130",
            "elevationUnit": "METERS",
            "longitude": -77.8167
        },
        {
            "elevation": 105.2,
            "mindate": "1984-07-01",
            "maxdate": "1987-06-01",
            "latitude": 38.4,
            "name": "RICHARDSVILLE, VA US",
            "datacoverage": 0.6254,
            "id": "COOP:447164",
            "elevationUnit": "METERS",
            "longitude": -77.73333
        },
        {
            "elevation": 582.2,
            "mindate": "1989-07-01",
            "maxdate": "2015-11-01",
            "latitude": 37.0924,
            "name": "RICHLANDS, VA US",
            "datacoverage": 0.9937,
            "id": "COOP:447174",
            "elevationUnit": "METERS",
            "longitude": -81.7935
        },
        {
            "elevation": 50,
            "mindate": "1948-01-01",
            "maxdate": "2015-11-01",
            "latitude": 37.51151,
            "name": "RICHMOND INTERNATIONAL AIRPORT, VA US",
            "datacoverage": 0.9951,
            "id": "COOP:447201",
            "elevationUnit": "METERS",
            "longitude": -77.32344
        },
        {
            "elevation": 171,
            "mindate": "1931-01-01",
            "maxdate": "1978-08-01",
            "latitude": 38.93333,
            "name": "RIVERTON, VA US",
            "datacoverage": 0.9598,
            "id": "COOP:447254",
            "elevationUnit": "METERS",
            "longitude": -78.2
        },
        {
            "elevation": 352.7,
            "mindate": "1998-01-01",
            "maxdate": "2015-11-01",
            "latitude": 37.3622,
            "name": "ROANOKE 8 N, VA US",
            "datacoverage": 0.9955,
            "id": "COOP:447278",
            "elevationUnit": "METERS",
            "longitude": -79.95871
        },
        {
            "elevation": 358.1,
            "mindate": "1948-01-01",
            "maxdate": "2015-11-01",
            "latitude": 37.3169,
            "name": "ROANOKE INTERNATIONAL AIRPORT, VA US",
            "datacoverage": 0.9963,
            "id": "COOP:447285",
            "elevationUnit": "METERS",
            "longitude": -79.9741
        },
        {
            "elevation": 147.8,
            "mindate": "1937-11-01",
            "maxdate": "1990-09-01",
            "latitude": 37.8,
            "name": "ROCKFISH, VA US",
            "datacoverage": 0.9748,
            "id": "COOP:447312",
            "elevationUnit": "METERS",
            "longitude": -78.75
        },
        {
            "elevation": 939.1,
            "mindate": "1948-01-01",
            "maxdate": "1976-01-01",
            "latitude": 36.85,
            "name": "ROCKY KNOB, VA US",
            "datacoverage": 0.9109,
            "id": "COOP:447330",
            "elevationUnit": "METERS",
            "longitude": -80.36667
        },
        {
            "elevation": 400.8,
            "mindate": "1931-01-01",
            "maxdate": "2015-11-01",
            "latitude": 36.9769,
            "name": "ROCKY MOUNT, VA US",
            "datacoverage": 0.9539,
            "id": "COOP:447338",
            "elevationUnit": "METERS",
            "longitude": -79.8961
        },
        {
            "elevation": 268.2,
            "mindate": "1986-05-01",
            "maxdate": "1991-02-01",
            "latitude": 37.8,
            "name": "ROSELAND 1 NNW, VA US",
            "datacoverage": 1,
            "id": "COOP:447402",
            "elevationUnit": "METERS",
            "longitude": -78.98333
        },
        {
            "elevation": 460.9,
            "mindate": "1959-11-01",
            "maxdate": "1976-03-01",
            "latitude": 36.9,
            "name": "ST PAUL, VA US",
            "datacoverage": 0.6802,
            "id": "COOP:447492",
            "elevationUnit": "METERS",
            "longitude": -82.31667
        },
        {
            "elevation": 528.2,
            "mindate": "1931-01-01",
            "maxdate": "2015-11-01",
            "latitude": 36.8894,
            "name": "SALTVILLE 1 N, VA US",
            "datacoverage": 0.7802,
            "id": "COOP:447506",
            "elevationUnit": "METERS",
            "longitude": -81.7711
        },
        {
            "elevation": 50.3,
            "mindate": "2002-01-01",
            "maxdate": "2015-11-01",
            "latitude": 37.54417,
            "name": "SANDSTON, VA US",
            "datacoverage": 1,
            "id": "COOP:447541",
            "elevationUnit": "METERS",
            "longitude": -77.27583
        },
        {
            "elevation": 11.9,
            "mindate": "1941-06-01",
            "maxdate": "1974-08-01",
            "latitude": 36.98333,
            "name": "SMITHFIELD, VA US",
            "datacoverage": 0.7769,
            "id": "COOP:447864",
            "elevationUnit": "METERS",
            "longitude": -76.63333
        },
        {
            "elevation": 155.4,
            "mindate": "1947-01-01",
            "maxdate": "2015-11-01",
            "latitude": 38.2456,
            "name": "SOMERSET, VA US",
            "datacoverage": 0.6566,
            "id": "COOP:447904",
            "elevationUnit": "METERS",
            "longitude": -78.2703
        },
        {
            "elevation": 100.3,
            "mindate": "1980-05-01",
            "maxdate": "2015-11-01",
            "latitude": 36.6954,
            "name": "SOUTH BOSTON, VA US",
            "datacoverage": 0.993,
            "id": "COOP:447925",
            "elevationUnit": "METERS",
            "longitude": -78.8807
        },
        {
            "elevation": 714.1,
            "mindate": "1940-04-01",
            "maxdate": "1985-09-01",
            "latitude": 36.81667,
            "name": "SPEEDWELL, VA US",
            "datacoverage": 0.9011,
            "id": "COOP:447971",
            "elevationUnit": "METERS",
            "longitude": -81.16667
        },
        {
            "elevation": 228.6,
            "mindate": "1995-12-01",
            "maxdate": "2015-11-01",
            "latitude": 38.6553,
            "name": "SPERRYVILLE, VA US",
            "datacoverage": 0.9708,
            "id": "COOP:447985",
            "elevationUnit": "METERS",
            "longitude": -78.2272
        },
        {
            "elevation": 722.4,
            "mindate": "1950-11-09",
            "maxdate": "1981-03-01",
            "latitude": 37.01667,
            "name": "SPRING CREEK 2, VA US",
            "datacoverage": 0.0717,
            "id": "COOP:447997",
            "elevationUnit": "METERS",
            "longitude": -81.65
        },
        {
            "elevation": 511.5,
            "mindate": "1951-09-01",
            "maxdate": "2015-11-01",
            "latitude": 37.27866,
            "name": "PEARISBURG 4 SSE, VA US",
            "datacoverage": 0.9896,
            "id": "COOP:448022",
            "elevationUnit": "METERS",
            "longitude": -80.68884
        },
        {
            "elevation": 289.6,
            "mindate": "1948-01-01",
            "maxdate": "2012-02-01",
            "latitude": 39.0858,
            "name": "STAR TANNERY, VA US",
            "datacoverage": 0.3138,
            "id": "COOP:448046",
            "elevationUnit": "METERS",
            "longitude": -78.4441
        },
        {
            "elevation": 106.7,
            "mindate": "1938-06-01",
            "maxdate": "1976-06-01",
            "latitude": 37.6664,
            "name": "CROZIER, VA US",
            "datacoverage": 0.9825,
            "id": "COOP:448054",
            "elevationUnit": "METERS",
            "longitude": -77.8769
        },
        {
            "elevation": 51.5,
            "mindate": "1931-01-01",
            "maxdate": "2015-11-01",
            "latitude": 38.1692,
            "name": "STAUNTON WATER TREATMENT PLANT, VA US",
            "datacoverage": 0.9755,
            "id": "COOP:448062",
            "elevationUnit": "METERS",
            "longitude": -79.0844
        },
        {
            "elevation": 87.8,
            "mindate": "1977-09-01",
            "maxdate": "2015-11-01",
            "latitude": 38.9764,
            "name": "WEATHER FORECAST OFFICE STERLING, VA US",
            "datacoverage": 0.9957,
            "id": "COOP:448084",
            "elevationUnit": "METERS",
            "longitude": -77.4869
        },
        {
            "elevation": 32,
            "mindate": "1948-01-01",
            "maxdate": "2015-11-01",
            "latitude": 36.9742,
            "name": "STONY CREEK 2 N, VA US",
            "datacoverage": 0.7178,
            "id": "COOP:448129",
            "elevationUnit": "METERS",
            "longitude": -77.4041
        },
        {
            "elevation": 195.1,
            "mindate": "1979-01-01",
            "maxdate": "1984-06-01",
            "latitude": 38.9767,
            "name": "STRASBURG 2 ESE, VA US",
            "datacoverage": 0.0252,
            "id": "COOP:448149",
            "elevationUnit": "METERS",
            "longitude": -78.3364
        },
        {
            "elevation": 419.1,
            "mindate": "1960-02-01",
            "maxdate": "2015-11-01",
            "latitude": 36.6365,
            "name": "STUART, VA US",
            "datacoverage": 0.9627,
            "id": "COOP:448170",
            "elevationUnit": "METERS",
            "longitude": -80.2545
        },
        {
            "elevation": 442,
            "mindate": "1945-11-01",
            "maxdate": "1984-05-29",
            "latitude": 38.01,
            "name": "STUARTS DRAFT, VA US",
            "datacoverage": 0.9144,
            "id": "COOP:448172",
            "elevationUnit": "METERS",
            "longitude": -79.0488
        },
        {
            "elevation": 6.7,
            "mindate": "1945-04-01",
            "maxdate": "2015-11-01",
            "latitude": 36.7297,
            "name": "SUFFOLK LAKE KILBY, VA US",
            "datacoverage": 0.9929,
            "id": "COOP:448192",
            "elevationUnit": "METERS",
            "longitude": -76.6015
        },
        {
            "elevation": 6.1,
            "mindate": "1954-01-01",
            "maxdate": "1970-05-01",
            "latitude": 37.88333,
            "name": "SUNNYBANK, VA US",
            "datacoverage": 1,
            "id": "COOP:448224",
            "elevationUnit": "METERS",
            "longitude": -76.26667
        },
        {
            "elevation": 1.5,
            "mindate": "1952-10-01",
            "maxdate": "2001-04-01",
            "latitude": 37.82833,
            "name": "TANGIER ISLAND, VA US",
            "datacoverage": 0.9075,
            "id": "COOP:448323",
            "elevationUnit": "METERS",
            "longitude": -75.99333
        },
        {
            "elevation": 161.5,
            "mindate": "1954-01-01",
            "maxdate": "2009-03-01",
            "latitude": 38.8947,
            "name": "THE PLAINS 2 NNE, VA US",
            "datacoverage": 0.9729,
            "id": "COOP:448396",
            "elevationUnit": "METERS",
            "longitude": -77.7547
        },
        {
            "elevation": 305.1,
            "mindate": "1931-08-01",
            "maxdate": "1990-05-01",
            "latitude": 38.65,
            "name": "TIMBERVILLE 3 E, VA US",
            "datacoverage": 0.9844,
            "id": "COOP:448448",
            "elevationUnit": "METERS",
            "longitude": -78.71667
        },
        {
            "elevation": 865.3,
            "mindate": "1948-01-01",
            "maxdate": "2013-07-01",
            "latitude": 36.6542,
            "name": "TROUT DALE 3 SSE, VA US",
            "datacoverage": 0.9782,
            "id": "COOP:448547",
            "elevationUnit": "METERS",
            "longitude": -81.4061
        },
        {
            "elevation": 219.5,
            "mindate": "1937-11-01",
            "maxdate": "2015-11-01",
            "latitude": 37.6363,
            "name": "TYE RIVER 1 SE, VA US",
            "datacoverage": 0.9648,
            "id": "COOP:448600",
            "elevationUnit": "METERS",
            "longitude": -78.9336
        },
        {
            "elevation": 9.1,
            "mindate": "1948-01-01",
            "maxdate": "1973-12-01",
            "latitude": 37.63333,
            "name": "URBANNA, VA US",
            "datacoverage": 0.9775,
            "id": "COOP:448642",
            "elevationUnit": "METERS",
            "longitude": -76.56667
        },
        {
            "elevation": 127.4,
            "mindate": "1942-07-01",
            "maxdate": "2015-11-01",
            "latitude": 38.8922,
            "name": "VIENNA, VA US",
            "datacoverage": 0.983,
            "id": "COOP:448737",
            "elevationUnit": "METERS",
            "longitude": -77.2892
        },
        {
            "elevation": 34.4,
            "mindate": "1982-12-01",
            "maxdate": "2015-11-01",
            "latitude": 36.9839,
            "name": "WAKEFIELD 1 NW, VA US",
            "datacoverage": 0.9823,
            "id": "COOP:448800",
            "elevationUnit": "METERS",
            "longitude": -77.0078
        },
        {
            "elevation": 31.1,
            "mindate": "1960-01-01",
            "maxdate": "1978-06-01",
            "latitude": 37,
            "name": "WAKEFIELD 1 NW, VA US",
            "datacoverage": 0.7434,
            "id": "COOP:448803",
            "elevationUnit": "METERS",
            "longitude": -77
        },
        {
            "elevation": 15.2,
            "mindate": "1932-07-01",
            "maxdate": "2015-11-01",
            "latitude": 37.7434,
            "name": "WALKERTON 2 NW, VA US",
            "datacoverage": 0.984,
            "id": "COOP:448829",
            "elevationUnit": "METERS",
            "longitude": -77.04
        },
        {
            "elevation": 6.1,
            "mindate": "1931-01-01",
            "maxdate": "2015-11-01",
            "latitude": 36.5954,
            "name": "WALLACETON LAKE DRUMMOND, VA US",
            "datacoverage": 0.9833,
            "id": "COOP:448837",
            "elevationUnit": "METERS",
            "longitude": -76.4388
        },
        {
            "elevation": 14,
            "mindate": "1966-10-01",
            "maxdate": "2015-11-01",
            "latitude": 37.93718,
            "name": "WALLOPS ISLAND NASA TEST FACILITY, VA US",
            "datacoverage": 0.3576,
            "id": "COOP:448849",
            "elevationUnit": "METERS",
            "longitude": -75.46629
        },
        {
            "elevation": 152.4,
            "mindate": "1951-02-01",
            "maxdate": "2015-11-01",
            "latitude": 38.6812,
            "name": "WARRENTON 3 SE, VA US",
            "datacoverage": 0.8985,
            "id": "COOP:448888",
            "elevationUnit": "METERS",
            "longitude": -77.7678
        },
        {
            "elevation": 42.7,
            "mindate": "1941-01-01",
            "maxdate": "2015-11-01",
            "latitude": 37.9881,
            "name": "WARSAW 2 NW, VA US",
            "datacoverage": 0.95,
            "id": "COOP:448894",
            "elevationUnit": "METERS",
            "longitude": -76.7769
        },
        {
            "elevation": 195.1,
            "mindate": "1944-11-01",
            "maxdate": "1995-01-01",
            "latitude": 38.66667,
            "name": "WASHINGTON 3 SSW, VA US",
            "datacoverage": 0.6915,
            "id": "COOP:448902",
            "elevationUnit": "METERS",
            "longitude": -78.18333
        },
        {
            "elevation": 88.4,
            "mindate": "1962-12-01",
            "maxdate": "2015-11-01",
            "latitude": 38.9349,
            "name": "WASHINGTON DULLES INTERNATIONAL AIRPORT, VA US",
            "datacoverage": 1,
            "id": "COOP:448903",
            "elevationUnit": "METERS",
            "longitude": -77.4473
        },
        {
            "elevation": 3,
            "mindate": "1948-01-01",
            "maxdate": "2015-11-01",
            "latitude": 38.8472,
            "name": "WASHINGTON REAGAN NATIONAL AIRPORT, VA US",
            "datacoverage": 0.9963,
            "id": "COOP:448906",
            "elevationUnit": "METERS",
            "longitude": -77.03454
        },
        {
            "elevation": 34.1,
            "mindate": "1955-08-01",
            "maxdate": "1982-03-01",
            "latitude": 37.03333,
            "name": "WAVERLY, VA US",
            "datacoverage": 0.225,
            "id": "COOP:448933",
            "elevationUnit": "METERS",
            "longitude": -77.1
        },
        {
            "elevation": 103.9,
            "mindate": "1945-04-01",
            "maxdate": "1970-02-01",
            "latitude": 38.88333,
            "name": "WAVERLY HILLS, VA US",
            "datacoverage": 0.9098,
            "id": "COOP:448938",
            "elevationUnit": "METERS",
            "longitude": -77.11667
        },
        {
            "elevation": 387.1,
            "mindate": "2000-10-01",
            "maxdate": "2015-11-01",
            "latitude": 38.0802,
            "name": "WAYNESBORO WATER TREATMENT, VA US",
            "datacoverage": 0.9562,
            "id": "COOP:448941",
            "elevationUnit": "METERS",
            "longitude": -78.875
        },
        {
            "elevation": 576.1,
            "mindate": "1981-04-01",
            "maxdate": "1988-10-01",
            "latitude": 38.26667,
            "name": "WEST AUGUSTA, VA US",
            "datacoverage": 0.9117,
            "id": "COOP:448975",
            "elevationUnit": "METERS",
            "longitude": -79.31667
        },
        {
            "elevation": 6.1,
            "mindate": "1954-03-01",
            "maxdate": "2015-11-01",
            "latitude": 37.5658,
            "name": "WEST POINT 2 NW, VA US",
            "datacoverage": 1,
            "id": "COOP:449025",
            "elevationUnit": "METERS",
            "longitude": -76.8
        },
        {
            "elevation": 563.9,
            "mindate": "1948-08-01",
            "maxdate": "1993-11-01",
            "latitude": 37.18333,
            "name": "WHITE GATE, VA US",
            "datacoverage": 0.0629,
            "id": "COOP:449060",
            "elevationUnit": "METERS",
            "longitude": -80.81667
        },
        {
            "elevation": 21.3,
            "mindate": "1948-01-01",
            "maxdate": "2015-11-01",
            "latitude": 37.3017,
            "name": "WILLIAMSBURG 2 N, VA US",
            "datacoverage": 0.9853,
            "id": "COOP:449151",
            "elevationUnit": "METERS",
            "longitude": -76.7039
        },
        {
            "elevation": 499.9,
            "mindate": "1978-07-01",
            "maxdate": "2011-08-31",
            "latitude": 38.17934,
            "name": "WILLIAMSVILLE 2 S, VA US",
            "datacoverage": 0.0203,
            "id": "COOP:449159",
            "elevationUnit": "METERS",
            "longitude": -79.58163
        },
        {
            "elevation": 856.5,
            "mindate": "1980-01-01",
            "maxdate": "2015-11-01",
            "latitude": 36.91349,
            "name": "WILLIS, VA US",
            "datacoverage": 0.9792,
            "id": "COOP:449169",
            "elevationUnit": "METERS",
            "longitude": -80.50751
        },
        {
            "elevation": 219.5,
            "mindate": "1982-07-01",
            "maxdate": "2015-11-01",
            "latitude": 39.18793,
            "name": "WINCHESTER, VA US",
            "datacoverage": 0.9725,
            "id": "COOP:449181",
            "elevationUnit": "METERS",
            "longitude": -78.1516
        },
        {
            "elevation": 207.3,
            "mindate": "1931-01-01",
            "maxdate": "2015-11-01",
            "latitude": 39.1833,
            "name": "WINCHESTER 7 SE, VA US",
            "datacoverage": 0.9539,
            "id": "COOP:449186",
            "elevationUnit": "METERS",
            "longitude": -78.1167
        },
        {
            "elevation": 91.4,
            "mindate": "1979-08-01",
            "maxdate": "2015-11-01",
            "latitude": 37.3246,
            "name": "WINTERPOCK, VA US",
            "datacoverage": 0.9954,
            "id": "COOP:449213",
            "elevationUnit": "METERS",
            "longitude": -77.6503
        },
        {
            "elevation": 781.5,
            "mindate": "1955-05-01",
            "maxdate": "2015-11-01",
            "latitude": 36.9725,
            "name": "WISE 1 SE, VA US",
            "datacoverage": 0.9917,
            "id": "COOP:449215",
            "elevationUnit": "METERS",
            "longitude": -82.5579
        },
        {
            "elevation": 205.7,
            "mindate": "1931-01-01",
            "maxdate": "2015-11-01",
            "latitude": 38.8969,
            "name": "WOODSTOCK 2 NE, VA US",
            "datacoverage": 0.948,
            "id": "COOP:449263",
            "elevationUnit": "METERS",
            "longitude": -78.4679
        },
        {
            "elevation": 385,
            "mindate": "1951-06-01",
            "maxdate": "2015-11-01",
            "latitude": 36.77363,
            "name": "WOOLWINE 1 SE, VA US",
            "datacoverage": 0.9793,
            "id": "COOP:449272",
            "elevationUnit": "METERS",
            "longitude": -80.26233
        },
        {
            "elevation": 749.2,
            "mindate": "1931-01-01",
            "maxdate": "2015-11-01",
            "latitude": 36.9617,
            "name": "WYTHEVILLE, VA US",
            "datacoverage": 0.9804,
            "id": "COOP:449301",
            "elevationUnit": "METERS",
            "longitude": -81.087
        },
        {
            "elevation": 615.7,
            "mindate": "1979-11-01",
            "maxdate": "2002-11-01",
            "latitude": 37.34528,
            "name": "PAYNESVILLE 1 N, VA US",
            "datacoverage": 0.9314,
            "id": "COOP:466900",
            "elevationUnit": "METERS",
            "longitude": -81.90806
        },
        {
            "elevation": 150,
            "mindate": "2006-01-01",
            "maxdate": "2009-04-07",
            "latitude": 37.951,
            "name": "CHARLOTTESVILLE 5.5 SSE, VA US",
            "datacoverage": 1,
            "id": "GHCND:US1VAAB0001",
            "elevationUnit": "METERS",
            "longitude": -78.463
        },
        {
            "elevation": 168.9,
            "mindate": "2005-10-01",
            "maxdate": "2009-09-04",
            "latitude": 38.139078,
            "name": "HOLLYMEAD 4.3 WNW, VA US",
            "datacoverage": 1,
            "id": "GHCND:US1VAAB0002",
            "elevationUnit": "METERS",
            "longitude": -78.514845
        },
        {
            "elevation": 208.8,
            "mindate": "2011-01-01",
            "maxdate": "2020-05-17",
            "latitude": 38.013108,
            "name": "AFTON 5.4 ESE, VA US",
            "datacoverage": 1,
            "id": "GHCND:US1VAAB0006",
            "elevationUnit": "METERS",
            "longitude": -78.744699
        },
        {
            "elevation": 166.7,
            "mindate": "2012-01-01",
            "maxdate": "2015-01-13",
            "latitude": 38.110766,
            "name": "CHARLOTTESVILLE 5.9 NNW, VA US",
            "datacoverage": 0.9993,
            "id": "GHCND:US1VAAB0007",
            "elevationUnit": "METERS",
            "longitude": -78.511944
        },
        {
            "elevation": 131.4,
            "mindate": "2013-09-01",
            "maxdate": "2014-02-15",
            "latitude": 38.0116271972656,
            "name": "SHADWELL 1.0 E, VA US",
            "datacoverage": 1,
            "id": "GHCND:US1VAAB0009",
            "elevationUnit": "METERS",
            "longitude": -78.3750991821289
        },
        {
            "elevation": 237.4,
            "mindate": "2013-09-01",
            "maxdate": "2020-05-09",
            "latitude": 38.019585,
            "name": "CHARLOTTESVILLE 8.4 W, VA US",
            "datacoverage": 1,
            "id": "GHCND:US1VAAB0010",
            "elevationUnit": "METERS",
            "longitude": -78.638863
        },
        {
            "elevation": 142.3,
            "mindate": "1998-06-01",
            "maxdate": "2020-05-17",
            "latitude": 38.04527778,
            "name": "KESWICK 2.8 NE, VA US",
            "datacoverage": 0.9578,
            "id": "GHCND:US1VAAB0012",
            "elevationUnit": "METERS",
            "longitude": -78.32805556
        },
        {
            "elevation": 229.2,
            "mindate": "2017-02-21",
            "maxdate": "2020-05-14",
            "latitude": 38.0663528442383,
            "name": "CROZET 1.3 W, VA US",
            "datacoverage": 1,
            "id": "GHCND:US1VAAB0017",
            "elevationUnit": "METERS",
            "longitude": -78.7222442626953
        },
        {
            "elevation": 151.8,
            "mindate": "2019-05-29",
            "maxdate": "2020-05-15",
            "latitude": 38.12557,
            "name": "CHARLOTTESVILLE 6.8 NNE, VA US",
            "datacoverage": 0.8839,
            "id": "GHCND:US1VAAB0018",
            "elevationUnit": "METERS",
            "longitude": -78.43116
        },
        {
            "elevation": 14,
            "mindate": "2006-07-01",
            "maxdate": "2008-09-08",
            "latitude": 37.789581,
            "name": "PARKSLEY 0.3 NNE, VA US",
            "datacoverage": 0.7424,
            "id": "GHCND:US1VAAC0001",
            "elevationUnit": "METERS",
            "longitude": -75.652253
        },
        {
            "elevation": 1.8,
            "mindate": "2007-01-01",
            "maxdate": "2013-12-18",
            "latitude": 37.701803,
            "name": "CASHVILLE .01 S, VA US",
            "datacoverage": 0.8919,
            "id": "GHCND:US1VAAC0002",
            "elevationUnit": "METERS",
            "longitude": -75.808796
        },
        {
            "elevation": 11,
            "mindate": "2007-03-01",
            "maxdate": "2013-12-18",
            "latitude": 37.6448,
            "name": "LOCUSTVILLE 0.9 SW, VA US",
            "datacoverage": 0.5689,
            "id": "GHCND:US1VAAC0003",
            "elevationUnit": "METERS",
            "longitude": -75.688
        },
        {
            "elevation": 11,
            "mindate": "2007-11-01",
            "maxdate": "2008-10-28",
            "latitude": 37.85,
            "name": "BLOXOM 2.1 NE, VA US",
            "datacoverage": 0.8316,
            "id": "GHCND:US1VAAC0005",
            "elevationUnit": "METERS",
            "longitude": -75.59
        },
        {
            "elevation": 0,
            "mindate": "2008-04-01",
            "maxdate": "2020-05-17",
            "latitude": 37.673,
            "name": "ONANCOCK 3.9 SW, VA US",
            "datacoverage": 1,
            "id": "GHCND:US1VAAC0006",
            "elevationUnit": "METERS",
            "longitude": -75.7975
        },
        {
            "elevation": 13.1,
            "mindate": "2009-03-01",
            "maxdate": "2020-05-17",
            "latitude": 37.684664,
            "name": "ONLEY 0.6 SE, VA US",
            "datacoverage": 0.9997,
            "id": "GHCND:US1VAAC0007",
            "elevationUnit": "METERS",
            "longitude": -75.710285
        },
        {
            "elevation": 0.6,
            "mindate": "2010-11-01",
            "maxdate": "2020-05-17",
            "latitude": 38.0130771,
            "name": "GREENBACKVILLE 0.4 WNW, VA US",
            "datacoverage": 1,
            "id": "GHCND:US1VAAC0008",
            "elevationUnit": "METERS",
            "longitude": -75.3977562
        },
        {
            "elevation": 0.9,
            "mindate": "2013-03-01",
            "maxdate": "2020-05-15",
            "latitude": 37.9333329,
            "name": "CHINCOTEAGUE 1.3 SSW, VA US",
            "datacoverage": 0.9991,
            "id": "GHCND:US1VAAC0010",
            "elevationUnit": "METERS",
            "longitude": -75.3674984
        },
        {
            "elevation": 11,
            "mindate": "2014-06-01",
            "maxdate": "2017-04-04",
            "latitude": 37.9261478036642,
            "name": "WALLOPS ISLAND 1.9 NW, VA US",
            "datacoverage": 0.9994,
            "id": "GHCND:US1VAAC0011",
            "elevationUnit": "METERS",
            "longitude": -75.4816827178001
        },
        {
            "elevation": 9.8,
            "mindate": "2014-06-01",
            "maxdate": "2020-03-17",
            "latitude": 37.93716,
            "name": "WALLOPS ISLAND 2.0 NW, VA US",
            "datacoverage": 0.9994,
            "id": "GHCND:US1VAAC0012",
            "elevationUnit": "METERS",
            "longitude": -75.46634
        },
        {
            "elevation": 4.9,
            "mindate": "2015-06-01",
            "maxdate": "2020-05-09",
            "latitude": 37.5956,
            "name": "PAINTER 4.4 W, VA US",
            "datacoverage": 0.9947,
            "id": "GHCND:US1VAAC0015",
            "elevationUnit": "METERS",
            "longitude": -75.8634
        },
        {
            "elevation": 4.6,
            "mindate": "2015-10-01",
            "maxdate": "2020-05-17",
            "latitude": 37.7608,
            "name": "METOMPKIN 0.9 SE, VA US",
            "datacoverage": 1,
            "id": "GHCND:US1VAAC0016",
            "elevationUnit": "METERS",
            "longitude": -75.5908
        },
        {
            "elevation": 584,
            "mindate": "2007-03-01",
            "maxdate": "2009-02-08",
            "latitude": 38.02037,
            "name": "GREENVILLE 1.9 NW, VA US",
            "datacoverage": 0.9993,
            "id": "GHCND:US1VAAG0001",
            "elevationUnit": "METERS",
            "longitude": -79.18398
        },
        {
            "elevation": 439.5,
            "mindate": "2011-06-01",
            "maxdate": "2018-04-16",
            "latitude": 38.041589,
            "name": "STUARTS DRAFT 1.2 NNW, VA US",
            "datacoverage": 0.7591,
            "id": "GHCND:US1VAAG0004",
            "elevationUnit": "METERS",
            "longitude": -79.034358
        },
        {
            "elevation": 486.5,
            "mindate": "2014-10-01",
            "maxdate": "2020-05-17",
            "latitude": 38.1625375896692,
            "name": "STAUNTON 0.5 WNW, VA US",
            "datacoverage": 0.8339,
            "id": "GHCND:US1VAAG0006",
            "elevationUnit": "METERS",
            "longitude": -79.0712005645037
        },
        {
            "elevation": 375.2,
            "mindate": "2014-12-01",
            "maxdate": "2017-03-07",
            "latitude": 38.2865978032351,
            "name": "WEYERS CAVE 0.8 WSW, VA US",
            "datacoverage": 1,
            "id": "GHCND:US1VAAG0007",
            "elevationUnit": "METERS",
            "longitude": -78.9263525605202
        },
        {
            "elevation": 492.9,
            "mindate": "2015-01-01",
            "maxdate": "2020-05-17",
            "latitude": 38.1309,
            "name": "STAUNTON 2.0 S, VA US",
            "datacoverage": 1,
            "id": "GHCND:US1VAAG0008",
            "elevationUnit": "METERS",
            "longitude": -79.0559
        },
        {
            "elevation": 421.5,
            "mindate": "2015-01-01",
            "maxdate": "2016-04-29",
            "latitude": 38.1423,
            "name": "WAYNESBORO 5.2 NNE, VA US",
            "datacoverage": 1,
            "id": "GHCND:US1VAAG0009",
            "elevationUnit": "METERS",
            "longitude": -78.8817
        },
        {
            "elevation": 601.4,
            "mindate": "2016-05-13",
            "maxdate": "2020-05-17",
            "latitude": 38.250166,
            "name": "CRAIGSVILLE 12.2 NNE, VA US",
            "datacoverage": 1,
            "id": "GHCND:US1VAAG0012",
            "elevationUnit": "METERS",
            "longitude": -79.3207879
        },
        {
            "elevation": 490.1,
            "mindate": "2017-04-30",
            "maxdate": "2020-05-17",
            "latitude": 38.153572,
            "name": "STAUNTON 2.6 W, VA US",
            "datacoverage": 0.9131,
            "id": "GHCND:US1VAAG0013",
            "elevationUnit": "METERS",
            "longitude": -79.109838
        },
        {
            "elevation": 413,
            "mindate": "2017-09-13",
            "maxdate": "2020-05-17",
            "latitude": 38.061276,
            "name": "WAYNESBORO 1.5 WSW, VA US",
            "datacoverage": 0.6135,
            "id": "GHCND:US1VAAG0015",
            "elevationUnit": "METERS",
            "longitude": -78.928212
        },
        {
            "elevation": 485.5,
            "mindate": "2019-04-13",
            "maxdate": "2019-11-25",
            "latitude": 38.252282,
            "name": "CHURCHVILLE 2.9 NE, VA US",
            "datacoverage": 0.6872,
            "id": "GHCND:US1VAAG0020",
            "elevationUnit": "METERS",
            "longitude": -79.121082
        },
        {
            "elevation": 230.1,
            "mindate": "2015-06-01",
            "maxdate": "2020-05-09",
            "latitude": 37.566616,
            "name": "AMHERST 1.7 SW, VA US",
            "datacoverage": 0.9991,
            "id": "GHCND:US1VAAH0004",
            "elevationUnit": "METERS",
            "longitude": -79.068521
        },
        {
            "elevation": 244.4,
            "mindate": "2018-10-20",
            "maxdate": "2020-05-16",
            "latitude": 37.486927,
            "name": "MADISON HEIGHTS 4.1 NW, VA US",
            "datacoverage": 0.946,
            "id": "GHCND:US1VAAH0005",
            "elevationUnit": "METERS",
            "longitude": -79.148416
        },