{
    "metadata": {
        "resultset": {
            "offset": 1,
            "count": 1521,
            "limit": 1000
        }
    },
    "results": [
        {
            "elevation": 3,
            "mindate": "1919-01-01",
            "maxdate": "2015-11-01",
            "latitude": 46.9658,
            "name": "ABERDEEN, WA US",
            "datacoverage": 0.9751,
            "id": "COOP:450008",
            "elevationUnit": "METERS",
            "longitude": -123.8291
        },
        {
            "elevation": 132.6,
            "mindate": "1927-01-01",
            "maxdate": "2014-01-01",
            "latitude": 47.2613,
            "name": "ABERDEEN 20 NNE, WA US",
            "datacoverage": 0.9893,
            "id": "COOP:450013",
            "elevationUnit": "METERS",
            "longitude": -123.7147
        },
        {
            "elevation": 783.6,
            "mindate": "1982-10-01",
            "maxdate": "1985-10-01",
            "latitude": 46.35,
            "name": "ABERNATHY MOUNTAIN, WA US",
            "datacoverage": 0.115,
            "id": "COOP:450020",
            "elevationUnit": "METERS",
            "longitude": -123.1
        },
        {
            "elevation": 6.1,
            "mindate": "1919-01-01",
            "maxdate": "2015-11-01",
            "latitude": 48.5119,
            "name": "ANACORTES, WA US",
            "datacoverage": 0.9777,
            "id": "COOP:450176",
            "elevationUnit": "METERS",
            "longitude": -122.6136
        },
        {
            "elevation": 1089.1,
            "mindate": "1919-01-01",
            "maxdate": "1981-12-01",
            "latitude": 46.13333,
            "name": "ANATONE, WA US",
            "datacoverage": 0.8942,
            "id": "COOP:450184",
            "elevationUnit": "METERS",
            "longitude": -117.13333
        },
        {
            "elevation": 712,
            "mindate": "1959-06-01",
            "maxdate": "2006-10-01",
            "latitude": 45.8091,
            "name": "APPLETON, WA US",
            "datacoverage": 0.9806,
            "id": "COOP:450217",
            "elevationUnit": "METERS",
            "longitude": -121.2812
        },
        {
            "elevation": 68.3,
            "mindate": "1930-02-01",
            "maxdate": "1970-12-01",
            "latitude": 45.9547,
            "name": "MERWIN DAM, WA US",
            "datacoverage": 0.9247,
            "id": "COOP:450242",
            "elevationUnit": "METERS",
            "longitude": -122.5638
        },
        {
            "elevation": 30.5,
            "mindate": "1922-12-01",
            "maxdate": "2015-11-01",
            "latitude": 48.2005,
            "name": "ARLINGTON, WA US",
            "datacoverage": 0.8844,
            "id": "COOP:450257",
            "elevationUnit": "METERS",
            "longitude": -122.128
        },
        {
            "elevation": 1037.2,
            "mindate": "1976-07-01",
            "maxdate": "2015-11-01",
            "latitude": 46.204,
            "name": "ASOTIN 14 SW, WA US",
            "datacoverage": 0.981,
            "id": "COOP:450294",
            "elevationUnit": "METERS",
            "longitude": -117.2472
        },
        {
            "elevation": 24.1,
            "mindate": "1954-08-01",
            "maxdate": "1977-02-01",
            "latitude": 47.31667,
            "name": "AUBURN, WA US",
            "datacoverage": 0.12,
            "id": "COOP:450324",
            "elevationUnit": "METERS",
            "longitude": -122.23333
        },
        {
            "elevation": 667.5,
            "mindate": "1982-10-01",
            "maxdate": "1989-04-01",
            "latitude": 46.1,
            "name": "BALDY MOUNTAIN, WA US",
            "datacoverage": 0.0885,
            "id": "COOP:450400",
            "elevationUnit": "METERS",
            "longitude": -122.7
        },
        {
            "elevation": 234.7,
            "mindate": "1970-01-01",
            "maxdate": "2015-11-01",
            "latitude": 47.7722,
            "name": "BARING, WA US",
            "datacoverage": 0.9747,
            "id": "COOP:450456",
            "elevationUnit": "METERS",
            "longitude": -121.4819
        },
        {
            "elevation": 86.6,
            "mindate": "1928-06-01",
            "maxdate": "2015-11-01",
            "latitude": 45.7716,
            "name": "BATTLE GROUND, WA US",
            "datacoverage": 0.9152,
            "id": "COOP:450482",
            "elevationUnit": "METERS",
            "longitude": -122.5286
        },
        {
            "elevation": 43,
            "mindate": "1919-01-01",
            "maxdate": "1985-04-01",
            "latitude": 48.78333,
            "name": "BELLINGHAM 2 N, WA US",
            "datacoverage": 0.9963,
            "id": "COOP:450564",
            "elevationUnit": "METERS",
            "longitude": -122.48333
        },
        {
            "elevation": 91.4,
            "mindate": "1998-04-01",
            "maxdate": "2006-12-01",
            "latitude": 48.7422,
            "name": "BELLINGHAM KVOS, WA US",
            "datacoverage": 0.9521,
            "id": "COOP:450566",
            "elevationUnit": "METERS",
            "longitude": -122.4725
        },
        {
            "elevation": 45.4,
            "mindate": "1949-01-01",
            "maxdate": "1996-05-01",
            "latitude": 48.79389,
            "name": "BELLINGHAM INTERNATIONAL AIRPORT, WA US",
            "datacoverage": 1,
            "id": "COOP:450574",
            "elevationUnit": "METERS",
            "longitude": -122.53722
        },
        {
            "elevation": 4.6,
            "mindate": "1985-08-01",
            "maxdate": "2015-11-01",
            "latitude": 48.7177,
            "name": "BELLINGHAM 3 SSW, WA US",
            "datacoverage": 0.9973,
            "id": "COOP:450587",
            "elevationUnit": "METERS",
            "longitude": -122.5113
        },
        {
            "elevation": 919,
            "mindate": "1927-07-01",
            "maxdate": "2015-11-01",
            "latitude": 45.9981,
            "name": "BICKLETON, WA US",
            "datacoverage": 0.9104,
            "id": "COOP:450668",
            "elevationUnit": "METERS",
            "longitude": -120.3006
        },
        {
            "elevation": 18.3,
            "mindate": "1919-01-01",
            "maxdate": "2015-11-01",
            "latitude": 48.9775,
            "name": "BLAINE, WA US",
            "datacoverage": 0.9622,
            "id": "COOP:450729",
            "elevationUnit": "METERS",
            "longitude": -122.7927
        },
        {
            "elevation": 559.9,
            "mindate": "1965-06-01",
            "maxdate": "2015-11-01",
            "latitude": 48.9946,
            "name": "BOUNDARY DAM, WA US",
            "datacoverage": 0.934,
            "id": "COOP:450844",
            "elevationUnit": "METERS",
            "longitude": -117.3544
        },
        {
            "elevation": 793.1,
            "mindate": "1971-01-01",
            "maxdate": "1973-12-01",
            "latitude": 48.98333,
            "name": "BOUNDARY DAM 1 W, WA US",
            "datacoverage": 0.9998,
            "id": "COOP:450845",
            "elevationUnit": "METERS",
            "longitude": -117.35
        },
        {
            "elevation": 783.9,
            "mindate": "1971-01-01",
            "maxdate": "2014-01-01",
            "latitude": 48.9806,
            "name": "BOUNDARY SWITCHYARD, WA US",
            "datacoverage": 0.0223,
            "id": "COOP:450849",
            "elevationUnit": "METERS",
            "longitude": -117.3585
        },
        {
            "elevation": 33.5,
            "mindate": "1919-01-01",
            "maxdate": "2015-11-01",
            "latitude": 47.5688,
            "name": "BREMERTON, WA US",
            "datacoverage": 0.9777,
            "id": "COOP:450872",
            "elevationUnit": "METERS",
            "longitude": -122.6827
        },
        {
            "elevation": 57.9,
            "mindate": "1927-12-01",
            "maxdate": "1974-03-01",
            "latitude": 46.78333,
            "name": "BROOKLYN, WA US",
            "datacoverage": 0.9676,
            "id": "COOP:450917",
            "elevationUnit": "METERS",
            "longitude": -123.5
        },
        {
            "elevation": 208.8,
            "mindate": "1919-01-01",
            "maxdate": "2012-12-01",
            "latitude": 47.1694,
            "name": "BUCKLEY 1 NE, WA US",
            "datacoverage": 0.9893,
            "id": "COOP:450945",
            "elevationUnit": "METERS",
            "longitude": -122.0036
        },
        {
            "elevation": 9.1,
            "mindate": "1948-07-04",
            "maxdate": "2014-01-01",
            "latitude": 48.4672,
            "name": "BURLINGTON, WA US",
            "datacoverage": 0.0582,
            "id": "COOP:450986",
            "elevationUnit": "METERS",
            "longitude": -122.3136
        },
        {
            "elevation": 249.9,
            "mindate": "1956-09-01",
            "maxdate": "1985-12-01",
            "latitude": 47.36667,
            "name": "CAMP GRISDALE, WA US",
            "datacoverage": 0.1322,
            "id": "COOP:451064",
            "elevationUnit": "METERS",
            "longitude": -123.6
        },
        {
            "elevation": 15.2,
            "mindate": "1948-07-04",
            "maxdate": "2003-02-01",
            "latitude": 47.69306,
            "name": "CARNATION 4 NW, WA US",
            "datacoverage": 0.0913,
            "id": "COOP:451146",
            "elevationUnit": "METERS",
            "longitude": -121.99472
        },
        {
            "elevation": 345.6,
            "mindate": "1977-08-01",
            "maxdate": "2015-11-01",
            "latitude": 45.8677,
            "name": "CARSON FISH HATCHERY, WA US",
            "datacoverage": 0.9892,
            "id": "COOP:451160",
            "elevationUnit": "METERS",
            "longitude": -121.9733
        },
        {
            "elevation": 11.9,
            "mindate": "1954-08-01",
            "maxdate": "1978-10-01",
            "latitude": 46.26667,
            "name": "CASTLE ROCK, WA US",
            "datacoverage": 0.128,
            "id": "COOP:451191",
            "elevationUnit": "METERS",
            "longitude": -122.91667
        },
        {
            "elevation": 54.9,
            "mindate": "1959-07-01",
            "maxdate": "2015-02-01",
            "latitude": 46.22528,
            "name": "CATHLAMET 6 NE, WA US",
            "datacoverage": 0.9566,
            "id": "COOP:451205",
            "elevationUnit": "METERS",
            "longitude": -123.32889
        },
        {
            "elevation": 475.5,
            "mindate": "1919-01-01",
            "maxdate": "2015-11-01",
            "latitude": 47.4144,
            "name": "CEDAR LAKE, WA US",
            "datacoverage": 0.9931,
            "id": "COOP:451233",
            "elevationUnit": "METERS",
            "longitude": -121.7561
        },
        {
            "elevation": 56.4,
            "mindate": "1919-01-01",
            "maxdate": "2015-11-01",
            "latitude": 46.72,
            "name": "CENTRALIA, WA US",
            "datacoverage": 0.9742,
            "id": "COOP:451276",
            "elevationUnit": "METERS",
            "longitude": -122.9527
        },
        {
            "elevation": 56.4,
            "mindate": "1967-09-01",
            "maxdate": "2014-01-01",
            "latitude": 46.7116,
            "name": "CENTRALIA 1 W, WA US",
            "datacoverage": 0.0389,
            "id": "COOP:451277",
            "elevationUnit": "METERS",
            "longitude": -122.9775
        },
        {
            "elevation": 363.9,
            "mindate": "1958-05-01",
            "maxdate": "2015-11-01",
            "latitude": 47.8344,
            "name": "CHELAN, WA US",
            "datacoverage": 0.9971,
            "id": "COOP:451350",
            "elevationUnit": "METERS",
            "longitude": -120.0005
        },
        {
            "elevation": 1207.9,
            "mindate": "1959-05-01",
            "maxdate": "1984-04-01",
            "latitude": 49,
            "name": "CHESAW 4 NNW, WA US",
            "datacoverage": 0.9899,
            "id": "COOP:451385",
            "elevationUnit": "METERS",
            "longitude": -119.06667
        },
        {
            "elevation": 509,
            "mindate": "1925-09-01",
            "maxdate": "2015-11-01",
            "latitude": 48.2733,
            "name": "CHEWELAH, WA US",
            "datacoverage": 0.9881,
            "id": "COOP:451395",
            "elevationUnit": "METERS",
            "longitude": -117.7409
        },
        {
            "elevation": 254.2,
            "mindate": "1949-10-01",
            "maxdate": "2015-11-01",
            "latitude": 47.9967,
            "name": "CHIEF JOSEPH DAM, WA US",
            "datacoverage": 0.9925,
            "id": "COOP:451400",
            "elevationUnit": "METERS",
            "longitude": -119.6482
        },
        {
            "elevation": 42.7,
            "mindate": "1926-10-01",
            "maxdate": "2015-11-01",
            "latitude": 47.9522,
            "name": "CHIMACUM 4 S, WA US",
            "datacoverage": 0.9963,
            "id": "COOP:451414",
            "elevationUnit": "METERS",
            "longitude": -122.7908
        },
        {
            "elevation": 317,
            "mindate": "1948-07-04",
            "maxdate": "2014-01-01",
            "latitude": 46.6052,
            "name": "CINEBAR 2 E, WA US",
            "datacoverage": 0.0611,
            "id": "COOP:451457",
            "elevationUnit": "METERS",
            "longitude": -122.4963
        },
        {
            "elevation": 19.5,
            "mindate": "1919-01-01",
            "maxdate": "2015-11-01",
            "latitude": 48.9672,
            "name": "CLEARBROOK, WA US",
            "datacoverage": 0.9966,
            "id": "COOP:451484",
            "elevationUnit": "METERS",
            "longitude": -122.3291
        },
        {
            "elevation": 24.4,
            "mindate": "1896-02-01",
            "maxdate": "2015-11-01",
            "latitude": 47.5711,
            "name": "CLEARWATER, WA US",
            "datacoverage": 0.8498,
            "id": "COOP:451496",
            "elevationUnit": "METERS",
            "longitude": -124.2922
        },
        {
            "elevation": 579.1,
            "mindate": "1919-01-01",
            "maxdate": "2015-11-01",
            "latitude": 47.189,
            "name": "CLE ELUM, WA US",
            "datacoverage": 0.914,
            "id": "COOP:451504",
            "elevationUnit": "METERS",
            "longitude": -120.913
        },
        {
            "elevation": 603.5,
            "mindate": "1919-01-01",
            "maxdate": "1994-05-01",
            "latitude": 46.88333,
            "name": "COLFAX, WA US",
            "datacoverage": 0.9757,
            "id": "COOP:451586",
            "elevationUnit": "METERS",
            "longitude": -117.35
        },
        {
            "elevation": 473.7,
            "mindate": "1919-01-01",
            "maxdate": "2015-11-01",
            "latitude": 48.56784,
            "name": "COLVILLE, WA US",
            "datacoverage": 0.5572,
            "id": "COOP:451630",
            "elevationUnit": "METERS",
            "longitude": -117.93545
        },
        {
            "elevation": 574.5,
            "mindate": "1937-03-01",
            "maxdate": "1988-03-01",
            "latitude": 48.55,
            "name": "COLVILLE AIRPORT, WA US",
            "datacoverage": 0.9737,
            "id": "COOP:451650",
            "elevationUnit": "METERS",
            "longitude": -117.88333
        },
        {
            "elevation": 505.1,
            "mindate": "1988-04-01",
            "maxdate": "1993-02-21",
            "latitude": 48.55,
            "name": "COLVILLE BASIC, WA US",
            "datacoverage": 1,
            "id": "COOP:451654",
            "elevationUnit": "METERS",
            "longitude": -117.9
        },
        {
            "elevation": 703.8,
            "mindate": "1919-01-01",
            "maxdate": "2015-11-01",
            "latitude": 48.5557,
            "name": "CONCONULLY, WA US",
            "datacoverage": 0.9011,
            "id": "COOP:451666",
            "elevationUnit": "METERS",
            "longitude": -119.7492
        },
        {
            "elevation": 59.4,
            "mindate": "1925-01-01",
            "maxdate": "2015-11-01",
            "latitude": 48.5397,
            "name": "CONCRETE PPL FISH STATION, WA US",
            "datacoverage": 0.9945,
            "id": "COOP:451679",
            "elevationUnit": "METERS",
            "longitude": -121.7422
        },
        {
            "elevation": 310.9,
            "mindate": "1960-06-01",
            "maxdate": "2003-07-01",
            "latitude": 46.66444,
            "name": "CONNELL 1 W, WA US",
            "datacoverage": 1,
            "id": "COOP:451690",
            "elevationUnit": "METERS",
            "longitude": -118.88278
        },
        {
            "elevation": 328.6,
            "mindate": "1951-09-01",
            "maxdate": "2014-12-01",
            "latitude": 46.5086,
            "name": "CONNELL 12 SE, WA US",
            "datacoverage": 0.9592,
            "id": "COOP:451691",
            "elevationUnit": "METERS",
            "longitude": -118.7878
        },
        {
            "elevation": 164.6,
            "mindate": "1982-10-01",
            "maxdate": "1989-04-01",
            "latitude": 46.0858,
            "name": "COUGAR, WA US",
            "datacoverage": 0.131,
            "id": "COOP:451750",
            "elevationUnit": "METERS",
            "longitude": -122.31
        },
        {
            "elevation": 158.5,
            "mindate": "1948-07-01",
            "maxdate": "2014-01-01",
            "latitude": 46.0086,
            "name": "COUGAR 4 SW, WA US",
            "datacoverage": 0.1176,
            "id": "COOP:451759",
            "elevationUnit": "METERS",
            "longitude": -122.3455
        },
        {
            "elevation": 200.9,
            "mindate": "1953-07-01",
            "maxdate": "2015-11-01",
            "latitude": 46.0625,
            "name": "COUGAR 6 E, WA US",
            "datacoverage": 0.9185,
            "id": "COOP:451760",
            "elevationUnit": "METERS",
            "longitude": -122.2044
        },
        {
            "elevation": 524,
            "mindate": "1942-08-01",
            "maxdate": "2015-11-01",
            "latitude": 47.9545,
            "name": "COULEE DAM 1 SW, WA US",
            "datacoverage": 0.9841,
            "id": "COOP:451767",
            "elevationUnit": "METERS",
            "longitude": -118.9997
        },
        {
            "elevation": 15.2,
            "mindate": "1919-01-01",
            "maxdate": "2015-11-01",
            "latitude": 48.2072,
            "name": "COUPEVILLE 1 S, WA US",
            "datacoverage": 0.9837,
            "id": "COOP:451783",
            "elevationUnit": "METERS",
            "longitude": -122.6913
        },
        {
            "elevation": 231.6,
            "mindate": "1926-01-01",
            "maxdate": "2014-01-01",
            "latitude": 47.4238,
            "name": "CUSHMAN DAM, WA US",
            "datacoverage": 0.9983,
            "id": "COOP:451934",
            "elevationUnit": "METERS",
            "longitude": -123.2197
        },
        {
            "elevation": 6.4,
            "mindate": "1973-06-01",
            "maxdate": "2015-11-01",
            "latitude": 47.3705,
            "name": "CUSHMAN POWERHOUSE NUMBER 2, WA US",
            "datacoverage": 0.9961,
            "id": "COOP:451939",
            "elevationUnit": "METERS",
            "longitude": -123.16
        },
        {
            "elevation": 71.6,
            "mindate": "1941-01-01",
            "maxdate": "2015-11-01",
            "latitude": 45.6194,
            "name": "DALLESPORT AIRPORT, WA US",
            "datacoverage": 0.9967,
            "id": "COOP:451968",
            "elevationUnit": "METERS",
            "longitude": -121.1661
        },
        {
            "elevation": 586.1,
            "mindate": "1948-01-01",
            "maxdate": "1980-12-01",
            "latitude": 45.75,
            "name": "DALLESPORT 9 N, WA US",
            "datacoverage": 0.9974,
            "id": "COOP:451972",
            "elevationUnit": "METERS",
            "longitude": -121.15
        },
        {
            "elevation": 167.6,
            "mindate": "1919-01-01",
            "maxdate": "2015-11-01",
            "latitude": 48.26,
            "name": "DARRINGTON RANGER STATION, WA US",
            "datacoverage": 0.9252,
            "id": "COOP:451992",
            "elevationUnit": "METERS",
            "longitude": -121.6036
        },
        {
            "elevation": 722.1,
            "mindate": "1919-01-01",
            "maxdate": "2015-11-01",
            "latitude": 47.6575,
            "name": "DAVENPORT, WA US",
            "datacoverage": 0.9871,
            "id": "COOP:452007",
            "elevationUnit": "METERS",
            "longitude": -118.1615
        },
        {
            "elevation": 474.6,
            "mindate": "1919-01-01",
            "maxdate": "2015-11-01",
            "latitude": 46.3152,
            "name": "DAYTON 1 WSW, WA US",
            "datacoverage": 0.9768,
            "id": "COOP:452030",
            "elevationUnit": "METERS",
            "longitude": -118.0022
        },
        {
            "elevation": 714.1,
            "mindate": "1948-07-03",
            "maxdate": "1977-08-18",
            "latitude": 46.21667,
            "name": "DAYTON 9 SE, WA US",
            "datacoverage": 0.0703,
            "id": "COOP:452037",
            "elevationUnit": "METERS",
            "longitude": -117.85
        },
        {
            "elevation": 667.8,
            "mindate": "2007-02-01",
            "maxdate": "2015-11-01",
            "latitude": 47.9742,
            "name": "DEER PARK AIRPORT, WA US",
            "datacoverage": 0.5757,
            "id": "COOP:452064",
            "elevationUnit": "METERS",
            "longitude": -117.4292
        },
        {
            "elevation": 670.9,
            "mindate": "1919-01-01",
            "maxdate": "1977-03-01",
            "latitude": 47.96667,
            "name": "DEER PARK AIRPORT, WA US",
            "datacoverage": 0.9815,
            "id": "COOP:452066",
            "elevationUnit": "METERS",
            "longitude": -117.43333
        },
        {
            "elevation": 271.6,
            "mindate": "1928-08-01",
            "maxdate": "2015-11-01",
            "latitude": 48.7141,
            "name": "DIABLO DAM, WA US",
            "datacoverage": 0.9733,
            "id": "COOP:452157",
            "elevationUnit": "METERS",
            "longitude": -121.143
        },
        {
            "elevation": 1064.1,
            "mindate": "1953-09-01",
            "maxdate": "1978-12-01",
            "latitude": 48.43333,
            "name": "DISAUTEL 9 NE, WA US",
            "datacoverage": 1,
            "id": "COOP:452175",
            "elevationUnit": "METERS",
            "longitude": -119.1
        },
        {
            "elevation": 685.8,
            "mindate": "1948-07-06",
            "maxdate": "2007-09-01",
            "latitude": 46.0913,
            "name": "DIXIE 4 SE, WA US",
            "datacoverage": 0.0397,
            "id": "COOP:452197",
            "elevationUnit": "METERS",
            "longitude": -118.1005
        },
        {
            "elevation": 79.2,
            "mindate": "1978-01-01",
            "maxdate": "2007-03-01",
            "latitude": 46.62972,
            "name": "DOTY 3 E, WA US",
            "datacoverage": 0.9203,
            "id": "COOP:452220",
            "elevationUnit": "METERS",
            "longitude": -123.21056
        },
        {
            "elevation": 92,
            "mindate": "1963-06-01",
            "maxdate": "2015-11-01",
            "latitude": 46.6363,
            "name": "DRYAD, WA US",
            "datacoverage": 0.3603,
            "id": "COOP:452253",
            "elevationUnit": "METERS",
            "longitude": -123.2597
        },
        {
            "elevation": 661.4,
            "mindate": "1948-07-01",
            "maxdate": "2015-11-01",
            "latitude": 47.2422,
            "name": "EASTON, WA US",
            "datacoverage": 0.2466,
            "id": "COOP:452384",
            "elevationUnit": "METERS",
            "longitude": -121.1869
        },
        {
            "elevation": 527.3,
            "mindate": "1943-10-01",
            "maxdate": "1980-07-14",
            "latitude": 46.9,
            "name": "ELECTRON HEADWORKS, WA US",
            "datacoverage": 1,
            "id": "COOP:452493",
            "elevationUnit": "METERS",
            "longitude": -122.03333
        },
        {
            "elevation": 1365.5,
            "mindate": "1982-10-01",
            "maxdate": "1989-11-01",
            "latitude": 46.13333,
            "name": "ELK MOUNTAIN, WA US",
            "datacoverage": 0.0928,
            "id": "COOP:452500",
            "elevationUnit": "METERS",
            "longitude": -122.46667
        },
        {
            "elevation": 451.1,
            "mindate": "1931-01-01",
            "maxdate": "2015-11-01",
            "latitude": 46.9692,
            "name": "ELLENSBURG, WA US",
            "datacoverage": 0.8175,
            "id": "COOP:452505",
            "elevationUnit": "METERS",
            "longitude": -120.54
        },
        {
            "elevation": 519.7,
            "mindate": "1999-01-01",
            "maxdate": "2015-11-01",
            "latitude": 47.0294,
            "name": "ELLENSBURG NUMBER 2, WA US",
            "datacoverage": 0.9607,
            "id": "COOP:452507",
            "elevationUnit": "METERS",
            "longitude": -120.5386
        },
        {
            "elevation": 21.3,
            "mindate": "1940-02-01",
            "maxdate": "2015-11-01",
            "latitude": 47.0091,
            "name": "ELMA, WA US",
            "datacoverage": 0.9923,
            "id": "COOP:452531",
            "elevationUnit": "METERS",
            "longitude": -123.4008
        },
        {
            "elevation": 272.8,
            "mindate": "1954-05-01",
            "maxdate": "1973-10-01",
            "latitude": 46.48333,
            "name": "ELTOPIA 7 WNW, WA US",
            "datacoverage": 0.9699,
            "id": "COOP:452540",
            "elevationUnit": "METERS",
            "longitude": -119.16667
        },
        {
            "elevation": 213.4,
            "mindate": "1974-01-01",
            "maxdate": "2007-01-01",
            "latitude": 46.3992,
            "name": "ELTOPIA 8 WSW, WA US",
            "datacoverage": 0.9949,
            "id": "COOP:452542",
            "elevationUnit": "METERS",
            "longitude": -119.1561
        },
        {
            "elevation": 109.7,
            "mindate": "1942-07-01",
            "maxdate": "2015-11-01",
            "latitude": 48.0163,
            "name": "ELWHA R S, WA US",
            "datacoverage": 0.9886,
            "id": "COOP:452548",
            "elevationUnit": "METERS",
            "longitude": -123.5905
        },
        {
            "elevation": 313,
            "mindate": "1989-07-01",
            "maxdate": "2015-11-01",
            "latitude": 47.6983,
            "name": "ENTIAT FISH HATCHERY, WA US",
            "datacoverage": 0.9968,
            "id": "COOP:452563",
            "elevationUnit": "METERS",
            "longitude": -120.3228
        },
        {
            "elevation": 415.1,
            "mindate": "1920-07-01",
            "maxdate": "1971-03-01",
            "latitude": 47.31667,
            "name": "EPHRATA, WA US",
            "datacoverage": 0.9623,
            "id": "COOP:452609",
            "elevationUnit": "METERS",
            "longitude": -119.56667
        },
        {
            "elevation": 381.6,
            "mindate": "1948-07-07",
            "maxdate": "2015-11-01",
            "latitude": 47.3078,
            "name": "EPHRATA AIRPORT, WA US",
            "datacoverage": 0.9852,
            "id": "COOP:452614",
            "elevationUnit": "METERS",
            "longitude": -119.5154
        },
        {
            "elevation": 18.3,
            "mindate": "1919-01-01",
            "maxdate": "2015-11-01",
            "latitude": 47.9752,
            "name": "EVERETT, WA US",
            "datacoverage": 0.9966,
            "id": "COOP:452675",
            "elevationUnit": "METERS",
            "longitude": -122.195
        },
        {
            "elevation": 524.9,
            "mindate": "1940-01-01",
            "maxdate": "1973-12-01",
            "latitude": 47.11667,
            "name": "EWAN, WA US",
            "datacoverage": 0.9313,
            "id": "COOP:452706",
            "elevationUnit": "METERS",
            "longitude": -117.73333
        },
        {
            "elevation": 106.7,
            "mindate": "1908-01-01",
            "maxdate": "2015-11-01",
            "latitude": 47.9558,
            "name": "FORKS 1 E, WA US",
            "datacoverage": 0.9676,
            "id": "COOP:452914",
            "elevationUnit": "METERS",
            "longitude": -124.3539
        },
        {
            "elevation": 91.1,
            "mindate": "2000-01-01",
            "maxdate": "2011-12-01",
            "latitude": 47.088,
            "name": "FORT LEWIS GOLF COURSE, WA US",
            "datacoverage": 0.7014,
            "id": "COOP:452952",
            "elevationUnit": "METERS",
            "longitude": -122.6675
        },
        {
            "elevation": 70.7,
            "mindate": "1948-07-04",
            "maxdate": "2014-01-01",
            "latitude": 46.5416,
            "name": "FRANCES, WA US",
            "datacoverage": 0.0842,
            "id": "COOP:452984",
            "elevationUnit": "METERS",
            "longitude": -123.4923
        },
        {
            "elevation": 285,
            "mindate": "1919-01-01",
            "maxdate": "2014-01-01",
            "latitude": 48.8877,
            "name": "GLACIER RANGER STATION, WA US",
            "datacoverage": 0.7033,
            "id": "COOP:453160",
            "elevationUnit": "METERS",
            "longitude": -121.9372
        },
        {
            "elevation": 256,
            "mindate": "1966-03-01",
            "maxdate": "2004-05-01",
            "latitude": 46.51861,
            "name": "GLENOMA, WA US",
            "datacoverage": 0.9672,
            "id": "COOP:453177",
            "elevationUnit": "METERS",
            "longitude": -122.13833
        },
        {
            "elevation": 566.9,
            "mindate": "1948-07-01",
            "maxdate": "2014-01-01",
            "latitude": 46.008,
            "name": "GLENWOOD, WA US",
            "datacoverage": 0.0544,
            "id": "COOP:453183",
            "elevationUnit": "METERS",
            "longitude": -121.2623
        },
        {
            "elevation": 579.7,
            "mindate": "1979-08-01",
            "maxdate": "2013-12-01",
            "latitude": 46.0089,
            "name": "GLENWOOD NUMBER 2, WA US",
            "datacoverage": 0.9394,
            "id": "COOP:453184",
            "elevationUnit": "METERS",
            "longitude": -121.2634
        },
        {
            "elevation": 499.9,
            "mindate": "1919-01-01",
            "maxdate": "2015-11-01",
            "latitude": 45.8081,
            "name": "GOLDENDALE, WA US",
            "datacoverage": 0.73,
            "id": "COOP:453222",
            "elevationUnit": "METERS",
            "longitude": -120.8428
        },
        {
            "elevation": 518.2,
            "mindate": "1972-03-01",
            "maxdate": "1995-02-01",
            "latitude": 45.81667,
            "name": "GOLDENDALE, WA US",
            "datacoverage": 0.982,
            "id": "COOP:453226",
            "elevationUnit": "METERS",
            "longitude": -120.81667
        },
        {
            "elevation": 15.5,
            "mindate": "1919-01-01",
            "maxdate": "1995-06-01",
            "latitude": 47.306667,
            "name": "GRAPEVIEW 3 SW, WA US",
            "datacoverage": 0.9859,
            "id": "COOP:453284",
            "elevationUnit": "METERS",
            "longitude": -122.873611
        },
        {
            "elevation": 3,
            "mindate": "1948-02-01",
            "maxdate": "2015-11-01",
            "latitude": 46.8008,
            "name": "GRAYLAND, WA US",
            "datacoverage": 0.8993,
            "id": "COOP:453320",
            "elevationUnit": "METERS",
            "longitude": -124.0863
        },
        {
            "elevation": 15.2,
            "mindate": "1954-08-01",
            "maxdate": "1991-05-01",
            "latitude": 46.36667,
            "name": "GRAYS RIVER, WA US",
            "datacoverage": 0.1425,
            "id": "COOP:453329",
            "elevationUnit": "METERS",
            "longitude": -123.56667
        },
        {
            "elevation": 30.5,
            "mindate": "1962-03-01",
            "maxdate": "2015-11-01",
            "latitude": 46.3872,
            "name": "GRAYS RIVER HATCHERY, WA US",
            "datacoverage": 0.9799,
            "id": "COOP:453333",
            "elevationUnit": "METERS",
            "longitude": -123.5602
        },
        {
            "elevation": 527.3,
            "mindate": "1939-02-01",
            "maxdate": "1999-01-01",
            "latitude": 47.13333,
            "name": "GREENWATER, WA US",
            "datacoverage": 0.9667,
            "id": "COOP:453357",
            "elevationUnit": "METERS",
            "longitude": -121.63333
        },
        {
            "elevation": 661.4,
            "mindate": "1919-01-01",
            "maxdate": "1982-07-01",
            "latitude": 47.41667,
            "name": "HARRINGTON 5 S, WA US",
            "datacoverage": 0.983,
            "id": "COOP:453502",
            "elevationUnit": "METERS",
            "longitude": -118.25
        },
        {
            "elevation": 658.1,
            "mindate": "1961-11-01",
            "maxdate": "2015-11-01",
            "latitude": 47.4829,
            "name": "HARRINGTON, WA US",
            "datacoverage": 0.9954,
            "id": "COOP:453515",
            "elevationUnit": "METERS",
            "longitude": -118.2519
        },
        {
            "elevation": 580.9,
            "mindate": "1927-01-01",
            "maxdate": "2005-05-01",
            "latitude": 47.68914,
            "name": "HARTLINE, WA US",
            "datacoverage": 0.9224,
            "id": "COOP:453529",
            "elevationUnit": "METERS",
            "longitude": -119.10635
        },
        {
            "elevation": 458.7,
            "mindate": "1919-01-01",
            "maxdate": "2015-11-01",
            "latitude": 46.7225,
            "name": "HATTON 9 SE, WA US",
            "datacoverage": 0.9682,
            "id": "COOP:453546",
            "elevationUnit": "METERS",
            "longitude": -118.6524
        },
        {
            "elevation": 174.3,
            "mindate": "2004-08-01",
            "maxdate": "2015-11-01",
            "latitude": 47.8611,
            "name": "HOH RANGER STATION, WA US",
            "datacoverage": 0.9413,
            "id": "COOP:453710",
            "elevationUnit": "METERS",
            "longitude": -123.9319
        },
        {
            "elevation": 980.8,
            "mindate": "1962-06-01",
            "maxdate": "2015-11-01",
            "latitude": 48.1989,
            "name": "HOLDEN VILLAGE, WA US",
            "datacoverage": 0.972,
            "id": "COOP:453730",
            "elevationUnit": "METERS",
            "longitude": -120.7735
        },
        {
            "elevation": 3.7,
            "mindate": "1953-05-01",
            "maxdate": "2015-11-01",
            "latitude": 46.9727,
            "name": "HOQUIAM BOWERMAN AIRPORT, WA US",
            "datacoverage": 0.9827,
            "id": "COOP:453807",
            "elevationUnit": "METERS",
            "longitude": -123.9302
        },
        {
            "elevation": 42.7,
            "mindate": "1987-07-01",
            "maxdate": "2015-11-01",
            "latitude": 47.2336,
            "name": "HUMPTULIPS SALMON HATCHERY, WA US",
            "datacoverage": 0.9911,
            "id": "COOP:453826",
            "elevationUnit": "METERS",
            "longitude": -123.9897
        },
        {
            "elevation": 112.2,
            "mindate": "1957-03-01",
            "maxdate": "2015-11-01",
            "latitude": 46.2447,
            "name": "ICE HARBOR DAM, WA US",
            "datacoverage": 0.983,
            "id": "COOP:453883",
            "elevationUnit": "METERS",
            "longitude": -118.8786
        },
        {
            "elevation": 515.1,
            "mindate": "1953-05-01",
            "maxdate": "1975-09-01",
            "latitude": 48.31667,
            "name": "INCHELIUM 2 NW, WA US",
            "datacoverage": 0.9665,
            "id": "COOP:453903",
            "elevationUnit": "METERS",
            "longitude": -118.21667
        },
        {
            "elevation": 60,
            "mindate": "2007-11-01",
            "maxdate": "2012-12-01",
            "latitude": 46.9847,
            "name": "INDIAN SUMMER GOLF COURSE, WA US",
            "datacoverage": 0.9834,
            "id": "COOP:453915",
            "elevationUnit": "METERS",
            "longitude": -122.8311
        },
        {
            "elevation": 823,
            "mindate": "1919-01-01",
            "maxdate": "1988-08-01",
            "latitude": 48.81667,
            "name": "IRENE MOUNTAIN WAUCONDA, WA US",
            "datacoverage": 0.9892,
            "id": "COOP:453975",
            "elevationUnit": "METERS",
            "longitude": -118.9
        },
        {
            "elevation": 57.9,
            "mindate": "1958-11-01",
            "maxdate": "1972-09-01",
            "latitude": 45.71667,
            "name": "JOHN DAY DAM, WA US",
            "datacoverage": 0.9998,
            "id": "COOP:454035",
            "elevationUnit": "METERS",
            "longitude": -120.7
        },
        {
            "elevation": 266.7,
            "mindate": "1999-03-01",
            "maxdate": "2001-04-01",
            "latitude": 46.64278,
            "name": "KAHLOTUS 1 W, WA US",
            "datacoverage": 0.8455,
            "id": "COOP:454074",
            "elevationUnit": "METERS",
            "longitude": -118.56833
        },
        {
            "elevation": 473,
            "mindate": "1919-01-01",
            "maxdate": "1996-02-01",
            "latitude": 46.58333,
            "name": "KAHLOTUS 5 SSW, WA US",
            "datacoverage": 0.9839,
            "id": "COOP:454077",
            "elevationUnit": "METERS",
            "longitude": -118.6
        },
        {
            "elevation": 94.5,
            "mindate": "1967-11-01",
            "maxdate": "2015-11-01",
            "latitude": 46.0163,
            "name": "KALAMA FALLS HATCHERY, WA US",
            "datacoverage": 0.9879,
            "id": "COOP:454084",
            "elevationUnit": "METERS",
            "longitude": -122.7325
        },
        {
            "elevation": 118.9,
            "mindate": "1919-01-01",
            "maxdate": "2015-11-01",
            "latitude": 46.2111,
            "name": "KENNEWICK, WA US",
            "datacoverage": 0.9957,
            "id": "COOP:454154",
            "elevationUnit": "METERS",
            "longitude": -119.1011
        },
        {
            "elevation": 458.1,
            "mindate": "1949-12-01",
            "maxdate": "1974-09-01",
            "latitude": 46.13333,
            "name": "KENNEWICK 10 SW, WA US",
            "datacoverage": 0.9967,
            "id": "COOP:454159",
            "elevationUnit": "METERS",
            "longitude": -119.3
        },
        {
            "elevation": 9.1,
            "mindate": "1919-01-01",
            "maxdate": "2015-11-01",
            "latitude": 47.4172,
            "name": "KENT, WA US",
            "datacoverage": 0.9218,
            "id": "COOP:454169",
            "elevationUnit": "METERS",
            "longitude": -122.2433
        },
        {
            "elevation": 210.3,
            "mindate": "1937-06-01",
            "maxdate": "1980-04-01",
            "latitude": 46.36667,
            "name": "KID VALLEY, WA US",
            "datacoverage": 0.9942,
            "id": "COOP:454201",
            "elevationUnit": "METERS",
            "longitude": -122.61667
        },
        {
            "elevation": 449.9,
            "mindate": "1931-01-01",
            "maxdate": "2015-11-01",
            "latitude": 46.8167,
            "name": "LACROSSE, WA US",
            "datacoverage": 0.9981,
            "id": "COOP:454338",
            "elevationUnit": "METERS",
            "longitude": -117.883
        },
        {
            "elevation": 292.6,
            "mindate": "1954-02-01",
            "maxdate": "1983-04-01",
            "latitude": 46.83333,
            "name": "LA GRANDE, WA US",
            "datacoverage": 0.9974,
            "id": "COOP:454360",
            "elevationUnit": "METERS",
            "longitude": -122.31667
        },
        {
            "elevation": 688.8,
            "mindate": "1919-01-01",
            "maxdate": "1977-08-01",
            "latitude": 47.25,
            "name": "LAKE CLE ELUM, WA US",
            "datacoverage": 0.9986,
            "id": "COOP:454394",
            "elevationUnit": "METERS",
            "longitude": -121.06667
        },
        {
            "elevation": 691.9,
            "mindate": "1919-01-01",
            "maxdate": "1977-08-01",
            "latitude": 47.26667,
            "name": "LAKE KACHESS, WA US",
            "datacoverage": 0.9958,
            "id": "COOP:454406",
            "elevationUnit": "METERS",
            "longitude": -121.2
        },
        {
            "elevation": 755.9,
            "mindate": "1919-01-01",
            "maxdate": "1977-08-01",
            "latitude": 47.31667,
            "name": "LAKE KEECHELUS, WA US",
            "datacoverage": 1,
            "id": "COOP:454414",
            "elevationUnit": "METERS",
            "longitude": -121.33333
        },
        {
            "elevation": 174,
            "mindate": "1929-01-01",
            "maxdate": "1976-06-01",
            "latitude": 48.08333,
            "name": "LAKE SUTHERLAND, WA US",
            "datacoverage": 0.8579,
            "id": "COOP:454438",
            "elevationUnit": "METERS",
            "longitude": -123.7
        },
        {
            "elevation": 623.6,
            "mindate": "1919-01-01",
            "maxdate": "2014-01-01",
            "latitude": 47.8374,
            "name": "LAKE WENATCHEE, WA US",
            "datacoverage": 0.9645,
            "id": "COOP:454446",
            "elevationUnit": "METERS",
            "longitude": -120.7977
        },
        {
            "elevation": 163.1,
            "mindate": "1919-01-01",
            "maxdate": "2015-11-01",
            "latitude": 47.3766,
            "name": "LANDSBURG, WA US",
            "datacoverage": 0.9854,
            "id": "COOP:454486",
            "elevationUnit": "METERS",
            "longitude": -121.9613
        },
        {
            "elevation": 501.1,
            "mindate": "1919-01-01",
            "maxdate": "1986-10-01",
            "latitude": 49,
            "name": "LAURIER, WA US",
            "datacoverage": 0.9988,
            "id": "COOP:454549",
            "elevationUnit": "METERS",
            "longitude": -118.23333
        },
        {
            "elevation": 343.8,
            "mindate": "1919-01-01",
            "maxdate": "2015-11-01",
            "latitude": 47.5586,
            "name": "LEAVENWORTH 3 S, WA US",
            "datacoverage": 0.9673,
            "id": "COOP:454572",
            "elevationUnit": "METERS",
            "longitude": -120.675
        },
        {
            "elevation": 497.1,
            "mindate": "1960-07-01",
            "maxdate": "1974-12-01",
            "latitude": 47.2,
            "name": "LESTER, WA US",
            "datacoverage": 0.1257,
            "id": "COOP:454634",
            "elevationUnit": "METERS",
            "longitude": -121.48333
        },
        {
            "elevation": 496.8,
            "mindate": "1920-01-01",
            "maxdate": "2015-11-01",
            "latitude": 47.0022,
            "name": "LIND 3 NE, WA US",
            "datacoverage": 0.9983,
            "id": "COOP:454679",
            "elevationUnit": "METERS",
            "longitude": -118.5657
        },
        {
            "elevation": 214,
            "mindate": "1963-10-01",
            "maxdate": "1979-06-01",
            "latitude": 46.58333,
            "name": "LITTLE GOOSE DAM, WA US",
            "datacoverage": 0.9843,
            "id": "COOP:454702",
            "elevationUnit": "METERS",
            "longitude": -118.03333
        },
        {
            "elevation": 1127.8,
            "mindate": "1982-10-01",
            "maxdate": "1989-04-01",
            "latitude": 45.78611,
            "name": "LOOKOUT MOUNTAIN 3 W, WA US",
            "datacoverage": 0.0857,
            "id": "COOP:454725",
            "elevationUnit": "METERS",
            "longitude": -122.16444
        },
        {
            "elevation": 7.6,
            "mindate": "1967-08-01",
            "maxdate": "2015-11-01",
            "latitude": 46.3675,
            "name": "LONG BEACH EXPERIMENT STATION, WA US",
            "datacoverage": 0.9983,
            "id": "COOP:454748",
            "elevationUnit": "METERS",
            "longitude": -124.0377
        },
        {
            "elevation": 841.9,
            "mindate": "1978-10-01",
            "maxdate": "2015-11-01",
            "latitude": 46.7491,
            "name": "LONGMIRE RAINIER NPS, WA US",
            "datacoverage": 0.9955,
            "id": "COOP:454764",
            "elevationUnit": "METERS",
            "longitude": -121.8119
        },
        {
            "elevation": 3.7,
            "mindate": "1925-01-01",
            "maxdate": "2015-11-01",
            "latitude": 46.1505,
            "name": "LONGVIEW, WA US",
            "datacoverage": 0.9771,
            "id": "COOP:454769",
            "elevationUnit": "METERS",
            "longitude": -122.9163
        },
        {
            "elevation": 195.1,
            "mindate": "1965-12-01",
            "maxdate": "1975-12-01",
            "latitude": 46.65,
            "name": "LOWER GRANITE DAM, WA US",
            "datacoverage": 1,
            "id": "COOP:454835",
            "elevationUnit": "METERS",
            "longitude": -117.43333
        },
        {
            "elevation": 140.2,
            "mindate": "1962-10-01",
            "maxdate": "2007-02-01",
            "latitude": 46.5642,
            "name": "LOWER MONUMENTAL DAM, WA US",
            "datacoverage": 0.4147,
            "id": "COOP:454841",
            "elevationUnit": "METERS",
            "longitude": -118.5397
        },
        {
            "elevation": 365.8,
            "mindate": "1948-08-01",
            "maxdate": "1989-04-01",
            "latitude": 48.23333,
            "name": "LUCERNE 1 N, WA US",
            "datacoverage": 0.0768,
            "id": "COOP:454849",
            "elevationUnit": "METERS",
            "longitude": -120.6
        },
        {
            "elevation": 691.9,
            "mindate": "1922-08-01",
            "maxdate": "1986-10-01",
            "latitude": 47.81667,
            "name": "MANSFIELD, WA US",
            "datacoverage": 0.8806,
            "id": "COOP:454971",
            "elevationUnit": "METERS",
            "longitude": -119.63333
        },
        {
            "elevation": 762.9,
            "mindate": "1979-01-01",
            "maxdate": "1986-05-01",
            "latitude": 47.81667,
            "name": "MANSFIELD 7 W, WA US",
            "datacoverage": 0.8767,
            "id": "COOP:454975",
            "elevationUnit": "METERS",
            "longitude": -119.8
        },
        {
            "elevation": 106.1,
            "mindate": "1948-07-06",
            "maxdate": "2014-01-01",
            "latitude": 48.538,
            "name": "MARBLEMOUNT RANGER STATION, WA US",
            "datacoverage": 0.0951,
            "id": "COOP:454999",
            "elevationUnit": "METERS",
            "longitude": -121.4502
        },
        {
            "elevation": 103.9,
            "mindate": "1959-04-01",
            "maxdate": "1985-01-01",
            "latitude": 47.23333,
            "name": "MATLOCK 3 W, WA US",
            "datacoverage": 0.9707,
            "id": "COOP:455080",
            "elevationUnit": "METERS",
            "longitude": -123.48333
        },
        {
            "elevation": 33.5,
            "mindate": "1985-10-01",
            "maxdate": "2015-11-01",
            "latitude": 47.1455,
            "name": "MATLOCK 8 S, WA US",
            "datacoverage": 1,
            "id": "COOP:455086",
            "elevationUnit": "METERS",
            "longitude": -123.4005
        },
        {
            "elevation": 85.3,
            "mindate": "1980-01-01",
            "maxdate": "2015-11-01",
            "latitude": 46.5044,
            "name": "MAYFIELD POWER PLANT, WA US",
            "datacoverage": 0.9931,
            "id": "COOP:455110",
            "elevationUnit": "METERS",
            "longitude": -122.5938
        },
        {
            "elevation": 598,
            "mindate": "1936-03-01",
            "maxdate": "1976-10-01",
            "latitude": 48.53333,
            "name": "MAZAMA 6 SE, WA US",
            "datacoverage": 0.9999,
            "id": "COOP:455128",
            "elevationUnit": "METERS",
            "longitude": -120.33333
        },
        {
            "elevation": 652.6,
            "mindate": "1936-03-01",
            "maxdate": "2015-11-01",
            "latitude": 48.6007,
            "name": "MAZAMA, WA US",
            "datacoverage": 0.7346,
            "id": "COOP:455133",
            "elevationUnit": "METERS",
            "longitude": -120.4276
        },
        {
            "elevation": 88.1,
            "mindate": "1948-07-04",
            "maxdate": "1978-12-27",
            "latitude": 47.15,
            "name": "MCCORD AFB, WA US",
            "datacoverage": 0.0825,
            "id": "COOP:455149",
            "elevationUnit": "METERS",
            "longitude": -122.48333
        },
        {
            "elevation": 176.5,
            "mindate": "1941-03-01",
            "maxdate": "2015-11-01",
            "latitude": 47.1358,
            "name": "MCMILLIN RESERVOIR, WA US",
            "datacoverage": 0.9955,
            "id": "COOP:455224",
            "elevationUnit": "METERS",
            "longitude": -122.2558
        },
        {
            "elevation": 110,
            "mindate": "1954-10-01",
            "maxdate": "2008-10-01",
            "latitude": 45.94056,
            "name": "MCNARY DAM, WA US",
            "datacoverage": 0.9922,
            "id": "COOP:455231",
            "elevationUnit": "METERS",
            "longitude": -119.29778
        },
        {
            "elevation": 68.3,
            "mindate": "1971-01-01",
            "maxdate": "2015-11-01",
            "latitude": 45.9547,
            "name": "MERWIN DAM, WA US",
            "datacoverage": 0.9815,
            "id": "COOP:455305",
            "elevationUnit": "METERS",
            "longitude": -122.5638
        },
        {
            "elevation": 345.9,
            "mindate": "1970-01-01",
            "maxdate": "2015-11-01",
            "latitude": 48.1074,
            "name": "METHOW 2 S, WA US",
            "datacoverage": 0.9783,
            "id": "COOP:455326",
            "elevationUnit": "METERS",
            "longitude": -120.0078
        },
        {
            "elevation": 355.1,
            "mindate": "1969-05-01",
            "maxdate": "1979-09-03",
            "latitude": 48.13333,
            "name": "METHOW, WA US",
            "datacoverage": 0.0354,
            "id": "COOP:455327",
            "elevationUnit": "METERS",
            "longitude": -120.01667
        },
        {
            "elevation": 609.9,
            "mindate": "1919-01-01",
            "maxdate": "1973-09-01",
            "latitude": 46.01667,
            "name": "MILL CREEK, WA US",
            "datacoverage": 0.9894,
            "id": "COOP:455377",
            "elevationUnit": "METERS",
            "longitude": -118.11667
        },
        {
            "elevation": 359.1,
            "mindate": "1948-01-01",
            "maxdate": "2015-11-01",
            "latitude": 46.07587,
            "name": "MILL CREEK DAM, WA US",
            "datacoverage": 0.9902,
            "id": "COOP:455387",
            "elevationUnit": "METERS",
            "longitude": -118.27284
        },
        {
            "elevation": 448.1,
            "mindate": "1930-04-01",
            "maxdate": "1979-12-01",
            "latitude": 46.71667,
            "name": "MINERAL, WA US",
            "datacoverage": 0.8928,
            "id": "COOP:455425",
            "elevationUnit": "METERS",
            "longitude": -122.18333
        },
        {
            "elevation": 36.6,
            "mindate": "1929-02-01",
            "maxdate": "2015-11-01",
            "latitude": 47.8452,
            "name": "MONROE, WA US",
            "datacoverage": 0.9828,
            "id": "COOP:455525",
            "elevationUnit": "METERS",
            "longitude": -121.9944
        },
        {
            "elevation": 7.6,
            "mindate": "1954-08-01",
            "maxdate": "2014-01-01",
            "latitude": 46.9675,
            "name": "MONTESANO 1 S, WA US",
            "datacoverage": 0.079,
            "id": "COOP:455549",
            "elevationUnit": "METERS",
            "longitude": -123.6064
        },
        {
            "elevation": 359.7,
            "mindate": "1979-09-01",
            "maxdate": "1987-01-01",
            "latitude": 47.1,
            "name": "MOSES LAKE, WA US",
            "datacoverage": 0.9884,
            "id": "COOP:455608",
            "elevationUnit": "METERS",
            "longitude": -119.25
        },
        {
            "elevation": 369.1,
            "mindate": "1947-07-01",
            "maxdate": "1979-08-01",
            "latitude": 47.11667,
            "name": "MOSES LAKE 3 E, WA US",
            "datacoverage": 0.9895,
            "id": "COOP:455613",
            "elevationUnit": "METERS",
            "longitude": -119.2
        },
        {
            "elevation": 594.4,
            "mindate": "1924-05-01",
            "maxdate": "2015-11-01",
            "latitude": 45.9997,
            "name": "MOUNT ADAMS RANGER STATION, WA US",
            "datacoverage": 0.9782,
            "id": "COOP:455659",
            "elevationUnit": "METERS",
            "longitude": -121.5403
        },
        {
            "elevation": 1266.1,
            "mindate": "1948-08-03",
            "maxdate": "1983-01-01",
            "latitude": 48.86667,
            "name": "MOUNT BAKER LODGE, WA US",
            "datacoverage": 0.0864,
            "id": "COOP:455663",
            "elevationUnit": "METERS",
            "longitude": -121.66667
        },
        {
            "elevation": 1097.3,
            "mindate": "1982-10-01",
            "maxdate": "1989-04-01",
            "latitude": 46.03,
            "name": "MOUNT MITCHELL NUMBER 2, WA US",
            "datacoverage": 0.0505,
            "id": "COOP:455668",
            "elevationUnit": "METERS",
            "longitude": -122.1641
        },
        {
            "elevation": 1795.9,
            "mindate": "1953-07-01",
            "maxdate": "1973-01-01",
            "latitude": 47.91667,
            "name": "MOUNT SPOKANE SUMMIT, WA US",
            "datacoverage": 0.9997,
            "id": "COOP:455674",
            "elevationUnit": "METERS",
            "longitude": -117.11667
        },
        {
            "elevation": 4.3,
            "mindate": "1956-01-01",
            "maxdate": "2005-01-01",
            "latitude": 48.44028,
            "name": "MOUNT VERNON 3 WNW, WA US",
            "datacoverage": 0.9813,
            "id": "COOP:455678",
            "elevationUnit": "METERS",
            "longitude": -122.38667
        },
        {
            "elevation": 472.4,
            "mindate": "1919-01-01",
            "maxdate": "2015-11-01",
            "latitude": 46.5053,
            "name": "MOXEE CITY 10 E, WA US",
            "datacoverage": 0.8109,
            "id": "COOP:455688",
            "elevationUnit": "METERS",
            "longitude": -120.1677
        },
        {
            "elevation": 398.7,
            "mindate": "1939-02-01",
            "maxdate": "2015-11-01",
            "latitude": 47.1413,
            "name": "MUD MOUNTAIN DAM, WA US",
            "datacoverage": 0.9946,
            "id": "COOP:455704",
            "elevationUnit": "METERS",
            "longitude": -121.9355
        },
        {
            "elevation": 694.9,
            "mindate": "1948-07-18",
            "maxdate": "2014-01-01",
            "latitude": 46.8667,
            "name": "NACHES 10 NW, WA US",
            "datacoverage": 0.0201,
            "id": "COOP:455731",
            "elevationUnit": "METERS",
            "longitude": -120.7747
        },
        {
            "elevation": 15.2,
            "mindate": "1929-08-01",
            "maxdate": "2015-11-01",
            "latitude": 46.3725,
            "name": "NASELLE 2 ENE, WA US",
            "datacoverage": 0.9759,
            "id": "COOP:455774",
            "elevationUnit": "METERS",
            "longitude": -123.753
        },
        {
            "elevation": 576.1,
            "mindate": "1919-01-01",
            "maxdate": "1991-05-01",
            "latitude": 48.13333,
            "name": "NESPELEM 2 S, WA US",
            "datacoverage": 0.9713,
            "id": "COOP:455832",
            "elevationUnit": "METERS",
            "longitude": -118.98333
        },
        {
            "elevation": 160,
            "mindate": "1959-01-01",
            "maxdate": "2015-11-01",
            "latitude": 48.6758,
            "name": "NEWHALEM, WA US",
            "datacoverage": 0.9898,
            "id": "COOP:455840",
            "elevationUnit": "METERS",
            "longitude": -121.2419
        },
        {
            "elevation": 659,
            "mindate": "1919-01-01",
            "maxdate": "2015-11-01",
            "latitude": 48.1843,
            "name": "NEWPORT, WA US",
            "datacoverage": 0.9304,
            "id": "COOP:455844",
            "elevationUnit": "METERS",
            "longitude": -117.0476
        },
        {
            "elevation": 125,
            "mindate": "1964-01-01",
            "maxdate": "2014-01-01",
            "latitude": 48.8975,
            "name": "NOOKSACK KENDALL CREEK HATCHERY, WA US",
            "datacoverage": 0.0695,
            "id": "COOP:455876",
            "elevationUnit": "METERS",
            "longitude": -122.1436
        },
        {
            "elevation": 456.3,
            "mindate": "1920-01-01",
            "maxdate": "2015-11-01",
            "latitude": 48.89937,
            "name": "NORTHPORT, WA US",
            "datacoverage": 0.9192,
            "id": "COOP:455946",
            "elevationUnit": "METERS",
            "longitude": -117.82899
        },
        {
            "elevation": 24.4,
            "mindate": "1919-01-01",
            "maxdate": "1997-12-01",
            "latitude": 46.83333,
            "name": "OAKVILLE, WA US",
            "datacoverage": 0.942,
            "id": "COOP:456011",
            "elevationUnit": "METERS",
            "longitude": -123.23333
        },
        {
            "elevation": 470.3,
            "mindate": "1919-01-01",
            "maxdate": "2015-11-01",
            "latitude": 47.33294,
            "name": "ODESSA, WA US",
            "datacoverage": 0.9974,
            "id": "COOP:456039",
            "elevationUnit": "METERS",
            "longitude": -118.69613
        },
        {
            "elevation": 24.4,
            "mindate": "1919-01-01",
            "maxdate": "2015-11-01",
            "latitude": 48.6116,
            "name": "OLGA 2 SE, WA US",
            "datacoverage": 0.9949,
            "id": "COOP:456096",
            "elevationUnit": "METERS",
            "longitude": -122.8063
        },
        {
            "elevation": 57.3,
            "mindate": "1941-06-01",
            "maxdate": "2015-11-01",
            "latitude": 46.9733,
            "name": "OLYMPIA AIRPORT, WA US",
            "datacoverage": 0.9732,
            "id": "COOP:456114",
            "elevationUnit": "METERS",
            "longitude": -122.9033
        },
        {
            "elevation": 259.4,
            "mindate": "1931-01-01",
            "maxdate": "1991-07-01",
            "latitude": 48.41667,
            "name": "OMAK, WA US",
            "datacoverage": 0.4099,
            "id": "COOP:456121",
            "elevationUnit": "METERS",
            "longitude": -119.53333
        },
        {
            "elevation": 395,
            "mindate": "1919-01-01",
            "maxdate": "2015-11-01",
            "latitude": 48.4609,
            "name": "OMAK, WA US",
            "datacoverage": 0.7137,
            "id": "COOP:456123",
            "elevationUnit": "METERS",
            "longitude": -119.5168
        },
        {
            "elevation": 284.1,
            "mindate": "1960-05-01",
            "maxdate": "1970-11-01",
            "latitude": 48.93333,
            "name": "OROVILLE, WA US",
            "datacoverage": 0.8618,
            "id": "COOP:456187",
            "elevationUnit": "METERS",
            "longitude": -119.43333
        },
        {
            "elevation": 362.7,
            "mindate": "1941-03-01",
            "maxdate": "2002-10-01",
            "latitude": 46.78861,
            "name": "OTHELLO 6 ESE, WA US",
            "datacoverage": 0.9297,
            "id": "COOP:456215",
            "elevationUnit": "METERS",
            "longitude": -119.04611
        },
        {
            "elevation": 323.1,
            "mindate": "1931-01-01",
            "maxdate": "2015-11-01",
            "latitude": 46.6091,
            "name": "PACKWOOD, WA US",
            "datacoverage": 0.9264,
            "id": "COOP:456262",
            "elevationUnit": "METERS",
            "longitude": -121.6744
        },
        {
            "elevation": 280.4,
            "mindate": "1924-07-01",
            "maxdate": "2015-11-01",
            "latitude": 47.3058,
            "name": "PALMER 3 ESE, WA US",
            "datacoverage": 0.9954,
            "id": "COOP:456295",
            "elevationUnit": "METERS",
            "longitude": -121.8513
        },
        {
            "elevation": 106.7,
            "mindate": "1948-08-01",
            "maxdate": "2003-02-01",
            "latitude": 46.22639,
            "name": "PASCO, WA US",
            "datacoverage": 0.021,
            "id": "COOP:456400",
            "elevationUnit": "METERS",
            "longitude": -119.10333
        },
        {
            "elevation": 318.2,
            "mindate": "1971-01-01",
            "maxdate": "2014-01-01",
            "latitude": 47.5837,
            "name": "PESHASTIN, WA US",
            "datacoverage": 0.0191,
            "id": "COOP:456472",
            "elevationUnit": "METERS",
            "longitude": -120.6203
        },
        {
            "elevation": 353.6,
            "mindate": "1982-10-01",
            "maxdate": "1989-04-01",
            "latitude": 46.0719,
            "name": "PINE CREEK, WA US",
            "datacoverage": 0.1082,
            "id": "COOP:456490",
            "elevationUnit": "METERS",
            "longitude": -122.0197
        },
        {
            "elevation": 590.1,
            "mindate": "1937-05-01",
            "maxdate": "2015-11-01",
            "latitude": 47.7849,
            "name": "PLAIN, WA US",
            "datacoverage": 0.9618,
            "id": "COOP:456534",
            "elevationUnit": "METERS",
            "longitude": -120.6455
        },
        {
            "elevation": 509,
            "mindate": "1936-06-01",
            "maxdate": "1979-01-01",
            "latitude": 46.51667,
            "name": "PLEASANT VIEW, WA US",
            "datacoverage": 0.996,
            "id": "COOP:456553",
            "elevationUnit": "METERS",
            "longitude": -118.33333
        },
        {
            "elevation": 31.1,
            "mindate": "1947-04-01",
            "maxdate": "1979-12-01",
            "latitude": 47.30572,
            "name": "POINT GRENVILLE, WA US",
            "datacoverage": 0.9846,
            "id": "COOP:456584",
            "elevationUnit": "METERS",
            "longitude": -124.27633
        },
        {
            "elevation": 589.5,
            "mindate": "1919-01-01",
            "maxdate": "2015-11-01",
            "latitude": 46.4672,
            "name": "POMEROY, WA US",
            "datacoverage": 0.9536,
            "id": "COOP:456610",
            "elevationUnit": "METERS",
            "longitude": -117.5883
        },
        {
            "elevation": 27.4,
            "mindate": "1917-01-01",
            "maxdate": "2008-11-01",
            "latitude": 48.1138,
            "name": "PORT ANGELES, WA US",
            "datacoverage": 0.9909,
            "id": "COOP:456624",
            "elevationUnit": "METERS",
            "longitude": -123.4316
        },
        {
            "elevation": 30.5,
            "mindate": "1919-01-01",
            "maxdate": "2010-01-01",
            "latitude": 48.1161,
            "name": "PORT TOWNSEND, WA US",
            "datacoverage": 0.9478,
            "id": "COOP:456678",
            "elevationUnit": "METERS",
            "longitude": -122.7586
        },
        {
            "elevation": 49.1,
            "mindate": "1970-02-01",
            "maxdate": "1974-09-01",
            "latitude": 48.05,
            "name": "PORT TOWNSEND 6 SSW, WA US",
            "datacoverage": 0.034,
            "id": "COOP:456693",
            "elevationUnit": "METERS",
            "longitude": -122.81667
        },
        {
            "elevation": 130.5,
            "mindate": "1956-12-01",
            "maxdate": "2015-11-01",
            "latitude": 46.646,
            "name": "PRIEST RAPIDS DAM, WA US",
            "datacoverage": 0.9548,
            "id": "COOP:456747",
            "elevationUnit": "METERS",
            "longitude": -119.9061
        },
        {
            "elevation": 253,
            "mindate": "1924-06-01",
            "maxdate": "2015-11-01",
            "latitude": 46.2014,
            "name": "PROSSER, WA US",
            "datacoverage": 0.919,
            "id": "COOP:456768",
            "elevationUnit": "METERS",
            "longitude": -119.758
        },
        {
            "elevation": 766.6,
            "mindate": "1948-07-01",
            "maxdate": "2015-11-01",
            "latitude": 46.7602,
            "name": "PULLMAN 2 NW, WA US",
            "datacoverage": 0.9602,
            "id": "COOP:456789",
            "elevationUnit": "METERS",
            "longitude": -117.1861
        },
        {
            "elevation": 15.2,
            "mindate": "1919-01-01",
            "maxdate": "1995-07-01",
            "latitude": 47.2,
            "name": "PUYALLUP 2 W EXPERIMENTAL STATION, WA US",
            "datacoverage": 0.9892,
            "id": "COOP:456803",
            "elevationUnit": "METERS",
            "longitude": -122.33333
        },
        {
            "elevation": 37.5,
            "mindate": "1920-04-01",
            "maxdate": "2015-11-01",
            "latitude": 47.8091,
            "name": "QUILCENE 2 SW, WA US",
            "datacoverage": 0.9852,
            "id": "COOP:456846",
            "elevationUnit": "METERS",
            "longitude": -122.9136
        },
        {
            "elevation": 313.3,
            "mindate": "1948-09-26",
            "maxdate": "2014-01-01",
            "latitude": 47.7847,
            "name": "QUILCENE 5 SW DAM, WA US",
            "datacoverage": 0.0732,
            "id": "COOP:456851",
            "elevationUnit": "METERS",
            "longitude": -122.9797
        },
        {
            "elevation": 56.4,
            "mindate": "1966-08-01",
            "maxdate": "2015-11-01",
            "latitude": 47.9375,
            "name": "QUILLAYUTE AIRPORT, WA US",
            "datacoverage": 0.9983,
            "id": "COOP:456858",
            "elevationUnit": "METERS",
            "longitude": -124.555
        },
        {
            "elevation": 67.1,
            "mindate": "1919-03-01",
            "maxdate": "2014-01-01",
            "latitude": 47.4747,
            "name": "QUINAULT RANGER STATION, WA US",
            "datacoverage": 0.8472,
            "id": "COOP:456864",
            "elevationUnit": "METERS",
            "longitude": -123.8497
        },
        {
            "elevation": 392,
            "mindate": "1941-03-01",
            "maxdate": "2015-11-01",
            "latitude": 47.2235,
            "name": "QUINCY, WA US",
            "datacoverage": 0.9866,
            "id": "COOP:456880",
            "elevationUnit": "METERS",
            "longitude": -119.8524
        },
        {
            "elevation": 528.8,
            "mindate": "1926-10-01",
            "maxdate": "2010-02-01",
            "latitude": 46.9938,
            "name": "RAINIER CARBON R ENT, WA US",
            "datacoverage": 0.7231,
            "id": "COOP:456892",
            "elevationUnit": "METERS",
            "longitude": -121.9113
        },
        {
            "elevation": 841.9,
            "mindate": "1919-01-01",
            "maxdate": "1978-12-01",
            "latitude": 46.7491,
            "name": "LONGMIRE RAINIER NPS, WA US",
            "datacoverage": 0.9986,
            "id": "COOP:456894",
            "elevationUnit": "METERS",
            "longitude": -121.8119
        },
        {
            "elevation": 594.4,
            "mindate": "1927-01-01",
            "maxdate": "2015-09-01",
            "latitude": 46.7322,
            "name": "RAINER OHANAPECOSH, WA US",
            "datacoverage": 0.8498,
            "id": "COOP:456896",
            "elevationUnit": "METERS",
            "longitude": -121.5727
        },
        {
            "elevation": 1654.1,
            "mindate": "1919-09-01",
            "maxdate": "2015-11-01",
            "latitude": 46.7858,
            "name": "RAINIER PARADISE RANGER STATION, WA US",
            "datacoverage": 0.9134,
            "id": "COOP:456898",
            "elevationUnit": "METERS",
            "longitude": -121.7425
        },
        {
            "elevation": 274.3,
            "mindate": "1926-08-01",
            "maxdate": "2014-12-01",
            "latitude": 46.533,
            "name": "RANDLE 1 E, WA US",
            "datacoverage": 0.9443,
            "id": "COOP:456909",
            "elevationUnit": "METERS",
            "longitude": -121.9327
        },
        {
            "elevation": 9.1,
            "mindate": "1980-01-01",
            "maxdate": "2015-11-01",
            "latitude": 46.6533,
            "name": "RAYMOND 2 S, WA US",
            "datacoverage": 0.9931,
            "id": "COOP:456914",
            "elevationUnit": "METERS",
            "longitude": -123.73
        },
        {
            "elevation": 778.8,
            "mindate": "1919-01-01",
            "maxdate": "2015-11-01",
            "latitude": 48.64623,
            "name": "REPUBLIC, WA US",
            "datacoverage": 0.9355,
            "id": "COOP:456974",
            "elevationUnit": "METERS",
            "longitude": -118.73681
        },
        {
            "elevation": 801.6,
            "mindate": "1948-07-01",
            "maxdate": "2014-01-01",
            "latitude": 48.6501,
            "name": "REPUBLIC RANGER STATION, WA US",
            "datacoverage": 0.0348,
            "id": "COOP:456982",
            "elevationUnit": "METERS",
            "longitude": -118.7325
        },
        {
            "elevation": 113.7,
            "mindate": "1944-06-01",
            "maxdate": "2015-11-01",
            "latitude": 46.3119,
            "name": "RICHLAND, WA US",
            "datacoverage": 0.9837,
            "id": "COOP:457015",
            "elevationUnit": "METERS",
            "longitude": -119.2633
        },
        {
            "elevation": 833,
            "mindate": "1919-01-01",
            "maxdate": "1977-09-01",
            "latitude": 46.65,
            "name": "RIMROCK TIETON DAM, WA US",
            "datacoverage": 0.9986,
            "id": "COOP:457038",
            "elevationUnit": "METERS",
            "longitude": -121.13333
        },
        {
            "elevation": 568.1,
            "mindate": "1919-01-01",
            "maxdate": "2015-11-01",
            "latitude": 47.1175,
            "name": "RITZVILLE 1 SSE, WA US",
            "datacoverage": 0.9949,
            "id": "COOP:457059",
            "elevationUnit": "METERS",
            "longitude": -118.3714
        },
        {
            "elevation": 737.6,
            "mindate": "1919-01-01",
            "maxdate": "2015-11-01",
            "latitude": 47.23463,
            "name": "ROSALIA, WA US",
            "datacoverage": 0.9888,
            "id": "COOP:457180",
            "elevationUnit": "METERS",
            "longitude": -117.36364
        },
        {
            "elevation": 376.7,
            "mindate": "1960-09-01",
            "maxdate": "2015-11-01",
            "latitude": 48.7272,
            "name": "ROSS DAM, WA US",
            "datacoverage": 0.994,
            "id": "COOP:457185",
            "elevationUnit": "METERS",
            "longitude": -121.0722
        },
        {
            "elevation": 366.1,
            "mindate": "1969-07-01",
            "maxdate": "1970-08-01",
            "latitude": 46.93333,
            "name": "ROYAL CITY 3 NE, WA US",
            "datacoverage": 0.7841,
            "id": "COOP:457209",
            "elevationUnit": "METERS",
            "longitude": -119.58333
        },
        {
            "elevation": 181.4,
            "mindate": "2009-09-01",
            "maxdate": "2015-11-01",
            "latitude": 46.3953,
            "name": "SAGEMOOR, WA US",
            "datacoverage": 1,
            "id": "COOP:457247",
            "elevationUnit": "METERS",
            "longitude": -119.0713
        },
        {
            "elevation": 595,
            "mindate": "1963-08-01",
            "maxdate": "2015-11-01",
            "latitude": 47.0933,
            "name": "ST. JOHN, WA US",
            "datacoverage": 1,
            "id": "COOP:457267",
            "elevationUnit": "METERS",
            "longitude": -117.5878
        },
        {
            "elevation": 445,
            "mindate": "1982-10-01",
            "maxdate": "1989-04-01",
            "latitude": 46.51667,
            "name": "SAM HENRY MOUNTAIN, WA US",
            "datacoverage": 0.0629,
            "id": "COOP:457294",
            "elevationUnit": "METERS",
            "longitude": -123.01667
        },
        {
            "elevation": 231.6,
            "mindate": "1936-10-01",
            "maxdate": "1998-04-01",
            "latitude": 48.06667,
            "name": "SAPPHO 8 E, WA US",
            "datacoverage": 0.9043,
            "id": "COOP:457319",
            "elevationUnit": "METERS",
            "longitude": -124.11667
        },
        {
            "elevation": 787.9,
            "mindate": "1967-11-01",
            "maxdate": "2015-11-01",
            "latitude": 45.9481,
            "name": "SATUS PASS 2 SSW, WA US",
            "datacoverage": 0.9374,
            "id": "COOP:457342",
            "elevationUnit": "METERS",
            "longitude": -120.6669
        },
        {
            "elevation": 677,
            "mindate": "1922-01-01",
            "maxdate": "1970-08-01",
            "latitude": 47.7,
            "name": "SCENIC, WA US",
            "datacoverage": 0.8219,
            "id": "COOP:457379",
            "elevationUnit": "METERS",
            "longitude": -121.15
        },
        {
            "elevation": 5.8,
            "mindate": "1972-12-01",
            "maxdate": "1998-07-01",
            "latitude": 47.65,
            "name": "SEATTLE PORTAGE BAY, WA US",
            "datacoverage": 0.9936,
            "id": "COOP:457458",
            "elevationUnit": "METERS",
            "longitude": -122.3
        },
        {
            "elevation": 112.8,
            "mindate": "1961-03-01",
            "maxdate": "1986-06-01",
            "latitude": 47.73333,
            "name": "SEATTLE JACKSON PARK, WA US",
            "datacoverage": 1,
            "id": "COOP:457459",
            "elevationUnit": "METERS",
            "longitude": -122.33333
        },
        {
            "elevation": 18.3,
            "mindate": "1986-10-01",
            "maxdate": "2015-11-01",
            "latitude": 47.6872,
            "name": "SEATTLE SAND POINT WEATHER FORECAST OFFICE, WA US",
            "datacoverage": 0.9086,
            "id": "COOP:457470",
            "elevationUnit": "METERS",
            "longitude": -122.2553
        },
        {
            "elevation": 112.8,
            "mindate": "1944-12-01",
            "maxdate": "2015-11-01",
            "latitude": 47.4444,
            "name": "SEATTLE TACOMA AIRPORT, WA US",
            "datacoverage": 1,
            "id": "COOP:457473",
            "elevationUnit": "METERS",
            "longitude": -122.3138
        },
        {
            "elevation": 29,
            "mindate": "1919-01-01",
            "maxdate": "1983-07-01",
            "latitude": 47.65,
            "name": "SEATTLE UNIVERSITY OF WASH, WA US",
            "datacoverage": 0.982,
            "id": "COOP:457478",
            "elevationUnit": "METERS",
            "longitude": -122.28333
        },
        {
            "elevation": 4,
            "mindate": "1919-01-01",
            "maxdate": "1972-10-01",
            "latitude": 47.6,
            "name": "SEATTLE CITY OFFICE, WA US",
            "datacoverage": 0.9257,
            "id": "COOP:457488",
            "elevationUnit": "METERS",
            "longitude": -122.33333
        },
        {
            "elevation": 18.3,
            "mindate": "1919-01-01",
            "maxdate": "2015-11-01",
            "latitude": 48.4958,
            "name": "SEDRO WOOLLEY, WA US",
            "datacoverage": 0.994,
            "id": "COOP:457507",
            "elevationUnit": "METERS",
            "longitude": -122.2355
        },
        {
            "elevation": 341.4,
            "mindate": "1998-09-01",
            "maxdate": "2015-11-01",
            "latitude": 46.6722,
            "name": "SELAH 2 NE, WA US",
            "datacoverage": 1,
            "id": "COOP:457522",
            "elevationUnit": "METERS",
            "longitude": -120.4994
        },
        {
            "elevation": 54.9,
            "mindate": "1919-01-01",
            "maxdate": "1980-09-01",
            "latitude": 48.08333,
            "name": "SEQUIM, WA US",
            "datacoverage": 0.969,
            "id": "COOP:457538",
            "elevationUnit": "METERS",
            "longitude": -123.1
        },
        {
            "elevation": 15.2,
            "mindate": "1980-10-01",
            "maxdate": "2015-11-01",
            "latitude": 48.085,
            "name": "SEQUIM 2 E, WA US",
            "datacoverage": 0.9977,
            "id": "COOP:457544",
            "elevationUnit": "METERS",
            "longitude": -123.0638
        },
        {
            "elevation": 6.7,
            "mindate": "1931-09-01",
            "maxdate": "1999-04-01",
            "latitude": 47.2,
            "name": "SHELTON, WA US",
            "datacoverage": 0.9964,
            "id": "COOP:457584",
            "elevationUnit": "METERS",
            "longitude": -123.1
        },
        {
            "elevation": 82.6,
            "mindate": "1999-05-01",
            "maxdate": "2015-11-01",
            "latitude": 47.238,
            "name": "SHELTON AIRPORT, WA US",
            "datacoverage": 0.9597,
            "id": "COOP:457585",
            "elevationUnit": "METERS",
            "longitude": -123.1408
        },
        {
            "elevation": 619,
            "mindate": "1954-11-01",
            "maxdate": "1974-09-01",
            "latitude": 48.91667,
            "name": "SHUKSAN, WA US",
            "datacoverage": 0.1263,
            "id": "COOP:457604",
            "elevationUnit": "METERS",
            "longitude": -121.7
        },
        {
            "elevation": 975.4,
            "mindate": "1982-10-01",
            "maxdate": "1989-04-01",
            "latitude": 46.2833,
            "name": "SIGNAL PEAK 2, WA US",
            "datacoverage": 0.067,
            "id": "COOP:457626",
            "elevationUnit": "METERS",
            "longitude": -122.55
        },
        {
            "elevation": 449.6,
            "mindate": "1948-07-01",
            "maxdate": "1988-06-01",
            "latitude": 48.06667,
            "name": "SILVERTON, WA US",
            "datacoverage": 0.2049,
            "id": "COOP:457657",
            "elevationUnit": "METERS",
            "longitude": -121.56667
        },
        {
            "elevation": 132.6,
            "mindate": "1965-02-01",
            "maxdate": "2015-11-01",
            "latitude": 45.622,
            "name": "SKAMANIA FISH HATCHERY, WA US",
            "datacoverage": 0.9919,
            "id": "COOP:457696",
            "elevationUnit": "METERS",
            "longitude": -122.2178
        },
        {
            "elevation": 313.9,
            "mindate": "1967-05-01",
            "maxdate": "2014-01-01",
            "latitude": 47.713,
            "name": "SKYKOMISH 1 ENE, WA US",
            "datacoverage": 0.0651,
            "id": "COOP:457709",
            "elevationUnit": "METERS",
            "longitude": -121.3313
        },
        {
            "elevation": 170.7,
            "mindate": "1951-05-01",
            "maxdate": "2008-12-01",
            "latitude": 46.8367,
            "name": "SMYRNA, WA US",
            "datacoverage": 0.9233,
            "id": "COOP:457727",
            "elevationUnit": "METERS",
            "longitude": -119.6633
        },
        {
            "elevation": 134.1,
            "mindate": "1919-01-01",
            "maxdate": "2015-11-01",
            "latitude": 47.5413,
            "name": "SNOQUALMIE FALLS, WA US",
            "datacoverage": 0.9622,
            "id": "COOP:457773",
            "elevationUnit": "METERS",
            "longitude": -121.8361
        },
        {
            "elevation": 920.5,
            "mindate": "1919-01-01",
            "maxdate": "2013-09-01",
            "latitude": 47.4247,
            "name": "SNOQUALMIE PASS, WA US",
            "datacoverage": 0.9029,
            "id": "COOP:457781",
            "elevationUnit": "METERS",
            "longitude": -121.4138
        },
        {
            "elevation": 736.1,
            "mindate": "2010-06-01",
            "maxdate": "2015-11-01",
            "latitude": 45.8176,
            "name": "SNOWDEN, WA US",
            "datacoverage": 0.9999,
            "id": "COOP:457794",
            "elevationUnit": "METERS",
            "longitude": -121.3533
        },
        {
            "elevation": 573,
            "mindate": "1953-11-01",
            "maxdate": "1983-10-01",
            "latitude": 47.66667,
            "name": "SPOKANE, WA US",
            "datacoverage": 0.9945,
            "id": "COOP:457933",
            "elevationUnit": "METERS",
            "longitude": -117.41667
        },
        {
            "elevation": 717.2,
            "mindate": "1932-06-01",
            "maxdate": "2015-11-01",
            "latitude": 47.6216,
            "name": "SPOKANE INTERNATIONAL AIRPORT, WA US",
            "datacoverage": 0.9761,
            "id": "COOP:457938",
            "elevationUnit": "METERS",
            "longitude": -117.528
        },
        {
            "elevation": 729.1,
            "mindate": "1996-08-01",
            "maxdate": "2015-11-01",
            "latitude": 47.6812,
            "name": "SPOKANE WEATHER FORECAST OFFICE, WA US",
            "datacoverage": 0.9914,
            "id": "COOP:457941",
            "elevationUnit": "METERS",
            "longitude": -117.6267
        },
        {
            "elevation": 600.5,
            "mindate": "1919-01-01",
            "maxdate": "1982-11-01",
            "latitude": 47.3,
            "name": "SPRAGUE, WA US",
            "datacoverage": 0.8717,
            "id": "COOP:457956",
            "elevationUnit": "METERS",
            "longitude": -117.98333
        },
        {
            "elevation": 113.1,
            "mindate": "1925-06-01",
            "maxdate": "1980-12-01",
            "latitude": 47.8,
            "name": "SPRUCE, WA US",
            "datacoverage": 0.9984,
            "id": "COOP:457987",
            "elevationUnit": "METERS",
            "longitude": -124.06667
        },
        {
            "elevation": 1341.1,
            "mindate": "1982-10-01",
            "maxdate": "1986-07-29",
            "latitude": 46.2511,
            "name": "SPUD MOUNTAIN, WA US",
            "datacoverage": 0.0514,
            "id": "COOP:458005",
            "elevationUnit": "METERS",
            "longitude": -122.3413
        },
        {
            "elevation": 1206.7,
            "mindate": "1943-10-01",
            "maxdate": "2015-11-01",
            "latitude": 47.2767,
            "name": "STAMPEDE PASS, WA US",
            "datacoverage": 0.866,
            "id": "COOP:458009",
            "elevationUnit": "METERS",
            "longitude": -121.3372
        },
        {
            "elevation": 51.8,
            "mindate": "1924-01-01",
            "maxdate": "2015-11-01",
            "latitude": 47.8663,
            "name": "STARTUP 1 E, WA US",
            "datacoverage": 0.9583,
            "id": "COOP:458034",
            "elevationUnit": "METERS",
            "longitude": -121.7175
        },
        {
            "elevation": 383.1,
            "mindate": "1919-01-01",
            "maxdate": "2015-11-01",
            "latitude": 48.3509,
            "name": "STEHEKIN 4 NW, WA US",
            "datacoverage": 0.9777,
            "id": "COOP:458059",
            "elevationUnit": "METERS",
            "longitude": -120.7264
        },
        {
            "elevation": 1240.5,
            "mindate": "1939-01-01",
            "maxdate": "2014-01-01",
            "latitude": 47.7372,
            "name": "STEVENS PASS, WA US",
            "datacoverage": 0.8766,
            "id": "COOP:458089",
            "elevationUnit": "METERS",
            "longitude": -121.0913
        },
        {
            "elevation": 227.7,
            "mindate": "1919-01-01",
            "maxdate": "2014-01-01",
            "latitude": 46.3236,
            "name": "SUNNYSIDE, WA US",
            "datacoverage": 0.9716,
            "id": "COOP:458207",
            "elevationUnit": "METERS",
            "longitude": -120.0103
        },
        {
            "elevation": 245.4,
            "mindate": "2011-01-01",
            "maxdate": "2015-11-01",
            "latitude": 46.345,
            "name": "SUNNYSIDE NUMBER 2, WA US",
            "datacoverage": 0.8139,
            "id": "COOP:458211",
            "elevationUnit": "METERS",
            "longitude": -120.0289
        },
        {
            "elevation": 7.6,
            "mindate": "1982-03-01",
            "maxdate": "2015-11-01",
            "latitude": 47.2472,
            "name": "TACOMA NUMBER 1, WA US",
            "datacoverage": 0.9654,
            "id": "COOP:458278",
            "elevationUnit": "METERS",
            "longitude": -122.4122
        },
        {
            "elevation": 760.5,
            "mindate": "1938-09-01",
            "maxdate": "2014-01-01",
            "latitude": 47.2274,
            "name": "TEKOA, WA US",
            "datacoverage": 0.9861,
            "id": "COOP:458348",
            "elevationUnit": "METERS",
            "longitude": -117.0836
        },
        {
            "elevation": 694.9,
            "mindate": "1920-01-01",
            "maxdate": "1971-12-01",
            "latitude": 46.66667,
            "name": "TIETON INTAKE, WA US",
            "datacoverage": 0.9615,
            "id": "COOP:458442",
            "elevationUnit": "METERS",
            "longitude": -121
        },
        {
            "elevation": 99.1,
            "mindate": "1949-09-01",
            "maxdate": "2007-06-01",
            "latitude": 46.4686,
            "name": "TOLEDO, WA US",
            "datacoverage": 0.8113,
            "id": "COOP:458500",
            "elevationUnit": "METERS",
            "longitude": -122.8406
        },
        {
            "elevation": 609.6,
            "mindate": "1962-12-01",
            "maxdate": "2015-11-01",
            "latitude": 47.7,
            "name": "TOLT SOUTH FORK RESERVOIR, WA US",
            "datacoverage": 0.9308,
            "id": "COOP:458508",
            "elevationUnit": "METERS",
            "longitude": -121.6908
        },
        {
            "elevation": 292.6,
            "mindate": "1984-07-01",
            "maxdate": "2004-09-01",
            "latitude": 48.78056,
            "name": "TONASKET 4 NNE, WA US",
            "datacoverage": 0.9958,
            "id": "COOP:458520",
            "elevationUnit": "METERS",
            "longitude": -119.42417
        },
        {
            "elevation": 1046.7,
            "mindate": "2011-01-01",
            "maxdate": "2015-11-01",
            "latitude": 48.7978,
            "name": "TONASKET 11 NE, WA US",
            "datacoverage": 0.8641,
            "id": "COOP:458521",
            "elevationUnit": "METERS",
            "longitude": -119.26
        },
        {
            "elevation": 210.3,
            "mindate": "1964-11-01",
            "maxdate": "2015-11-01",
            "latitude": 48.6524,
            "name": "UPPER BAKER DAM, WA US",
            "datacoverage": 0.9868,
            "id": "COOP:458715",
            "elevationUnit": "METERS",
            "longitude": -121.693
        },
        {
            "elevation": 64,
            "mindate": "1919-01-01",
            "maxdate": "2015-11-01",
            "latitude": 45.6778,
            "name": "VANCOUVER 4 NNE, WA US",
            "datacoverage": 0.9949,
            "id": "COOP:458773",
            "elevationUnit": "METERS",
            "longitude": -122.651
        },
        {
            "elevation": 1503,
            "mindate": "1982-10-01",
            "maxdate": "1985-10-01",
            "latitude": 46.41667,
            "name": "VANSON PEAK, WA US",
            "datacoverage": 0.067,
            "id": "COOP:458788",
            "elevationUnit": "METERS",
            "longitude": -122.15
        },
        {
            "elevation": 297.2,
            "mindate": "1971-01-01",
            "maxdate": "2013-09-01",
            "latitude": 48.0941,
            "name": "VERLOT, WA US",
            "datacoverage": 0.0676,
            "id": "COOP:458838",
            "elevationUnit": "METERS",
            "longitude": -121.7772
        },
        {
            "elevation": 1086,
            "mindate": "1972-02-01",
            "maxdate": "1972-07-01",
            "latitude": 46.1,
            "name": "WALLA WALLA 14 ENE, WA US",
            "datacoverage": 0.8362,
            "id": "COOP:458927",
            "elevationUnit": "METERS",
            "longitude": -118.16667
        },
        {
            "elevation": 355.4,
            "mindate": "1949-12-01",
            "maxdate": "1995-02-01",
            "latitude": 46.09472,
            "name": "WALLA WALLA REGIONAL AIRPORT, WA US",
            "datacoverage": 1,
            "id": "COOP:458928",
            "elevationUnit": "METERS",
            "longitude": -118.28694
        },
        {
            "elevation": 315.5,
            "mindate": "2002-03-01",
            "maxdate": "2009-03-01",
            "latitude": 46.0638,
            "name": "WALLA WALLA CITY, WA US",
            "datacoverage": 0.6233,
            "id": "COOP:458930",
            "elevationUnit": "METERS",
            "longitude": -118.3163
        },
        {
            "elevation": 289.3,
            "mindate": "1919-01-01",
            "maxdate": "1988-01-01",
            "latitude": 46.03333,
            "name": "WALLA WALLA WEATHER SERVICE OFFICE, WA US",
            "datacoverage": 0.9698,
            "id": "COOP:458931",
            "elevationUnit": "METERS",
            "longitude": -118.33333
        },
        {
            "elevation": 384.4,
            "mindate": "2009-04-01",
            "maxdate": "2015-11-01",
            "latitude": 46.0922,
            "name": "WALLA WALLA DOT, WA US",
            "datacoverage": 1,
            "id": "COOP:458932",
            "elevationUnit": "METERS",
            "longitude": -118.2592
        },
        {
            "elevation": 256.3,
            "mindate": "1919-01-01",
            "maxdate": "2015-11-01",
            "latitude": 46.4353,
            "name": "WAPATO, WA US",
            "datacoverage": 0.9458,
            "id": "COOP:458959",
            "elevationUnit": "METERS",
            "longitude": -120.4203
        },
        {
            "elevation": 812,
            "mindate": "1919-01-01",
            "maxdate": "2015-11-01",
            "latitude": 47.6497,
            "name": "WATERVILLE, WA US",
            "datacoverage": 0.9828,
            "id": "COOP:459012",
            "elevationUnit": "METERS",
            "longitude": -120.0801
        },
        {
            "elevation": 5.2,
            "mindate": "1938-07-01",
            "maxdate": "2014-12-01",
            "latitude": 47.3725,
            "name": "WAUNA 3 W, WA US",
            "datacoverage": 0.9684,
            "id": "COOP:459021",
            "elevationUnit": "METERS",
            "longitude": -122.7027
        },
        {
            "elevation": 759,
            "mindate": "1923-09-01",
            "maxdate": "2007-12-01",
            "latitude": 47.8964,
            "name": "WELLPINIT, WA US",
            "datacoverage": 0.9368,
            "id": "COOP:459058",
            "elevationUnit": "METERS",
            "longitude": -117.9933
        },
        {
            "elevation": 190.8,
            "mindate": "1919-01-01",
            "maxdate": "2015-11-01",
            "latitude": 47.429,
            "name": "WENATCHEE, WA US",
            "datacoverage": 0.9897,
            "id": "COOP:459074",
            "elevationUnit": "METERS",
            "longitude": -120.31
        },
        {
            "elevation": 243.8,
            "mindate": "1948-07-01",
            "maxdate": "1998-04-01",
            "latitude": 47.43333,
            "name": "WENATCHEE EXPERIMENTAL STATION, WA US",
            "datacoverage": 0.5925,
            "id": "COOP:459079",
            "elevationUnit": "METERS",
            "longitude": -120.35
        },
        {
            "elevation": 374.6,
            "mindate": "1959-11-01",
            "maxdate": "2015-11-01",
            "latitude": 47.3977,
            "name": "WENATCHEE PANGBORN MEMORIAL AIRPORT, WA US",
            "datacoverage": 0.9985,
            "id": "COOP:459082",
            "elevationUnit": "METERS",
            "longitude": -120.2013
        },
        {
            "elevation": 1146.4,
            "mindate": "1982-10-01",
            "maxdate": "1985-10-01",
            "latitude": 45.93333,
            "name": "WEST POINT, WA US",
            "datacoverage": 0.1196,
            "id": "COOP:459100",
            "elevationUnit": "METERS",
            "longitude": -122.18333
        },
        {
            "elevation": 6.1,
            "mindate": "1948-08-05",
            "maxdate": "2003-03-01",
            "latitude": 46.87083,
            "name": "WESTPORT 2 S, WA US",
            "datacoverage": 0.104,
            "id": "COOP:459112",
            "elevationUnit": "METERS",
            "longitude": -124.10833
        },
        {
            "elevation": 1068,
            "mindate": "1966-09-01",
            "maxdate": "1981-04-01",
            "latitude": 46.9,
            "name": "WHITE RIVER RANGER STATION, WA US",
            "datacoverage": 0.9082,
            "id": "COOP:459171",
            "elevationUnit": "METERS",
            "longitude": -121.55
        },
        {
            "elevation": 296,
            "mindate": "1927-09-01",
            "maxdate": "1981-07-01",
            "latitude": 46.38333,
            "name": "WHITE SWAN RANGER STATION, WA US",
            "datacoverage": 0.9181,
            "id": "COOP:459191",
            "elevationUnit": "METERS",
            "longitude": -120.71667
        },
        {
            "elevation": 192.6,
            "mindate": "1962-09-01",
            "maxdate": "2015-11-01",
            "latitude": 46.0436,
            "name": "WHITMAN MISSION, WA US",
            "datacoverage": 0.9969,
            "id": "COOP:459200",
            "elevationUnit": "METERS",
            "longitude": -118.4628
        },
        {
            "elevation": 689.5,
            "mindate": "1919-01-01",
            "maxdate": "2015-11-01",
            "latitude": 47.768,
            "name": "WILBUR, WA US",
            "datacoverage": 0.9811,
            "id": "COOP:459238",
            "elevationUnit": "METERS",
            "longitude": -118.7239
        },
        {
            "elevation": 3,
            "mindate": "1919-04-01",
            "maxdate": "1979-12-01",
            "latitude": 46.68333,
            "name": "WILLAPA HARBOR, WA US",
            "datacoverage": 0.9986,
            "id": "COOP:459291",
            "elevationUnit": "METERS",
            "longitude": -123.75
        },
        {
            "elevation": 235,
            "mindate": "1962-01-01",
            "maxdate": "1976-03-01",
            "latitude": 45.76667,
            "name": "WILLARD FISH LAB, WA US",
            "datacoverage": 0.1216,
            "id": "COOP:459295",
            "elevationUnit": "METERS",
            "longitude": -121.63333
        },
        {
            "elevation": 388.9,
            "mindate": "1929-08-01",
            "maxdate": "1980-08-01",
            "latitude": 47.41667,
            "name": "WILSON CREEK, WA US",
            "datacoverage": 1,
            "id": "COOP:459327",
            "elevationUnit": "METERS",
            "longitude": -119.11667
        },