{
    "metadata": {
        "resultset": {
            "offset": 1,
            "count": 1654,
            "limit": 1000
        }
    },
    "results": [
        {
            "mindate": "1937-07-01",
            "maxdate": "1967-12-01",
            "latitude": 45,
            "name": "YELLOWSTONE NATIONAL PARK, WY US",
            "datacoverage": 0.9644,
            "id": "COOP:249211",
            "longitude": -110
        },
        {
            "elevation": 1948.6,
            "mindate": "1931-01-01",
            "maxdate": "2015-11-01",
            "latitude": 40.99,
            "name": "MANILA, UT US",
            "datacoverage": 0.7174,
            "id": "COOP:425377",
            "elevationUnit": "METERS",
            "longitude": -109.7258
        },
        {
            "elevation": 1904.4,
            "mindate": "1957-06-01",
            "maxdate": "2015-11-01",
            "latitude": 42.73303,
            "name": "AFTON, WY US",
            "datacoverage": 0.9416,
            "id": "COOP:480027",
            "elevationUnit": "METERS",
            "longitude": -110.92168
        },
        {
            "elevation": 1140.9,
            "mindate": "1951-04-01",
            "maxdate": "1952-02-02",
            "latitude": 44.63333,
            "name": "ALADDIN, WY US",
            "datacoverage": 0.9939,
            "id": "COOP:480050",
            "elevationUnit": "METERS",
            "longitude": -104.18333
        },
        {
            "elevation": 1174.1,
            "mindate": "1952-04-01",
            "maxdate": "1952-07-01",
            "latitude": 44.55,
            "name": "ALADDIN 6 S, WY US",
            "datacoverage": 0.0325,
            "id": "COOP:480056",
            "elevationUnit": "METERS",
            "longitude": -104.2
        },
        {
            "elevation": 1629.2,
            "mindate": "1941-02-01",
            "maxdate": "2009-06-01",
            "latitude": 41.4,
            "name": "ALBIN, WY US",
            "datacoverage": 0.994,
            "id": "COOP:480080",
            "elevationUnit": "METERS",
            "longitude": -104.1016
        },
        {
            "elevation": 1630.7,
            "mindate": "2010-11-01",
            "maxdate": "2012-12-01",
            "latitude": 41.4197,
            "name": "ALBIN NUMBER 2, WY US",
            "datacoverage": 0.9992,
            "id": "COOP:480082",
            "elevationUnit": "METERS",
            "longitude": -104.1011
        },
        {
            "elevation": 2094,
            "mindate": "1962-04-01",
            "maxdate": "1987-01-01",
            "latitude": 42.73333,
            "name": "ALCOVA 17 NW, WY US",
            "datacoverage": 0.8891,
            "id": "COOP:480091",
            "elevationUnit": "METERS",
            "longitude": -107.01667
        },
        {
            "elevation": 1940.1,
            "mindate": "1956-04-01",
            "maxdate": "1960-12-01",
            "latitude": 42.61667,
            "name": "ALCOVA 26 WNW, WY US",
            "datacoverage": 0.9994,
            "id": "COOP:480092",
            "elevationUnit": "METERS",
            "longitude": -107.2
        },
        {
            "elevation": 2012.9,
            "mindate": "1961-01-01",
            "maxdate": "1961-12-01",
            "latitude": 42.68333,
            "name": "ALCOVA 29 WNW, WY US",
            "datacoverage": 1,
            "id": "COOP:480094",
            "elevationUnit": "METERS",
            "longitude": -107.25
        },
        {
            "elevation": 1962.9,
            "mindate": "1931-01-01",
            "maxdate": "2015-11-01",
            "latitude": 43.7727,
            "name": "ALTA 1 NNW, WY US",
            "datacoverage": 0.9951,
            "id": "COOP:480140",
            "elevationUnit": "METERS",
            "longitude": -111.0338
        },
        {
            "elevation": 1338.1,
            "mindate": "1946-08-01",
            "maxdate": "2001-11-01",
            "latitude": 44.65222,
            "name": "ALVA 5 ESE, WY US",
            "datacoverage": 0.7394,
            "id": "COOP:480200",
            "elevationUnit": "METERS",
            "longitude": -104.34917
        },
        {
            "elevation": 1219.2,
            "mindate": "1987-02-01",
            "maxdate": "1996-10-01",
            "latitude": 44.7,
            "name": "ALVA, WY US",
            "datacoverage": 1,
            "id": "COOP:480206",
            "elevationUnit": "METERS",
            "longitude": -104.43333
        },
        {
            "elevation": 1969.9,
            "mindate": "1961-04-01",
            "maxdate": "1979-12-01",
            "latitude": 43.66667,
            "name": "ANCHOR DAM, WY US",
            "datacoverage": 0.9955,
            "id": "COOP:480228",
            "elevationUnit": "METERS",
            "longitude": -108.83333
        },
        {
            "elevation": 1464,
            "mindate": "1960-03-01",
            "maxdate": "1961-08-01",
            "latitude": 43.45,
            "name": "ANTELOPE CREEK RANCH, WY US",
            "datacoverage": 0.6099,
            "id": "COOP:480233",
            "elevationUnit": "METERS",
            "longitude": -105.5
        },
        {
            "elevation": 1577.6,
            "mindate": "1950-08-01",
            "maxdate": "1982-08-01",
            "latitude": 43.43333,
            "name": "ANTELOPE SPRINGS, WY US",
            "datacoverage": 0.9531,
            "id": "COOP:480237",
            "elevationUnit": "METERS",
            "longitude": -106.58333
        },
        {
            "mindate": "1948-08-01",
            "maxdate": "1950-04-08",
            "latitude": 43.71667,
            "name": "ARAPAHOE RANCH, WY US",
            "datacoverage": 0.5,
            "id": "COOP:480250",
            "longitude": -108.53333
        },
        {
            "elevation": 1831.8,
            "mindate": "1931-01-01",
            "maxdate": "2005-09-01",
            "latitude": 41.15167,
            "name": "ARCHER, WY US",
            "datacoverage": 0.9989,
            "id": "COOP:480270",
            "elevationUnit": "METERS",
            "longitude": -104.6575
        },
        {
            "elevation": 1836.1,
            "mindate": "1949-11-01",
            "maxdate": "1966-06-01",
            "latitude": 43.18333,
            "name": "ARMINTO, WY US",
            "datacoverage": 0.9852,
            "id": "COOP:480324",
            "elevationUnit": "METERS",
            "longitude": -107.26667
        },
        {
            "elevation": 1135.1,
            "mindate": "1977-11-01",
            "maxdate": "1978-06-01",
            "latitude": 44.63333,
            "name": "ARVADA 2 SE, WY US",
            "datacoverage": 0.876,
            "id": "COOP:480377",
            "elevationUnit": "METERS",
            "longitude": -106.11667
        },
        {
            "elevation": 1122,
            "mindate": "1936-04-01",
            "maxdate": "1977-02-01",
            "latitude": 44.7,
            "name": "ARVADA 3 N, WY US",
            "datacoverage": 0.9288,
            "id": "COOP:480380",
            "elevationUnit": "METERS",
            "longitude": -106.1
        },
        {
            "elevation": 2383.8,
            "mindate": "2012-01-01",
            "maxdate": "2015-11-01",
            "latitude": 42.50071,
            "name": "ATLANTIC CITY, WY US",
            "datacoverage": 1,
            "id": "COOP:480432",
            "elevationUnit": "METERS",
            "longitude": -108.73387
        },
        {
            "elevation": 1894,
            "mindate": "1949-07-01",
            "maxdate": "1960-10-01",
            "latitude": 42.61667,
            "name": "ATLANTIC CITY 10 NE, WY US",
            "datacoverage": 0.1764,
            "id": "COOP:480434",
            "elevationUnit": "METERS",
            "longitude": -108.61667
        },
        {
            "elevation": 1723,
            "mindate": "1951-02-01",
            "maxdate": "1960-12-01",
            "latitude": 42.65,
            "name": "ATLANTIC CITY 11 NNE, WY US",
            "datacoverage": 0.7899,
            "id": "COOP:480438",
            "elevationUnit": "METERS",
            "longitude": -108.65
        },
        {
            "elevation": 2499.4,
            "mindate": "1963-05-01",
            "maxdate": "1984-12-01",
            "latitude": 42.53333,
            "name": "ATLANTIC CITY ORE MINE, WY US",
            "datacoverage": 0.9113,
            "id": "COOP:480443",
            "elevationUnit": "METERS",
            "longitude": -108.76667
        },
        {
            "elevation": 1909,
            "mindate": "1948-08-01",
            "maxdate": "1960-04-01",
            "latitude": 43.35,
            "name": "BADWATER 2 N, WY US",
            "datacoverage": 0.9479,
            "id": "COOP:480470",
            "elevationUnit": "METERS",
            "longitude": -107.41667
        },
        {
            "elevation": 1926,
            "mindate": "1979-05-01",
            "maxdate": "2015-11-01",
            "latitude": 41.0383,
            "name": "BAGGS, WY US",
            "datacoverage": 0.9863,
            "id": "COOP:480484",
            "elevationUnit": "METERS",
            "longitude": -107.6577
        },
        {
            "elevation": 2101,
            "mindate": "1948-01-01",
            "maxdate": "1952-05-01",
            "latitude": 42.25,
            "name": "BAIROIL, WY US",
            "datacoverage": 0.9058,
            "id": "COOP:480498",
            "elevationUnit": "METERS",
            "longitude": -107.55
        },
        {
            "elevation": 1570.9,
            "mindate": "1931-01-01",
            "maxdate": "1958-06-24",
            "latitude": 43.7,
            "name": "BARNUM 1 N, WY US",
            "datacoverage": 0.4621,
            "id": "COOP:480528",
            "elevationUnit": "METERS",
            "longitude": -106.91667
        },
        {
            "elevation": 1170.4,
            "mindate": "1931-01-01",
            "maxdate": "2015-11-01",
            "latitude": 44.37985,
            "name": "BASIN, WY US",
            "datacoverage": 0.9902,
            "id": "COOP:480540",
            "elevationUnit": "METERS",
            "longitude": -108.03495
        },
        {
            "elevation": 1955,
            "mindate": "1952-08-01",
            "maxdate": "1968-12-01",
            "latitude": 42.55,
            "name": "BATES CREEK, WY US",
            "datacoverage": 0.6801,
            "id": "COOP:480550",
            "elevationUnit": "METERS",
            "longitude": -106.33333
        },
        {
            "elevation": 1841.6,
            "mindate": "1969-05-01",
            "maxdate": "2015-11-01",
            "latitude": 42.62336,
            "name": "BATES CREEK NUMBER 2, WY US",
            "datacoverage": 0.9964,
            "id": "COOP:480552",
            "elevationUnit": "METERS",
            "longitude": -106.35659
        },
        {
            "elevation": 1960.5,
            "mindate": "1931-01-01",
            "maxdate": "2015-11-01",
            "latitude": 44.14976,
            "name": "BECHLER RIVER RANGER STATION, WY US",
            "datacoverage": 0.2816,
            "id": "COOP:480585",
            "elevationUnit": "METERS",
            "longitude": -111.04599
        },
        {
            "elevation": 1937,
            "mindate": "1975-06-01",
            "maxdate": "2015-11-01",
            "latitude": 42.87311,
            "name": "BEDFORD 3 SE, WY US",
            "datacoverage": 0.9815,
            "id": "COOP:480603",
            "elevationUnit": "METERS",
            "longitude": -110.90691
        },
        {
            "elevation": 1930.9,
            "mindate": "1931-01-01",
            "maxdate": "1967-08-01",
            "latitude": 42.86667,
            "name": "BEDFORD 2 SE, WY US",
            "datacoverage": 0.9887,
            "id": "COOP:480605",
            "elevationUnit": "METERS",
            "longitude": -110.9
        },
        {
            "elevation": 1830,
            "mindate": "1965-10-01",
            "maxdate": "1970-03-01",
            "latitude": 44.35,
            "name": "BELKNAP RANCH, WY US",
            "datacoverage": 1,
            "id": "COOP:480614",
            "elevationUnit": "METERS",
            "longitude": -109.35
        },
        {
            "elevation": 1271.9,
            "mindate": "1952-08-01",
            "maxdate": "1958-06-22",
            "latitude": 44.51667,
            "name": "BEULAH 8 WSW, WY US",
            "datacoverage": 0.998,
            "id": "COOP:480640",
            "elevationUnit": "METERS",
            "longitude": -104.26667
        },
        {
            "elevation": 1282.6,
            "mindate": "1949-11-01",
            "maxdate": "2015-11-01",
            "latitude": 44.6828,
            "name": "BIG HORN, WY US",
            "datacoverage": 0.2812,
            "id": "COOP:480680",
            "elevationUnit": "METERS",
            "longitude": -107.0089
        },
        {
            "elevation": 2083.3,
            "mindate": "1938-01-01",
            "maxdate": "2015-11-01",
            "latitude": 42.5414,
            "name": "BIG PINEY, WY US",
            "datacoverage": 0.7551,
            "id": "COOP:480695",
            "elevationUnit": "METERS",
            "longitude": -110.1252
        },
        {
            "elevation": 2079.3,
            "mindate": "1992-11-01",
            "maxdate": "2014-01-01",
            "latitude": 42.5364,
            "name": "BIG PINEY UP AND L, WY US",
            "datacoverage": 0.0094,
            "id": "COOP:480697",
            "elevationUnit": "METERS",
            "longitude": -110.11271
        },
        {
            "elevation": 2196.1,
            "mindate": "1965-07-01",
            "maxdate": "1968-03-01",
            "latitude": 42.66667,
            "name": "BIG SANDY, WY US",
            "datacoverage": 0.848,
            "id": "COOP:480698",
            "elevationUnit": "METERS",
            "longitude": -109.5
        },
        {
            "elevation": 1455.1,
            "mindate": "1964-06-01",
            "maxdate": "1965-08-01",
            "latitude": 43.78333,
            "name": "BIG TRAILS, WY US",
            "datacoverage": 0.999,
            "id": "COOP:480708",
            "elevationUnit": "METERS",
            "longitude": -107.31667
        },
        {
            "elevation": 1437.1,
            "mindate": "1948-09-01",
            "maxdate": "1978-10-01",
            "latitude": 43.25,
            "name": "BILL, WY US",
            "datacoverage": 0.8895,
            "id": "COOP:480725",
            "elevationUnit": "METERS",
            "longitude": -105.26667
        },
        {
            "elevation": 1382,
            "mindate": "1948-09-01",
            "maxdate": "1958-06-01",
            "latitude": 43.36667,
            "name": "BILL 10 NE, WY US",
            "datacoverage": 0.9581,
            "id": "COOP:480727",
            "elevationUnit": "METERS",
            "longitude": -105.2
        },
        {
            "elevation": 1470.1,
            "mindate": "1948-09-01",
            "maxdate": "1957-08-01",
            "latitude": 43.25,
            "name": "BILL 12 W, WY US",
            "datacoverage": 0.9538,
            "id": "COOP:480729",
            "elevationUnit": "METERS",
            "longitude": -105.48333
        },
        {
            "mindate": "1948-09-01",
            "maxdate": "1948-10-01",
            "latitude": 43.03333,
            "name": "BILL 14 S, WY US",
            "datacoverage": 0.998,
            "id": "COOP:480731",
            "longitude": -105.21667
        },
        {
            "elevation": 1382,
            "mindate": "1948-10-01",
            "maxdate": "1958-06-01",
            "latitude": 43.11667,
            "name": "BILL 14 SE, WY US",
            "datacoverage": 0.9918,
            "id": "COOP:480733",
            "elevationUnit": "METERS",
            "longitude": -105.01667
        },
        {
            "elevation": 1649.9,
            "mindate": "1948-09-01",
            "maxdate": "1972-10-31",
            "latitude": 43.11667,
            "name": "BILL 15 SW, WY US",
            "datacoverage": 0.9422,
            "id": "COOP:480735",
            "elevationUnit": "METERS",
            "longitude": -105.5
        },
        {
            "elevation": 1516.4,
            "mindate": "1962-03-01",
            "maxdate": "2012-12-01",
            "latitude": 44.1241,
            "name": "BILLY CREEK, WY US",
            "datacoverage": 0.9999,
            "id": "COOP:480740",
            "elevationUnit": "METERS",
            "longitude": -106.7319
        },
        {
            "elevation": 2048.9,
            "mindate": "1962-09-01",
            "maxdate": "2015-11-01",
            "latitude": 41.58959,
            "name": "BITTER CREEK 4 NE, WY US",
            "datacoverage": 0.9218,
            "id": "COOP:480761",
            "elevationUnit": "METERS",
            "longitude": -108.50939
        },
        {
            "elevation": 1717.5,
            "mindate": "1963-10-01",
            "maxdate": "2015-11-01",
            "latitude": 43.65606,
            "name": "BLACK MOUNTAIN, WY US",
            "datacoverage": 0.9856,
            "id": "COOP:480778",
            "elevationUnit": "METERS",
            "longitude": -107.73741
        },
        {
            "elevation": 2040,
            "mindate": "1937-11-01",
            "maxdate": "2015-11-01",
            "latitude": 43.2095,
            "name": "BONDURANT, WY US",
            "datacoverage": 0.8784,
            "id": "COOP:480865",
            "elevationUnit": "METERS",
            "longitude": -110.40323
        },
        {
            "elevation": 1849.8,
            "mindate": "1902-01-01",
            "maxdate": "1993-09-01",
            "latitude": 42.21278,
            "name": "BORDER 3 N, WY US",
            "datacoverage": 0.9918,
            "id": "COOP:480915",
            "elevationUnit": "METERS",
            "longitude": -111.04556
        },
        {
            "elevation": 2115.3,
            "mindate": "1989-09-01",
            "maxdate": "2015-11-01",
            "latitude": 42.71554,
            "name": "BOULDER REARING STATION, WY US",
            "datacoverage": 1,
            "id": "COOP:480951",
            "elevationUnit": "METERS",
            "longitude": -109.68956
        },
        {
            "elevation": 1485.9,
            "mindate": "1946-09-01",
            "maxdate": "2015-11-01",
            "latitude": 43.40536,
            "name": "BOYSEN DAM, WY US",
            "datacoverage": 0.9868,
            "id": "COOP:481000",
            "elevationUnit": "METERS",
            "longitude": -108.16338
        },
        {
            "elevation": 1129,
            "mindate": "1948-09-01",
            "maxdate": "1957-08-01",
            "latitude": 43.35,
            "name": "BRIGHT 7 NE, WY US",
            "datacoverage": 1,
            "id": "COOP:481032",
            "elevationUnit": "METERS",
            "longitude": -104.26667
        },
        {
            "elevation": 1853.2,
            "mindate": "2002-03-01",
            "maxdate": "2015-11-01",
            "latitude": 41.2468,
            "name": "BUCKBOARD MARINA, WY US",
            "datacoverage": 0.9938,
            "id": "COOP:481131",
            "elevationUnit": "METERS",
            "longitude": -109.5966
        },
        {
            "elevation": 1598.1,
            "mindate": "1940-07-01",
            "maxdate": "1964-05-01",
            "latitude": 44.36667,
            "name": "BUFFALO 5 W, WY US",
            "datacoverage": 0.9651,
            "id": "COOP:481160",
            "elevationUnit": "METERS",
            "longitude": -106.8
        },
        {
            "elevation": 1414,
            "mindate": "1931-01-01",
            "maxdate": "2015-11-01",
            "latitude": 44.35447,
            "name": "BUFFALO, WY US",
            "datacoverage": 0.8901,
            "id": "COOP:481165",
            "elevationUnit": "METERS",
            "longitude": -106.69937
        },
        {
            "elevation": 1673.4,
            "mindate": "2002-04-01",
            "maxdate": "2015-11-01",
            "latitude": 44.33641,
            "name": "BUFFALO 5 WSW, WY US",
            "datacoverage": 0.9817,
            "id": "COOP:481167",
            "elevationUnit": "METERS",
            "longitude": -106.7887
        },
        {
            "elevation": 1513,
            "mindate": "1949-10-01",
            "maxdate": "1954-05-01",
            "latitude": 44.48333,
            "name": "BUFFALO 11 NW, WY US",
            "datacoverage": 0.9818,
            "id": "COOP:481170",
            "elevationUnit": "METERS",
            "longitude": -106.8
        },
        {
            "elevation": 2535,
            "mindate": "1962-06-01",
            "maxdate": "1973-04-01",
            "latitude": 44.21667,
            "name": "BUFFALO 15 SW, WY US",
            "datacoverage": 1,
            "id": "COOP:481171",
            "elevationUnit": "METERS",
            "longitude": -106.91667
        },
        {
            "elevation": 1457.9,
            "mindate": "1950-07-01",
            "maxdate": "1958-06-01",
            "latitude": 44.06667,
            "name": "BUFFALO 21 S, WY US",
            "datacoverage": 1,
            "id": "COOP:481172",
            "elevationUnit": "METERS",
            "longitude": -106.66667
        },
        {
            "elevation": 1572.8,
            "mindate": "1931-01-01",
            "maxdate": "2015-11-01",
            "latitude": 44.50747,
            "name": "BUFFALO BILL DAM, WY US",
            "datacoverage": 0.9882,
            "id": "COOP:481175",
            "elevationUnit": "METERS",
            "longitude": -109.16745
        },
        {
            "elevation": 2456.7,
            "mindate": "1960-09-01",
            "maxdate": "2015-11-01",
            "latitude": 44.7741,
            "name": "BURGESS JUNCTION, WY US",
            "datacoverage": 0.9895,
            "id": "COOP:481220",
            "elevationUnit": "METERS",
            "longitude": -107.5216
        },
        {
            "elevation": 1350.9,
            "mindate": "1950-02-01",
            "maxdate": "1957-12-01",
            "latitude": 44.45,
            "name": "BURLINGTON, WY US",
            "datacoverage": 0.9682,
            "id": "COOP:481240",
            "elevationUnit": "METERS",
            "longitude": -108.41667
        },
        {
            "elevation": 1866.9,
            "mindate": "1951-11-01",
            "maxdate": "2015-11-01",
            "latitude": 43.36556,
            "name": "BURRIS, WY US",
            "datacoverage": 0.7995,
            "id": "COOP:481284",
            "elevationUnit": "METERS",
            "longitude": -109.27545
        },
        {
            "elevation": 1657.2,
            "mindate": "1941-07-01",
            "maxdate": "2006-09-01",
            "latitude": 41.0844,
            "name": "CARPENTER 3 N, WY US",
            "datacoverage": 0.9502,
            "id": "COOP:481547",
            "elevationUnit": "METERS",
            "longitude": -104.3788
        },
        {
            "elevation": 1585.9,
            "mindate": "1931-01-01",
            "maxdate": "1981-05-01",
            "latitude": 42.85,
            "name": "CASPER 2 E, WY US",
            "datacoverage": 0.8992,
            "id": "COOP:481565",
            "elevationUnit": "METERS",
            "longitude": -106.26667
        },
        {
            "elevation": 1553.6,
            "mindate": "2001-01-01",
            "maxdate": "2015-11-01",
            "latitude": 42.86149,
            "name": "CASPER WASTE WATER TREATMENT PLANT, WY US",
            "datacoverage": 0.9891,
            "id": "COOP:481569",
            "elevationUnit": "METERS",
            "longitude": -106.29239
        },
        {
            "elevation": 1620.9,
            "mindate": "1948-01-01",
            "maxdate": "2015-11-01",
            "latitude": 42.89779,
            "name": "CASPER NATRONA CO AIRPORT, WY US",
            "datacoverage": 0.9853,
            "id": "COOP:481570",
            "elevationUnit": "METERS",
            "longitude": -106.47371
        },
        {
            "elevation": 1567.6,
            "mindate": "2002-05-01",
            "maxdate": "2015-11-01",
            "latitude": 42.85186,
            "name": "CASPER 1 SW, WY US",
            "datacoverage": 0.9999,
            "id": "COOP:481572",
            "elevationUnit": "METERS",
            "longitude": -106.28434
        },
        {
            "elevation": 2490.2,
            "mindate": "1931-01-01",
            "maxdate": "2007-08-01",
            "latitude": 41.3136,
            "name": "CENTENNIAL 1 NE, WY US",
            "datacoverage": 0.8402,
            "id": "COOP:481610",
            "elevationUnit": "METERS",
            "longitude": -106.1291
        },
        {
            "elevation": 1863.2,
            "mindate": "1948-08-01",
            "maxdate": "2015-11-01",
            "latitude": 41.15778,
            "name": "CHEYENNE WSFO AIRPORT, WY US",
            "datacoverage": 1,
            "id": "COOP:481675",
            "elevationUnit": "METERS",
            "longitude": -104.80694
        },
        {
            "elevation": 1865.1,
            "mindate": "2003-04-01",
            "maxdate": "2015-11-01",
            "latitude": 41.15166,
            "name": "CHEYENNE WEATHER FORECAST OFFICE, WY US",
            "datacoverage": 0.9867,
            "id": "COOP:481676",
            "elevationUnit": "METERS",
            "longitude": -104.80622
        },
        {
            "elevation": 1905.9,
            "mindate": "1935-01-01",
            "maxdate": "1957-08-01",
            "latitude": 41.18333,
            "name": "CHEYENNE HORT F STATION, WY US",
            "datacoverage": 0.9191,
            "id": "COOP:481680",
            "elevationUnit": "METERS",
            "longitude": -104.88333
        },
        {
            "elevation": 1852,
            "mindate": "2011-01-01",
            "maxdate": "2015-11-01",
            "latitude": 41.19473,
            "name": "CHEYENNE 7 NE, WY US",
            "datacoverage": 1,
            "id": "COOP:481687",
            "elevationUnit": "METERS",
            "longitude": -104.71194
        },
        {
            "elevation": 1616.7,
            "mindate": "1931-01-01",
            "maxdate": "2015-11-01",
            "latitude": 41.7594,
            "name": "CHUGWATER, WY US",
            "datacoverage": 0.9941,
            "id": "COOP:481730",
            "elevationUnit": "METERS",
            "longitude": -104.8222
        },
        {
            "elevation": 2157.7,
            "mindate": "1955-11-01",
            "maxdate": "2015-11-01",
            "latitude": 41.39748,
            "name": "CHURCH BUTTES GAS PLANT, WY US",
            "datacoverage": 0.9793,
            "id": "COOP:481736",
            "elevationUnit": "METERS",
            "longitude": -110.08837
        },
        {
            "elevation": 1922.1,
            "mindate": "1951-03-01",
            "maxdate": "1957-11-01",
            "latitude": 44.5,
            "name": "CIRCLE H RANCH, WY US",
            "datacoverage": 0.8072,
            "id": "COOP:481743",
            "elevationUnit": "METERS",
            "longitude": -109.53333
        },
        {
            "elevation": 1286.9,
            "mindate": "1948-10-01",
            "maxdate": "1955-08-01",
            "latitude": 43.73333,
            "name": "CLARETON 3 NE, WY US",
            "datacoverage": 0.8036,
            "id": "COOP:481750",
            "elevationUnit": "METERS",
            "longitude": -104.66667
        },
        {
            "elevation": 1275,
            "mindate": "1948-10-01",
            "maxdate": "1957-08-01",
            "latitude": 43.5,
            "name": "CLARETON 16 SW, WY US",
            "datacoverage": 0.8411,
            "id": "COOP:481752",
            "elevationUnit": "METERS",
            "longitude": -104.86667
        },
        {
            "elevation": 1286.9,
            "mindate": "1958-06-01",
            "maxdate": "1960-12-01",
            "latitude": 44.85,
            "name": "CLARK 4 S, WY US",
            "datacoverage": 0.9985,
            "id": "COOP:481768",
            "elevationUnit": "METERS",
            "longitude": -109.18333
        },
        {
            "elevation": 1382,
            "mindate": "1931-01-01",
            "maxdate": "1958-05-01",
            "latitude": 44.9,
            "name": "CLARK 4 SW, WY US",
            "datacoverage": 0.6414,
            "id": "COOP:481770",
            "elevationUnit": "METERS",
            "longitude": -109.23333
        },
        {
            "elevation": 1254.9,
            "mindate": "1961-02-01",
            "maxdate": "2015-11-01",
            "latitude": 44.93651,
            "name": "CLARK 3 NE, WY US",
            "datacoverage": 0.9758,
            "id": "COOP:481775",
            "elevationUnit": "METERS",
            "longitude": -109.13736
        },
        {
            "elevation": 1528,
            "mindate": "1931-01-01",
            "maxdate": "1948-09-01",
            "latitude": 43.93333,
            "name": "CLARKELEN 10 SW, WY US",
            "datacoverage": 0.9953,
            "id": "COOP:481780",
            "elevationUnit": "METERS",
            "longitude": -105.7
        },
        {
            "elevation": 1217.7,
            "mindate": "1938-02-01",
            "maxdate": "2015-11-01",
            "latitude": 44.578,
            "name": "CLEARMONT 5 SW, WY US",
            "datacoverage": 0.9026,
            "id": "COOP:481816",
            "elevationUnit": "METERS",
            "longitude": -106.4472
        },
        {
            "elevation": 1609.3,
            "mindate": "1931-01-01",
            "maxdate": "2015-11-01",
            "latitude": 44.5021,
            "name": "CODY, WY US",
            "datacoverage": 0.9725,
            "id": "COOP:481840",
            "elevationUnit": "METERS",
            "longitude": -109.1112
        },
        {
            "elevation": 1539.8,
            "mindate": "1949-08-01",
            "maxdate": "1960-01-01",
            "latitude": 44.51667,
            "name": "CODY 1 SSE, WY US",
            "datacoverage": 0.9017,
            "id": "COOP:481845",
            "elevationUnit": "METERS",
            "longitude": -109.05
        },
        {
            "elevation": 1599.6,
            "mindate": "1949-08-01",
            "maxdate": "2015-11-01",
            "latitude": 44.4138,
            "name": "CODY 12 SE, WY US",
            "datacoverage": 0.8995,
            "id": "COOP:481850",
            "elevationUnit": "METERS",
            "longitude": -108.90055
        },
        {
            "elevation": 1780,
            "mindate": "1958-09-01",
            "maxdate": "2009-01-01",
            "latitude": 44.3366,
            "name": "CODY 21 SW, WY US",
            "datacoverage": 0.8776,
            "id": "COOP:481855",
            "elevationUnit": "METERS",
            "longitude": -109.3913
        },
        {
            "elevation": 1060.7,
            "mindate": "1931-01-01",
            "maxdate": "2012-12-01",
            "latitude": 44.8711,
            "name": "COLONY, WY US",
            "datacoverage": 0.9807,
            "id": "COOP:481905",
            "elevationUnit": "METERS",
            "longitude": -104.1533
        },
        {
            "elevation": 1504.5,
            "mindate": "2011-01-01",
            "maxdate": "2015-11-01",
            "latitude": 42.79611,
            "name": "CONVERSE CO AIRPORT ASOS, WY US",
            "datacoverage": 1,
            "id": "COOP:481980",
            "elevationUnit": "METERS",
            "longitude": -105.38028
        },
        {
            "elevation": 2239.4,
            "mindate": "1979-06-01",
            "maxdate": "2013-12-01",
            "latitude": 42.9588,
            "name": "CORA, WY US",
            "datacoverage": 0.865,
            "id": "COOP:482054",
            "elevationUnit": "METERS",
            "longitude": -109.9958
        },
        {
            "elevation": 1983.9,
            "mindate": "1938-02-01",
            "maxdate": "2015-11-01",
            "latitude": 44.8675,
            "name": "CRANDALL CREEK, WY US",
            "datacoverage": 0.6221,
            "id": "COOP:482135",
            "elevationUnit": "METERS",
            "longitude": -109.6436
        },
        {
            "elevation": 2073.9,
            "mindate": "1931-01-01",
            "maxdate": "1938-01-01",
            "latitude": 44.83333,
            "name": "CRANDALL CREEK NEAR, WY US",
            "datacoverage": 0.9762,
            "id": "COOP:482140",
            "elevationUnit": "METERS",
            "longitude": -109.66667
        },
        {
            "elevation": 2147,
            "mindate": "1948-01-01",
            "maxdate": "1984-03-01",
            "latitude": 41.73333,
            "name": "CRESTON, WY US",
            "datacoverage": 0.6892,
            "id": "COOP:482175",
            "elevationUnit": "METERS",
            "longitude": -107.73333
        },
        {
            "elevation": 1851.1,
            "mindate": "1949-09-01",
            "maxdate": "1950-02-12",
            "latitude": 43.3,
            "name": "CROWHEART, WY US",
            "datacoverage": 0.6727,
            "id": "COOP:482223",
            "elevationUnit": "METERS",
            "longitude": -109.18333
        },
        {
            "elevation": 1815.1,
            "mindate": "1950-06-01",
            "maxdate": "1951-12-01",
            "latitude": 43.3,
            "name": "CROWHEART 2 E, WY US",
            "datacoverage": 0.666,
            "id": "COOP:482228",
            "elevationUnit": "METERS",
            "longitude": -109.13333
        },
        {
            "elevation": 2237.5,
            "mindate": "1989-07-01",
            "maxdate": "2015-11-01",
            "latitude": 42.92815,
            "name": "DANIEL FISH HATCHERY, WY US",
            "datacoverage": 1,
            "id": "COOP:482242",
            "elevationUnit": "METERS",
            "longitude": -110.12729
        },
        {
            "elevation": 2496.3,
            "mindate": "1974-12-01",
            "maxdate": "2015-11-01",
            "latitude": 43.41269,
            "name": "DARWIN RANCH, WY US",
            "datacoverage": 0.9817,
            "id": "COOP:482375",
            "elevationUnit": "METERS",
            "longitude": -110.16331
        },
        {
            "elevation": 1194.8,
            "mindate": "1951-04-01",
            "maxdate": "2015-11-01",
            "latitude": 44.8767,
            "name": "DAYTON, WY US",
            "datacoverage": 0.4381,
            "id": "COOP:482399",
            "elevationUnit": "METERS",
            "longitude": -107.2631
        },
        {
            "elevation": 1353.3,
            "mindate": "1962-04-01",
            "maxdate": "1992-10-01",
            "latitude": 44.18333,
            "name": "DEAD HORSE CREEK, WY US",
            "datacoverage": 0.8882,
            "id": "COOP:482410",
            "elevationUnit": "METERS",
            "longitude": -105.9
        },
        {
            "elevation": 1251.2,
            "mindate": "1931-01-01",
            "maxdate": "2015-11-01",
            "latitude": 44.89201,
            "name": "DEAVER, WY US",
            "datacoverage": 0.9598,
            "id": "COOP:482415",
            "elevationUnit": "METERS",
            "longitude": -108.59291
        },
        {
            "elevation": 1321,
            "mindate": "1932-07-01",
            "maxdate": "1958-12-01",
            "latitude": 44.58333,
            "name": "DEVILS TOWER, WY US",
            "datacoverage": 0.7484,
            "id": "COOP:482465",
            "elevationUnit": "METERS",
            "longitude": -104.71667
        },
        {
            "elevation": 1177.1,
            "mindate": "1959-01-01",
            "maxdate": "2015-11-01",
            "latitude": 44.5833,
            "name": "DEVILS TOWER NUMBER 2, WY US",
            "datacoverage": 0.9898,
            "id": "COOP:482466",
            "elevationUnit": "METERS",
            "longitude": -104.7147
        },
        {
            "elevation": 1313.7,
            "mindate": "1941-07-01",
            "maxdate": "2015-11-01",
            "latitude": 44.0991,
            "name": "DILLINGER, WY US",
            "datacoverage": 0.9888,
            "id": "COOP:482580",
            "elevationUnit": "METERS",
            "longitude": -105.1175
        },
        {
            "elevation": 1700.2,
            "mindate": "1931-01-01",
            "maxdate": "2015-11-01",
            "latitude": 43.23348,
            "name": "DIVERSION DAM, WY US",
            "datacoverage": 0.9578,
            "id": "COOP:482595",
            "elevationUnit": "METERS",
            "longitude": -108.91332
        },
        {
            "elevation": 1695.9,
            "mindate": "1955-04-01",
            "maxdate": "1958-06-25",
            "latitude": 43.23333,
            "name": "DIVERSION DAM 1 E, WY US",
            "datacoverage": 0.0198,
            "id": "COOP:482596",
            "elevationUnit": "METERS",
            "longitude": -108.93333
        },
        {
            "elevation": 1940.1,
            "mindate": "1931-01-01",
            "maxdate": "1978-06-01",
            "latitude": 41.03333,
            "name": "DIXON, WY US",
            "datacoverage": 0.986,
            "id": "COOP:482610",
            "elevationUnit": "METERS",
            "longitude": -107.53333
        },
        {
            "elevation": 2689.9,
            "mindate": "1931-01-01",
            "maxdate": "1944-04-01",
            "latitude": 44.58333,
            "name": "DOME LAKE, WY US",
            "datacoverage": 0.9314,
            "id": "COOP:482638",
            "elevationUnit": "METERS",
            "longitude": -107.28333
        },
        {
            "elevation": 1865.4,
            "mindate": "1942-07-01",
            "maxdate": "2005-12-01",
            "latitude": 42.1794,
            "name": "DOUBLE FOUR RANCH, WY US",
            "datacoverage": 0.9802,
            "id": "COOP:482680",
            "elevationUnit": "METERS",
            "longitude": -105.4016
        },
        {
            "elevation": 1484.4,
            "mindate": "1931-01-01",
            "maxdate": "2015-11-01",
            "latitude": 42.7467,
            "name": "DOUGLAS 1 SE, WY US",
            "datacoverage": 0.5299,
            "id": "COOP:482685",
            "elevationUnit": "METERS",
            "longitude": -105.3603
        },
        {
            "elevation": 1462.7,
            "mindate": "2010-03-01",
            "maxdate": "2011-11-01",
            "latitude": 42.74417,
            "name": "DOUGLAS 1 SSW, WY US",
            "datacoverage": 0.0137,
            "id": "COOP:482688",
            "elevationUnit": "METERS",
            "longitude": -105.39139
        },
        {
            "elevation": 1464.6,
            "mindate": "1941-05-01",
            "maxdate": "1960-03-01",
            "latitude": 42.7444,
            "name": "DOUGLAS, WY US",
            "datacoverage": 0.9867,
            "id": "COOP:482690",
            "elevationUnit": "METERS",
            "longitude": -105.3897
        },
        {
            "elevation": 1464.6,
            "mindate": "1962-08-01",
            "maxdate": "2010-01-01",
            "latitude": 42.7444,
            "name": "DOUGLAS, WY US",
            "datacoverage": 0.9768,
            "id": "COOP:482693",
            "elevationUnit": "METERS",
            "longitude": -105.3897
        },
        {
            "elevation": 1502.7,
            "mindate": "1949-07-01",
            "maxdate": "2014-01-01",
            "latitude": 42.9533,
            "name": "DOUGLAS 17 NE, WY US",
            "datacoverage": 0.9998,
            "id": "COOP:482696",
            "elevationUnit": "METERS",
            "longitude": -105.165
        },
        {
            "elevation": 1838.9,
            "mindate": "1971-12-01",
            "maxdate": "1975-01-01",
            "latitude": 42.58333,
            "name": "DOUGLAS 20 SW, WY US",
            "datacoverage": 0.8674,
            "id": "COOP:482700",
            "elevationUnit": "METERS",
            "longitude": -105.71667
        },
        {
            "elevation": 2119.9,
            "mindate": "1931-01-01",
            "maxdate": "2015-11-01",
            "latitude": 43.53976,
            "name": "DUBOIS, WY US",
            "datacoverage": 0.95,
            "id": "COOP:482715",
            "elevationUnit": "METERS",
            "longitude": -109.65522
        },
        {
            "elevation": 1345.7,
            "mindate": "1931-03-01",
            "maxdate": "2015-11-01",
            "latitude": 43.4117,
            "name": "DULL CENTER 1 SE, WY US",
            "datacoverage": 0.9931,
            "id": "COOP:482725",
            "elevationUnit": "METERS",
            "longitude": -104.9614
        },
        {
            "elevation": 2135.1,
            "mindate": "1951-06-01",
            "maxdate": "1958-06-01",
            "latitude": 43.61667,
            "name": "DUNCAN, WY US",
            "datacoverage": 0.8942,
            "id": "COOP:482737",
            "elevationUnit": "METERS",
            "longitude": -109.4
        },
        {
            "elevation": 2122.9,
            "mindate": "1949-08-01",
            "maxdate": "1952-12-01",
            "latitude": 44.5,
            "name": "EAST GATE Y NATIONAL PARK, WY US",
            "datacoverage": 0.9991,
            "id": "COOP:482845",
            "elevationUnit": "METERS",
            "longitude": -110
        },
        {
            "elevation": 1219.2,
            "mindate": "1949-11-01",
            "maxdate": "2006-12-01",
            "latitude": 44.48278,
            "name": "ECHETA 2 NW, WY US",
            "datacoverage": 0.7755,
            "id": "COOP:482881",
            "elevationUnit": "METERS",
            "longitude": -105.89917
        },
        {
            "elevation": 2214.4,
            "mindate": "1931-01-01",
            "maxdate": "2012-12-01",
            "latitude": 41.6877,
            "name": "ELK MOUNTAIN, WY US",
            "datacoverage": 0.9675,
            "id": "COOP:482995",
            "elevationUnit": "METERS",
            "longitude": -106.4136
        },
        {
            "elevation": 1355.8,
            "mindate": "1949-08-01",
            "maxdate": "2015-11-01",
            "latitude": 44.4971,
            "name": "EMBLEM, WY US",
            "datacoverage": 0.9711,
            "id": "COOP:483031",
            "elevationUnit": "METERS",
            "longitude": -108.39057
        },
        {
            "elevation": 2250.9,
            "mindate": "1931-01-01",
            "maxdate": "1998-10-01",
            "latitude": 41.18333,
            "name": "ENCAMPMENT 10 ESE, WY US",
            "datacoverage": 0.9988,
            "id": "COOP:483045",
            "elevationUnit": "METERS",
            "longitude": -106.61667
        },
        {
            "elevation": 2222,
            "mindate": "1948-08-01",
            "maxdate": "2014-01-01",
            "latitude": 41.2058,
            "name": "ENCAMPMENT, WY US",
            "datacoverage": 0.9216,
            "id": "COOP:483050",
            "elevationUnit": "METERS",
            "longitude": -106.7883
        },
        {
            "elevation": 2073.9,
            "mindate": "1931-01-01",
            "maxdate": "1950-05-01",
            "latitude": 42.85,
            "name": "ERVAY, WY US",
            "datacoverage": 0.6739,
            "id": "COOP:483060",
            "elevationUnit": "METERS",
            "longitude": -107.35
        },
        {
            "elevation": 2030.9,
            "mindate": "1950-09-01",
            "maxdate": "1954-07-01",
            "latitude": 42.86667,
            "name": "ERVAY 3 NW, WY US",
            "datacoverage": 1,
            "id": "COOP:483064",
            "elevationUnit": "METERS",
            "longitude": -107.4
        },
        {
            "elevation": 1905.9,
            "mindate": "1952-05-01",
            "maxdate": "1958-06-01",
            "latitude": 42.41667,
            "name": "ESTERBROOK, WY US",
            "datacoverage": 1,
            "id": "COOP:483073",
            "elevationUnit": "METERS",
            "longitude": -105.36667
        },
        {
            "elevation": 2080.3,
            "mindate": "1898-05-01",
            "maxdate": "2015-11-01",
            "latitude": 41.265,
            "name": "EVANSTON 1 E, WY US",
            "datacoverage": 0.9653,
            "id": "COOP:483100",
            "elevationUnit": "METERS",
            "longitude": -110.9508
        },
        {
            "elevation": 2017.8,
            "mindate": "1931-01-01",
            "maxdate": "2015-11-01",
            "latitude": 42.13976,
            "name": "FARSON 2 NNE, WY US",
            "datacoverage": 0.842,
            "id": "COOP:483170",
            "elevationUnit": "METERS",
            "longitude": -109.43088
        },
        {
            "elevation": 1976.6,
            "mindate": "1963-07-01",
            "maxdate": "2015-11-01",
            "latitude": 41.98604,
            "name": "FONTENELLE DAM, WY US",
            "datacoverage": 0.9841,
            "id": "COOP:483396",
            "elevationUnit": "METERS",
            "longitude": -110.06113
        },
        {
            "elevation": 2140.9,
            "mindate": "1940-09-01",
            "maxdate": "1966-04-01",
            "latitude": 41.4,
            "name": "FORT BRIDGER AIRPORT, WY US",
            "datacoverage": 0.847,
            "id": "COOP:483430",
            "elevationUnit": "METERS",
            "longitude": -110.41667
        },
        {
            "elevation": 1452.1,
            "mindate": "1931-01-01",
            "maxdate": "1979-04-01",
            "latitude": 42.38333,
            "name": "FORT LARAMIE 11 NNW, WY US",
            "datacoverage": 0.9897,
            "id": "COOP:483490",
            "elevationUnit": "METERS",
            "longitude": -104.53333
        },
        {
            "elevation": 1692.9,
            "mindate": "1931-01-01",
            "maxdate": "1979-12-01",
            "latitude": 42.98333,
            "name": "FORT WASHAKIE 1 SE, WY US",
            "datacoverage": 0.9983,
            "id": "COOP:483570",
            "elevationUnit": "METERS",
            "longitude": -108.86667
        },
        {
            "elevation": 2068.1,
            "mindate": "1990-08-01",
            "maxdate": "2015-11-01",
            "latitude": 41.83684,
            "name": "FOSSIL BUTTE, WY US",
            "datacoverage": 0.9967,
            "id": "COOP:483582",
            "elevationUnit": "METERS",
            "longitude": -110.77045
        },
        {
            "elevation": 1769.1,
            "mindate": "1948-01-01",
            "maxdate": "1950-09-01",
            "latitude": 44.13333,
            "name": "FOUR CORNERS 5 NW, WY US",
            "datacoverage": 1,
            "id": "COOP:483614",
            "elevationUnit": "METERS",
            "longitude": -104.21667
        },
        {
            "elevation": 1656,
            "mindate": "1948-09-01",
            "maxdate": "1957-08-01",
            "latitude": 44.01667,
            "name": "FOUR CORNERS 5 S, WY US",
            "datacoverage": 1,
            "id": "COOP:483616",
            "elevationUnit": "METERS",
            "longitude": -104.16667
        },
        {
            "mindate": "1950-11-01",
            "maxdate": "1952-07-01",
            "latitude": 44.06667,
            "name": "FOUR CORNERS 6 WSW, WY US",
            "datacoverage": 1,
            "id": "COOP:483618",
            "longitude": -104.26667
        },
        {
            "elevation": 2763.6,
            "mindate": "1931-01-01",
            "maxdate": "1979-06-01",
            "latitude": 41.08333,
            "name": "FOXPARK, WY US",
            "datacoverage": 0.9228,
            "id": "COOP:483630",
            "elevationUnit": "METERS",
            "longitude": -106.15
        },
        {
            "elevation": 1296,
            "mindate": "1948-08-01",
            "maxdate": "1966-09-01",
            "latitude": 44.78333,
            "name": "GARLAND, WY US",
            "datacoverage": 0.9479,
            "id": "COOP:483770",
            "elevationUnit": "METERS",
            "longitude": -108.66667
        },
        {
            "elevation": 2080,
            "mindate": "1951-09-01",
            "maxdate": "1956-01-02",
            "latitude": 42.11667,
            "name": "GARRETT, WY US",
            "datacoverage": 0.5689,
            "id": "COOP:483784",
            "elevationUnit": "METERS",
            "longitude": -105.6
        },
        {
            "elevation": 2169,
            "mindate": "1956-05-01",
            "maxdate": "1958-06-25",
            "latitude": 42.13333,
            "name": "GARRETT 3 WNW, WY US",
            "datacoverage": 0.0258,
            "id": "COOP:483787",
            "elevationUnit": "METERS",
            "longitude": -105.65
        },
        {
            "elevation": 1972.1,
            "mindate": "1962-09-01",
            "maxdate": "2007-04-01",
            "latitude": 42.8394,
            "name": "GAS HILLS 4 E, WY US",
            "datacoverage": 0.9367,
            "id": "COOP:483801",
            "elevationUnit": "METERS",
            "longitude": -107.5133
        },
        {
            "elevation": 1414.3,
            "mindate": "1931-01-01",
            "maxdate": "2015-11-01",
            "latitude": 44.2666,
            "name": "GILLETTE 4 SE, WY US",
            "datacoverage": 0.9853,
            "id": "COOP:483855",
            "elevationUnit": "METERS",
            "longitude": -105.4489
        },
        {
            "elevation": 1478.9,
            "mindate": "1948-08-01",
            "maxdate": "1960-06-01",
            "latitude": 44.21667,
            "name": "GILLETTE 9 SW, WY US",
            "datacoverage": 0.6223,
            "id": "COOP:483860",
            "elevationUnit": "METERS",
            "longitude": -105.63333
        },
        {
            "elevation": 1495,
            "mindate": "1949-08-01",
            "maxdate": "1986-06-01",
            "latitude": 44.08333,
            "name": "GILLETTE 18 SW, WY US",
            "datacoverage": 0.9954,
            "id": "COOP:483865",
            "elevationUnit": "METERS",
            "longitude": -105.71667
        },
        {
            "elevation": 1449,
            "mindate": "1964-04-01",
            "maxdate": "1978-04-01",
            "latitude": 42.45,
            "name": "GLENDO 4 SW, WY US",
            "datacoverage": 0.9942,
            "id": "COOP:483930",
            "elevationUnit": "METERS",
            "longitude": -105.08333
        },
        {
            "elevation": 1444.4,
            "mindate": "2006-07-01",
            "maxdate": "2015-11-01",
            "latitude": 42.5283,
            "name": "GLENDO 6 NE, WY US",
            "datacoverage": 0.9467,
            "id": "COOP:483936",
            "elevationUnit": "METERS",
            "longitude": -104.9152
        },
        {
            "elevation": 1506.9,
            "mindate": "1963-12-01",
            "maxdate": "1966-10-01",
            "latitude": 42.46667,
            "name": "GLENDO 8 SW, WY US",
            "datacoverage": 0.0571,
            "id": "COOP:483940",
            "elevationUnit": "METERS",
            "longitude": -105.16667
        },
        {
            "elevation": 1508.2,
            "mindate": "1941-07-01",
            "maxdate": "2008-01-01",
            "latitude": 42.8266,
            "name": "GLENROCK 5 ESE, WY US",
            "datacoverage": 0.9636,
            "id": "COOP:483950",
            "elevationUnit": "METERS",
            "longitude": -105.7877
        },
        {
            "elevation": 1800.1,
            "mindate": "1949-11-01",
            "maxdate": "1950-05-01",
            "latitude": 42.73333,
            "name": "GLENROCK 12 SW, WY US",
            "datacoverage": 0.8585,
            "id": "COOP:483951",
            "elevationUnit": "METERS",
            "longitude": -106.01667
        },
        {
            "elevation": 1741.9,
            "mindate": "1948-09-01",
            "maxdate": "1953-12-01",
            "latitude": 43.1,
            "name": "GLENROCK 16 N, WY US",
            "datacoverage": 0.9844,
            "id": "COOP:483952",
            "elevationUnit": "METERS",
            "longitude": -105.83333
        },
        {
            "elevation": 1961.1,
            "mindate": "1949-11-01",
            "maxdate": "1987-06-01",
            "latitude": 42.66667,
            "name": "GLENROCK 14 SSE, WY US",
            "datacoverage": 0.9978,
            "id": "COOP:483960",
            "elevationUnit": "METERS",
            "longitude": -105.81667
        },
        {
            "elevation": 1705.1,
            "mindate": "1954-01-01",
            "maxdate": "1958-06-01",
            "latitude": 43.06667,
            "name": "GLENROCK 18 NE, WY US",
            "datacoverage": 1,
            "id": "COOP:483962",
            "elevationUnit": "METERS",
            "longitude": -105.65
        },
        {
            "elevation": 1617,
            "mindate": "1964-06-01",
            "maxdate": "1966-05-01",
            "latitude": 44.03333,
            "name": "GOOSEBERRY CREEK, WY US",
            "datacoverage": 0.6671,
            "id": "COOP:483972",
            "elevationUnit": "METERS",
            "longitude": -108.6
        },
        {
            "elevation": 1700.5,
            "mindate": "1949-07-01",
            "maxdate": "1990-03-01",
            "latitude": 43.95,
            "name": "GRASS CREEK, WY US",
            "datacoverage": 0.9162,
            "id": "COOP:484036",
            "elevationUnit": "METERS",
            "longitude": -108.65
        },
        {
            "elevation": 2208,
            "mindate": "1942-09-01",
            "maxdate": "1952-09-01",
            "latitude": 44.13333,
            "name": "GRASSY LAKE DAM, WY US",
            "datacoverage": 0.6859,
            "id": "COOP:484050",
            "elevationUnit": "METERS",
            "longitude": -110.83333
        },
        {
            "elevation": 1877.6,
            "mindate": "1931-01-01",
            "maxdate": "2015-11-01",
            "latitude": 41.51671,
            "name": "GREEN RIVER, WY US",
            "datacoverage": 0.9451,
            "id": "COOP:484065",
            "elevationUnit": "METERS",
            "longitude": -109.47017
        },
        {
            "elevation": 1154.3,
            "mindate": "1951-06-01",
            "maxdate": "2015-11-01",
            "latitude": 44.48934,
            "name": "GREYBULL, WY US",
            "datacoverage": 0.9289,
            "id": "COOP:484080",
            "elevationUnit": "METERS",
            "longitude": -108.05359
        },
        {
            "elevation": 1866.9,
            "mindate": "1931-01-01",
            "maxdate": "1957-04-01",
            "latitude": 42.75,
            "name": "GROVER 2 S, WY US",
            "datacoverage": 0.978,
            "id": "COOP:484095",
            "elevationUnit": "METERS",
            "longitude": -110.91667
        },
        {
            "elevation": 1373.1,
            "mindate": "1944-09-01",
            "maxdate": "1962-05-01",
            "latitude": 42.3,
            "name": "GUERNSEY DAM, WY US",
            "datacoverage": 0.9955,
            "id": "COOP:484125",
            "elevationUnit": "METERS",
            "longitude": -104.76667
        },
        {
            "elevation": 1327.4,
            "mindate": "1962-06-01",
            "maxdate": "2014-01-01",
            "latitude": 42.2905,
            "name": "GUERNSEY DAM NUMBER 2, WY US",
            "datacoverage": 1,
            "id": "COOP:484126",
            "elevationUnit": "METERS",
            "longitude": -104.7625
        },
        {
            "elevation": 2272,
            "mindate": "1951-07-01",
            "maxdate": "1955-12-01",
            "latitude": 43.71667,
            "name": "H M RANCH, WY US",
            "datacoverage": 0.9066,
            "id": "COOP:484169",
            "elevationUnit": "METERS",
            "longitude": -109.81667
        },
        {
            "elevation": 1709.9,
            "mindate": "1950-06-01",
            "maxdate": "2015-11-01",
            "latitude": 43.7731,
            "name": "HAMILTON DOME, WY US",
            "datacoverage": 0.0446,
            "id": "COOP:484205",
            "elevationUnit": "METERS",
            "longitude": -108.5727
        },
        {
            "elevation": 1263.1,
            "mindate": "1931-01-01",
            "maxdate": "1955-08-01",
            "latitude": 43.55,
            "name": "HAMPSHIRE 3 SW, WY US",
            "datacoverage": 0.9325,
            "id": "COOP:484225",
            "elevationUnit": "METERS",
            "longitude": -104.73333
        },
        {
            "elevation": 1314.9,
            "mindate": "1955-11-01",
            "maxdate": "1960-01-01",
            "latitude": 43.65,
            "name": "HAMPSHIRE 9 NE, WY US",
            "datacoverage": 0.9996,
            "id": "COOP:484230",
            "elevationUnit": "METERS",
            "longitude": -104.55
        },
        {
            "elevation": 1582.2,
            "mindate": "2009-08-01",
            "maxdate": "2010-08-01",
            "latitude": 42.42556,
            "name": "HARTVILLE 7 NNE, WY US",
            "datacoverage": 0.9992,
            "id": "COOP:484243",
            "elevationUnit": "METERS",
            "longitude": -104.69917
        },
        {
            "elevation": 1373.1,
            "mindate": "1948-09-01",
            "maxdate": "1967-08-01",
            "latitude": 42.93333,
            "name": "HAT CREEK, WY US",
            "datacoverage": 0.978,
            "id": "COOP:484300",
            "elevationUnit": "METERS",
            "longitude": -104.36667
        },
        {
            "elevation": 1335,
            "mindate": "1967-08-01",
            "maxdate": "1983-11-01",
            "latitude": 42.93333,
            "name": "HAT CREEK 5 E, WY US",
            "datacoverage": 0.9489,
            "id": "COOP:484303",
            "elevationUnit": "METERS",
            "longitude": -104.31667
        },
        {
            "mindate": "1948-09-01",
            "maxdate": "1950-06-01",
            "latitude": 42.93333,
            "name": "HAT CREEK 9 E, WY US",
            "datacoverage": 0.7746,
            "id": "COOP:484305",
            "longitude": -104.13333
        },
        {
            "elevation": 1318,
            "mindate": "1948-09-01",
            "maxdate": "1984-02-01",
            "latitude": 43.13333,
            "name": "HAT CREEK 14 N, WY US",
            "datacoverage": 0.9806,
            "id": "COOP:484310",
            "elevationUnit": "METERS",
            "longitude": -104.36667
        },
        {
            "elevation": 1275,
            "mindate": "1948-09-01",
            "maxdate": "1957-08-01",
            "latitude": 43.13333,
            "name": "HAT CREEK 15 NNE, WY US",
            "datacoverage": 0.889,
            "id": "COOP:484315",
            "elevationUnit": "METERS",
            "longitude": -104.23333
        },
        {
            "elevation": 1339,
            "mindate": "1938-08-01",
            "maxdate": "1947-06-01",
            "latitude": 41.78333,
            "name": "HAWK SPRINGS, WY US",
            "datacoverage": 0.7759,
            "id": "COOP:484360",
            "elevationUnit": "METERS",
            "longitude": -104.3
        },
        {
            "elevation": 1460,
            "mindate": "1942-12-01",
            "maxdate": "2008-06-01",
            "latitude": 44.7052,
            "name": "HEART MOUNTAIN, WY US",
            "datacoverage": 0.9327,
            "id": "COOP:484411",
            "elevationUnit": "METERS",
            "longitude": -108.9558
        },
        {
            "elevation": 2073.9,
            "mindate": "1931-01-01",
            "maxdate": "1979-03-01",
            "latitude": 41.15,
            "name": "HECLA, WY US",
            "datacoverage": 1,
            "id": "COOP:484440",
            "elevationUnit": "METERS",
            "longitude": -105.18333
        },
        {
            "elevation": 2039.1,
            "mindate": "1979-05-01",
            "maxdate": "2015-11-01",
            "latitude": 41.15,
            "name": "HECLA 1 E, WY US",
            "datacoverage": 0.9863,
            "id": "COOP:484442",
            "elevationUnit": "METERS",
            "longitude": -105.1667
        },
        {
            "elevation": 1830,
            "mindate": "1950-06-01",
            "maxdate": "1958-06-24",
            "latitude": 43.11667,
            "name": "HILAND, WY US",
            "datacoverage": 0.8982,
            "id": "COOP:484546",
            "elevationUnit": "METERS",
            "longitude": -107.33333
        },
        {
            "elevation": 1925.1,
            "mindate": "1955-12-01",
            "maxdate": "1978-02-01",
            "latitude": 41.45,
            "name": "HORSE CREEK 2 NW, WY US",
            "datacoverage": 0.9889,
            "id": "COOP:484700",
            "elevationUnit": "METERS",
            "longitude": -105.23333
        },
        {
            "elevation": 1966.9,
            "mindate": "1978-01-01",
            "maxdate": "1978-03-01",
            "latitude": 41.45,
            "name": "HORSE CREEK 5 NE, WY US",
            "datacoverage": 1,
            "id": "COOP:484705",
            "elevationUnit": "METERS",
            "longitude": -105.1
        },
        {
            "elevation": 2379,
            "mindate": "1968-08-01",
            "maxdate": "1983-05-01",
            "latitude": 43.66667,
            "name": "HORSE CREEK RANGER STATION, WY US",
            "datacoverage": 0.0039,
            "id": "COOP:484710",
            "elevationUnit": "METERS",
            "longitude": -109.63333
        },
        {
            "elevation": 1145.4,
            "mindate": "1941-07-01",
            "maxdate": "2015-11-01",
            "latitude": 44.6855,
            "name": "HULETT, WY US",
            "datacoverage": 0.7715,
            "id": "COOP:484760",
            "elevationUnit": "METERS",
            "longitude": -104.6027
        },
        {
            "elevation": 2257,
            "mindate": "1931-01-01",
            "maxdate": "1952-01-01",
            "latitude": 44.36667,
            "name": "HUNTERS STATION, WY US",
            "datacoverage": 0.8339,
            "id": "COOP:484770",
            "elevationUnit": "METERS",
            "longitude": -106.95
        },
        {
            "elevation": 1363.1,
            "mindate": "1949-08-01",
            "maxdate": "1958-06-24",
            "latitude": 44.25,
            "name": "HYATTVILLE, WY US",
            "datacoverage": 0.7311,
            "id": "COOP:484796",
            "elevationUnit": "METERS",
            "longitude": -107.58333
        },
        {
            "elevation": 1174.4,
            "mindate": "2007-04-01",
            "maxdate": "2015-11-01",
            "latitude": 44.7812,
            "name": "IML AIR SCIENCE, WY US",
            "datacoverage": 0.9998,
            "id": "COOP:484799",
            "elevationUnit": "METERS",
            "longitude": -106.9644
        },
        {
            "elevation": 1780,
            "mindate": "1951-07-01",
            "maxdate": "1958-08-01",
            "latitude": 44.3366,
            "name": "CODY 21 SW, WY US",
            "datacoverage": 0.9995,
            "id": "COOP:484885",
            "elevationUnit": "METERS",
            "longitude": -109.3913
        },
        {
            "elevation": 1892.8,
            "mindate": "1931-01-01",
            "maxdate": "2015-11-01",
            "latitude": 43.48629,
            "name": "JACKSON, WY US",
            "datacoverage": 0.9667,
            "id": "COOP:484910",
            "elevationUnit": "METERS",
            "longitude": -110.76153
        },
        {
            "elevation": 1406,
            "mindate": "1949-12-01",
            "maxdate": "1975-12-01",
            "latitude": 42.46667,
            "name": "JAY EM, WY US",
            "datacoverage": 0.9393,
            "id": "COOP:484920",
            "elevationUnit": "METERS",
            "longitude": -104.36667
        },
        {
            "elevation": 1926,
            "mindate": "1964-04-01",
            "maxdate": "2015-11-01",
            "latitude": 42.4942,
            "name": "JEFFREY CITY, WY US",
            "datacoverage": 0.7613,
            "id": "COOP:484925",
            "elevationUnit": "METERS",
            "longitude": -107.82908
        },
        {
            "elevation": 2310.4,
            "mindate": "1948-08-01",
            "maxdate": "2014-01-01",
            "latitude": 41.0599,
            "name": "JELM 2 S, WY US",
            "datacoverage": 0.9742,
            "id": "COOP:484930",
            "elevationUnit": "METERS",
            "longitude": -106.0263
        },
        {
            "elevation": 1628.9,
            "mindate": "1941-08-01",
            "maxdate": "1952-12-01",
            "latitude": 42.78333,
            "name": "JIREH, WY US",
            "datacoverage": 0.9706,
            "id": "COOP:484970",
            "elevationUnit": "METERS",
            "longitude": -104.7
        },
        {
            "elevation": 1110.1,
            "mindate": "1949-08-01",
            "maxdate": "1958-06-24",
            "latitude": 44.85,
            "name": "KANE, WY US",
            "datacoverage": 0.885,
            "id": "COOP:485021",
            "elevationUnit": "METERS",
            "longitude": -108.2
        },
        {
            "elevation": 1150,
            "mindate": "1951-11-01",
            "maxdate": "1958-04-01",
            "latitude": 44.83333,
            "name": "KANE 2 SW, WY US",
            "datacoverage": 0.9967,
            "id": "COOP:485026",
            "elevationUnit": "METERS",
            "longitude": -108.23333
        },
        {
            "elevation": 1420.4,
            "mindate": "1940-07-01",
            "maxdate": "2015-11-01",
            "latitude": 43.7144,
            "name": "KAYCEE, WY US",
            "datacoverage": 0.9945,
            "id": "COOP:485055",
            "elevationUnit": "METERS",
            "longitude": -106.6375
        },
        {
            "elevation": 1726.1,
            "mindate": "1949-11-01",
            "maxdate": "1958-06-01",
            "latitude": 43.76667,
            "name": "KAYCEE 17 WNW, WY US",
            "datacoverage": 0.9428,
            "id": "COOP:485060",
            "elevationUnit": "METERS",
            "longitude": -106.96667
        },
        {
            "elevation": 1659,
            "mindate": "1949-11-01",
            "maxdate": "1966-08-01",
            "latitude": 43.35,
            "name": "KAYCEE 26 SSW, WY US",
            "datacoverage": 1,
            "id": "COOP:485065",
            "elevationUnit": "METERS",
            "longitude": -106.76667
        },
        {
            "elevation": 1609.3,
            "mindate": "1953-05-01",
            "maxdate": "1987-02-01",
            "latitude": 42.76667,
            "name": "KEELINE 3 W, WY US",
            "datacoverage": 0.9976,
            "id": "COOP:485085",
            "elevationUnit": "METERS",
            "longitude": -104.78333
        },
        {
            "elevation": 1551.4,
            "mindate": "1987-03-01",
            "maxdate": "2005-07-01",
            "latitude": 42.5155,
            "name": "KEELINE 7 SW, WY US",
            "datacoverage": 0.9862,
            "id": "COOP:485088",
            "elevationUnit": "METERS",
            "longitude": -104.8719
        },
        {
            "elevation": 2114.4,
            "mindate": "1933-06-01",
            "maxdate": "2015-11-01",
            "latitude": 41.81814,
            "name": "KEMMERER 2 N, WY US",
            "datacoverage": 0.9788,
            "id": "COOP:485105",
            "elevationUnit": "METERS",
            "longitude": -110.53328
        },
        {
            "elevation": 2332.9,
            "mindate": "1931-01-01",
            "maxdate": "1976-07-01",
            "latitude": 43.16667,
            "name": "KENDALL, WY US",
            "datacoverage": 0.9799,
            "id": "COOP:485115",
            "elevationUnit": "METERS",
            "longitude": -109.98333
        },
        {
            "elevation": 1278,
            "mindate": "1949-10-01",
            "maxdate": "1959-01-01",
            "latitude": 44.38333,
            "name": "KEYHOLE DAM, WY US",
            "datacoverage": 0.9999,
            "id": "COOP:485137",
            "elevationUnit": "METERS",
            "longitude": -104.76667
        },
        {
            "elevation": 1524.9,
            "mindate": "1931-01-01",
            "maxdate": "1964-09-01",
            "latitude": 42.81667,
            "name": "LUSK 18 ENE, WY US",
            "datacoverage": 0.9902,
            "id": "COOP:485170",
            "elevationUnit": "METERS",
            "longitude": -104.11667
        },
        {
            "elevation": 2799.9,
            "mindate": "1969-01-01",
            "maxdate": "1975-09-01",
            "latitude": 43.9,
            "name": "KIRWIN, WY US",
            "datacoverage": 0.0062,
            "id": "COOP:485186",
            "elevationUnit": "METERS",
            "longitude": -109.28333
        },
        {
            "elevation": 1373.1,
            "mindate": "1931-01-01",
            "maxdate": "1943-04-01",
            "latitude": 44.75,
            "name": "KNOWLES, WY US",
            "datacoverage": 1,
            "id": "COOP:485226",
            "elevationUnit": "METERS",
            "longitude": -104.36667
        },
        {
            "elevation": 2011.1,
            "mindate": "1958-06-01",
            "maxdate": "2011-12-01",
            "latitude": 42.2644,
            "name": "LA BARGE, WY US",
            "datacoverage": 0.8491,
            "id": "COOP:485252",
            "elevationUnit": "METERS",
            "longitude": -110.195
        },
        {
            "elevation": 1399,
            "mindate": "1931-07-01",
            "maxdate": "2010-03-01",
            "latitude": 41.6377,
            "name": "LA GRANGE, WY US",
            "datacoverage": 0.9428,
            "id": "COOP:485260",
            "elevationUnit": "METERS",
            "longitude": -104.1669
        },
        {
            "elevation": 2405.5,
            "mindate": "1931-01-01",
            "maxdate": "2015-11-01",
            "latitude": 44.56211,
            "name": "LAKE YELLOWSTONE, WY US",
            "datacoverage": 0.9578,
            "id": "COOP:485345",
            "elevationUnit": "METERS",
            "longitude": -110.3986
        },
        {
            "elevation": 2004.1,
            "mindate": "1931-01-01",
            "maxdate": "2015-11-01",
            "latitude": 44.89553,
            "name": "LAMAR RANGER STATION, WY US",
            "datacoverage": 0.6045,
            "id": "COOP:485355",
            "elevationUnit": "METERS",
            "longitude": -110.23416
        },
        {
            "elevation": 1344.8,
            "mindate": "1948-09-01",
            "maxdate": "2014-01-01",
            "latitude": 43.0388,
            "name": "LANCE CREEK 1 W, WY US",
            "datacoverage": 0.8845,
            "id": "COOP:485371",
            "elevationUnit": "METERS",
            "longitude": -104.6633
        },
        {
            "elevation": 1323.1,
            "mindate": "1962-04-01",
            "maxdate": "1984-03-01",
            "latitude": 43.05,
            "name": "LANCE CREEK 3 WNW, WY US",
            "datacoverage": 0.981,
            "id": "COOP:485372",
            "elevationUnit": "METERS",
            "longitude": -104.7
        },
        {
            "elevation": 1275,
            "mindate": "1948-09-01",
            "maxdate": "1958-06-01",
            "latitude": 43.2,
            "name": "LANCE CREEK 10 N, WY US",
            "datacoverage": 0.975,
            "id": "COOP:485373",
            "elevationUnit": "METERS",
            "longitude": -104.65
        },
        {
            "elevation": 1281.4,
            "mindate": "2005-10-01",
            "maxdate": "2015-11-01",
            "latitude": 43.1827,
            "name": "LANCE CREEK 8 N, WY US",
            "datacoverage": 0.9755,
            "id": "COOP:485374",
            "elevationUnit": "METERS",
            "longitude": -104.6036
        },
        {
            "mindate": "1948-09-01",
            "maxdate": "1951-09-01",
            "latitude": 43,
            "name": "LANCE CREEK 12 WSW, WY US",
            "datacoverage": 0.974,
            "id": "COOP:485375",
            "longitude": -104.9
        },
        {
            "mindate": "1951-12-01",
            "maxdate": "1957-09-01",
            "latitude": 43.16667,
            "name": "LANCE CREEK 14 NW, WY US",
            "datacoverage": 0.9998,
            "id": "COOP:485376",
            "longitude": -104.85
        },
        {
            "elevation": 1255.8,
            "mindate": "1948-09-01",
            "maxdate": "1985-08-01",
            "latitude": 43.3,
            "name": "LANCE CREEK 18 N, WY US",
            "datacoverage": 0.7478,
            "id": "COOP:485377",
            "elevationUnit": "METERS",
            "longitude": -104.66667
        },
        {
            "elevation": 1704.4,
            "mindate": "1948-08-01",
            "maxdate": "2015-11-01",
            "latitude": 42.81538,
            "name": "LANDER AIRPORT, WY US",
            "datacoverage": 0.9925,
            "id": "COOP:485390",
            "elevationUnit": "METERS",
            "longitude": -108.72611
        },
        {
            "elevation": 1621.5,
            "mindate": "1999-09-01",
            "maxdate": "2015-11-01",
            "latitude": 42.84496,
            "name": "LANDER 1 N, WY US",
            "datacoverage": 0.9847,
            "id": "COOP:485392",
            "elevationUnit": "METERS",
            "longitude": -108.73721
        },
        {
            "elevation": 1723,
            "mindate": "1961-01-01",
            "maxdate": "1963-02-01",
            "latitude": 42.66667,
            "name": "LANDER 12 SSE, WY US",
            "datacoverage": 1,
            "id": "COOP:485400",
            "elevationUnit": "METERS",
            "longitude": -108.68333
        },
        {
            "elevation": 2186.9,
            "mindate": "1931-01-01",
            "maxdate": "1961-12-01",
            "latitude": 41.31667,
            "name": "LARAMIE 2, WY US",
            "datacoverage": 1,
            "id": "COOP:485410",
            "elevationUnit": "METERS",
            "longitude": -105.58333
        },
        {
            "elevation": 2186.9,
            "mindate": "1962-01-01",
            "maxdate": "1976-02-01",
            "latitude": 41.31667,
            "name": "LARAMIE 2, WY US",
            "datacoverage": 0.9767,
            "id": "COOP:485411",
            "elevationUnit": "METERS",
            "longitude": -105.58333
        },
        {
            "elevation": 2214.7,
            "mindate": "1940-11-01",
            "maxdate": "2015-11-01",
            "latitude": 41.3167,
            "name": "LARAMIE AIRPORT, WY US",
            "datacoverage": 0.9346,
            "id": "COOP:485415",
            "elevationUnit": "METERS",
            "longitude": -105.6833
        },
        {
            "elevation": 2182.1,
            "mindate": "2011-01-01",
            "maxdate": "2014-01-01",
            "latitude": 41.2975,
            "name": "LARAMIE 2 WSW SITE 2, WY US",
            "datacoverage": 0.9998,
            "id": "COOP:485416",
            "elevationUnit": "METERS",
            "longitude": -105.6241
        },
        {
            "elevation": 2252.5,
            "mindate": "2009-03-01",
            "maxdate": "2015-11-01",
            "latitude": 41.2847,
            "name": "LARAMIE 4 SE, WY US",
            "datacoverage": 0.9998,
            "id": "COOP:485417",
            "elevationUnit": "METERS",
            "longitude": -105.5319
        },
        {
            "elevation": 2186.9,
            "mindate": "1948-08-01",
            "maxdate": "2010-06-01",
            "latitude": 41.3041,
            "name": "LARAMIE 2 WSW, WY US",
            "datacoverage": 1,
            "id": "COOP:485420",
            "elevationUnit": "METERS",
            "longitude": -105.6408
        },
        {
            "elevation": 2308.9,
            "mindate": "1955-12-01",
            "maxdate": "1958-04-01",
            "latitude": 41.06667,
            "name": "LARAMIE 18 SSW, WY US",
            "datacoverage": 0.9649,
            "id": "COOP:485430",
            "elevationUnit": "METERS",
            "longitude": -105.65
        },
        {
            "elevation": 2176.3,
            "mindate": "1966-05-01",
            "maxdate": "2015-11-01",
            "latitude": 41.34002,
            "name": "LARAMIE 2 NW, WY US",
            "datacoverage": 0.9378,
            "id": "COOP:485435",
            "elevationUnit": "METERS",
            "longitude": -105.60647
        },
        {
            "elevation": 1473.1,
            "mindate": "1948-09-01",
            "maxdate": "1957-08-01",
            "latitude": 43.86667,
            "name": "LAWVER, WY US",
            "datacoverage": 0.9908,
            "id": "COOP:485465",
            "elevationUnit": "METERS",
            "longitude": -105.23333
        },
        {
            "elevation": 1495,
            "mindate": "1941-08-01",
            "maxdate": "1978-05-01",
            "latitude": 43.76667,
            "name": "LAWVER 10 SW, WY US",
            "datacoverage": 0.8281,
            "id": "COOP:485467",
            "elevationUnit": "METERS",
            "longitude": -105.38333
        },
        {
            "elevation": 1238.1,
            "mindate": "1950-11-01",
            "maxdate": "1958-06-01",
            "latitude": 44.25,
            "name": "LEATH RANCH, WY US",
            "datacoverage": 0.9896,
            "id": "COOP:485486",
            "elevationUnit": "METERS",
            "longitude": -106.1
        },
        {
            "elevation": 1268,
            "mindate": "1964-09-01",
            "maxdate": "2015-11-01",
            "latitude": 44.85,
            "name": "LEITER 9 N, WY US",
            "datacoverage": 0.9919,
            "id": "COOP:485506",
            "elevationUnit": "METERS",
            "longitude": -106.2888
        },
        {
            "elevation": 1839.5,
            "mindate": "1931-01-01",
            "maxdate": "2015-11-01",
            "latitude": 42.1952,
            "name": "LEO 6 SW, WY US",
            "datacoverage": 0.9882,
            "id": "COOP:485525",
            "elevationUnit": "METERS",
            "longitude": -106.8555
        },
        {
            "elevation": 1513,
            "mindate": "1961-09-01",
            "maxdate": "1975-02-01",
            "latitude": 43.55,
            "name": "LINCH 10 ESE, WY US",
            "datacoverage": 0.8275,
            "id": "COOP:485581",
            "elevationUnit": "METERS",
            "longitude": -106.01667
        },
        {
            "elevation": 1267.4,
            "mindate": "1952-04-01",
            "maxdate": "2015-11-01",
            "latitude": 42.1298,
            "name": "LINGLE 2 WSW, WY US",
            "datacoverage": 0.5759,
            "id": "COOP:485612",
            "elevationUnit": "METERS",
            "longitude": -104.3899
        },
        {
            "elevation": 2239.1,
            "mindate": "1948-08-01",
            "maxdate": "1961-07-01",
            "latitude": 42.43333,
            "name": "LITTLE MEDICINE 4 NN, WY US",
            "datacoverage": 0.7636,
            "id": "COOP:485685",
            "elevationUnit": "METERS",
            "longitude": -106.03333
        },
        {
            "elevation": 2301.8,
            "mindate": "1993-11-01",
            "maxdate": "2010-08-01",
            "latitude": 41.0547,
            "name": "LONETREE NUMBER 1, WY US",
            "datacoverage": 0.9902,
            "id": "COOP:485703",
            "elevationUnit": "METERS",
            "longitude": -110.1541
        },
        {
            "elevation": 2126,
            "mindate": "1933-02-01",
            "maxdate": "1965-07-01",
            "latitude": 41.83333,
            "name": "LOOKOUT 14 NE, WY US",
            "datacoverage": 0.8847,
            "id": "COOP:485720",
            "elevationUnit": "METERS",
            "longitude": -105.63333
        },
        {
            "elevation": 1650.5,
            "mindate": "1961-11-01",
            "maxdate": "1982-09-01",
            "latitude": 43.28333,
            "name": "LOST CABIN, WY US",
            "datacoverage": 0.9483,
            "id": "COOP:485734",
            "elevationUnit": "METERS",
            "longitude": -107.63333
        },
        {
            "elevation": 1172.6,
            "mindate": "1931-01-01",
            "maxdate": "2015-11-01",
            "latitude": 44.83772,
            "name": "LOVELL, WY US",
            "datacoverage": 0.9902,
            "id": "COOP:485770",
            "elevationUnit": "METERS",
            "longitude": -108.404
        },
        {
            "elevation": 1189.9,
            "mindate": "1943-06-01",
            "maxdate": "1956-12-01",
            "latitude": 44.5,
            "name": "LOWER CRAZY WOMAN CR, WY US",
            "datacoverage": 0.9936,
            "id": "COOP:485780",
            "elevationUnit": "METERS",
            "longitude": -106.18333
        },
        {
            "elevation": 1551.4,
            "mindate": "1931-01-01",
            "maxdate": "2007-11-01",
            "latitude": 42.7505,
            "name": "LUSK 2 SW, WY US",
            "datacoverage": 0.9112,
            "id": "COOP:485830",
            "elevationUnit": "METERS",
            "longitude": -104.4811
        },
        {
            "elevation": 1524.9,
            "mindate": "1964-10-01",
            "maxdate": "1968-03-01",
            "latitude": 42.81667,
            "name": "LUSK 18 ENE, WY US",
            "datacoverage": 0.9765,
            "id": "COOP:485832",
            "elevationUnit": "METERS",
            "longitude": -104.11667
        },
        {
            "elevation": 1260.7,
            "mindate": "2003-04-01",
            "maxdate": "2015-11-01",
            "latitude": 42.9366,
            "name": "LUSK 25 NE, WY US",
            "datacoverage": 0.9473,
            "id": "COOP:485833",
            "elevationUnit": "METERS",
            "longitude": -104.0669
        },
        {
            "elevation": 2044,
            "mindate": "1931-02-01",
            "maxdate": "1960-04-01",
            "latitude": 41.33333,
            "name": "LYMAN, WY US",
            "datacoverage": 0.4971,
            "id": "COOP:485836",
            "elevationUnit": "METERS",
            "longitude": -110.3
        },
        {
            "elevation": 1603.9,
            "mindate": "1949-07-01",
            "maxdate": "1961-05-01",
            "latitude": 43.26667,
            "name": "LYSITE, WY US",
            "datacoverage": 0.979,
            "id": "COOP:485843",
            "elevationUnit": "METERS",
            "longitude": -107.7
        },
        {
            "elevation": 1708.1,
            "mindate": "1950-08-01",
            "maxdate": "1954-11-01",
            "latitude": 43.43333,
            "name": "LYSITE 12 NNW, WY US",
            "datacoverage": 0.8952,
            "id": "COOP:485850",
            "elevationUnit": "METERS",
            "longitude": -107.71667
        },
        {
            "elevation": 1969.9,
            "mindate": "1950-06-01",
            "maxdate": "1954-04-01",
            "latitude": 43.58333,
            "name": "MAIL CAMP, WY US",
            "datacoverage": 0.8649,
            "id": "COOP:485878",
            "elevationUnit": "METERS",
            "longitude": -108.85
        },
        {
            "elevation": 2137.9,
            "mindate": "1931-01-01",
            "maxdate": "1959-02-01",
            "latitude": 42.21667,
            "name": "MARSHALL 7 SW, WY US",
            "datacoverage": 0.9262,
            "id": "COOP:486000",
            "elevationUnit": "METERS",
            "longitude": -105.93333
        },
        {
            "elevation": 1592,
            "mindate": "1949-11-01",
            "maxdate": "1958-06-24",
            "latitude": 43.83333,
            "name": "MAYOWORTH, WY US",
            "datacoverage": 0.8944,
            "id": "COOP:486075",
            "elevationUnit": "METERS",
            "longitude": -106.78333
        },
        {
            "elevation": 2199.1,
            "mindate": "1949-12-01",
            "maxdate": "1958-06-01",
            "latitude": 41.65,
            "name": "MCFADDEN, WY US",
            "datacoverage": 0.8935,
            "id": "COOP:486081",
            "elevationUnit": "METERS",
            "longitude": -106.13333
        },
        {
            "elevation": 2022.3,
            "mindate": "1947-12-01",
            "maxdate": "2015-11-01",
            "latitude": 41.897,
            "name": "MEDICINE BOW, WY US",
            "datacoverage": 0.8836,
            "id": "COOP:486120",
            "elevationUnit": "METERS",
            "longitude": -106.206
        },
        {
            "elevation": 2117.1,
            "mindate": "1959-07-01",
            "maxdate": "1963-05-01",
            "latitude": 42.16667,
            "name": "MEDICINE BOW 16 N, WY US",
            "datacoverage": 0.9783,
            "id": "COOP:486122",
            "elevationUnit": "METERS",
            "longitude": -106.26667
        },
        {
            "elevation": 2005.9,
            "mindate": "2006-12-01",
            "maxdate": "2014-01-01",
            "latitude": 41.8998,
            "name": "MEDICINE BOW F AND P, WY US",
            "datacoverage": 0.0092,
            "id": "COOP:486132",
            "elevationUnit": "METERS",
            "longitude": -106.2059
        },
        {
            "elevation": 1777.9,
            "mindate": "1948-08-01",
            "maxdate": "1976-12-01",
            "latitude": 44.15,
            "name": "MEETEETSE 1 ESE, WY US",
            "datacoverage": 1,
            "id": "COOP:486140",
            "elevationUnit": "METERS",
            "longitude": -108.85
        },
        {
            "elevation": 1751.1,
            "mindate": "1976-10-01",
            "maxdate": "1982-02-01",
            "latitude": 44.15,
            "name": "MEETEETSE 2, WY US",
            "datacoverage": 0.0078,
            "id": "COOP:486145",
            "elevationUnit": "METERS",
            "longitude": -108.88333
        },
        {
            "elevation": 2346.4,
            "mindate": "1963-10-01",
            "maxdate": "1988-06-01",
            "latitude": 42.95,
            "name": "MERNA, WY US",
            "datacoverage": 1,
            "id": "COOP:486165",
            "elevationUnit": "METERS",
            "longitude": -110.36667
        },
        {
            "elevation": 1610,
            "mindate": "1939-05-01",
            "maxdate": "1962-03-01",
            "latitude": 44.21667,
            "name": "METZ RANCH, WY US",
            "datacoverage": 0.9926,
            "id": "COOP:486175",
            "elevationUnit": "METERS",
            "longitude": -106.75
        },
        {
            "elevation": 1915.1,
            "mindate": "1931-01-01",
            "maxdate": "1955-12-31",
            "latitude": 42.75,
            "name": "MIDDLE FORK, WY US",
            "datacoverage": 1,
            "id": "COOP:486185",
            "elevationUnit": "METERS",
            "longitude": -108.8
        },
        {
            "elevation": 1481.3,
            "mindate": "1931-01-01",
            "maxdate": "2015-11-01",
            "latitude": 43.41316,
            "name": "MIDWEST, WY US",
            "datacoverage": 0.9539,
            "id": "COOP:486195",
            "elevationUnit": "METERS",
            "longitude": -106.27727
        },
        {
            "mindate": "1948-08-01",
            "maxdate": "1958-11-01",
            "latitude": 43.5,
            "name": "MIDWEST 6 N, WY US",
            "datacoverage": 1,
            "id": "COOP:486200",
            "longitude": -106.26667
        },
        {
            "elevation": 1681,
            "mindate": "1950-06-01",
            "maxdate": "1950-07-29",
            "latitude": 43.16667,
            "name": "MONETA 2 NNE, WY US",
            "datacoverage": 0.9819,
            "id": "COOP:486381",
            "elevationUnit": "METERS",
            "longitude": -107.7
        },
        {
            "mindate": "1953-08-01",
            "maxdate": "1955-10-01",
            "latitude": 42.86667,
            "name": "MONETA 21 SSE, WY US",
            "datacoverage": 0.0055,
            "id": "COOP:486382",
            "longitude": -107.6
        },
        {
            "mindate": "1950-08-01",
            "maxdate": "1953-09-01",
            "latitude": 42.8,
            "name": "MONETA 25 S, WY US",
            "datacoverage": 0.5413,
            "id": "COOP:486383",
            "longitude": -107.71667
        },
        {
            "elevation": 1318.3,
            "mindate": "1933-07-01",
            "maxdate": "2014-01-01",
            "latitude": 44.2169,
            "name": "MOORCROFT 3 S, WY US",
            "datacoverage": 0.7681,
            "id": "COOP:486395",
            "elevationUnit": "METERS",
            "longitude": -104.9291
        },
        {
            "elevation": 1286.9,
            "mindate": "1948-08-01",
            "maxdate": "1948-10-29",
            "latitude": 44.26667,
            "name": "MOORCROFT 2, WY US",
            "datacoverage": 0.998,
            "id": "COOP:486410",
            "elevationUnit": "METERS",
            "longitude": -104.93333
        },
        {
            "elevation": 1327.1,
            "mindate": "1949-12-01",
            "maxdate": "1950-04-29",
            "latitude": 44.03333,
            "name": "MOORCROFT 16 S, WY US",
            "datacoverage": 0.9819,
            "id": "COOP:486415",
            "elevationUnit": "METERS",
            "longitude": -104.96667
        },
        {
            "elevation": 1964.1,
            "mindate": "1958-12-01",
            "maxdate": "2015-11-01",
            "latitude": 43.65358,
            "name": "MOOSE, WY US",
            "datacoverage": 0.9839,
            "id": "COOP:486428",
            "elevationUnit": "METERS",
            "longitude": -110.71681
        },
        {
            "elevation": 2022,
            "mindate": "1935-10-01",
            "maxdate": "1958-12-01",
            "latitude": 43.7,
            "name": "MOOSE 3 NW, WY US",
            "datacoverage": 0.9963,
            "id": "COOP:486430",
            "elevationUnit": "METERS",
            "longitude": -110.73333
        },
        {
            "elevation": 2074.2,
            "mindate": "1931-01-01",
            "maxdate": "2015-11-01",
            "latitude": 43.85664,
            "name": "MORAN 5 WNW, WY US",
            "datacoverage": 0.9873,
            "id": "COOP:486440",
            "elevationUnit": "METERS",
            "longitude": -110.58876
        },
        {
            "elevation": 1250.9,
            "mindate": "1941-08-01",
            "maxdate": "1978-12-01",
            "latitude": 43.51667,
            "name": "MORRISEY, WY US",
            "datacoverage": 0.9911,
            "id": "COOP:486450",
            "elevationUnit": "METERS",
            "longitude": -104.33333
        },
        {
            "elevation": 2179.9,
            "mindate": "1949-07-01",
            "maxdate": "1958-06-24",
            "latitude": 43.51667,
            "name": "MORTON 28 NW, WY US",
            "datacoverage": 0.642,
            "id": "COOP:486465",
            "elevationUnit": "METERS",
            "longitude": -109.06667
        },
        {
            "elevation": 1674,
            "mindate": "1949-07-01",
            "maxdate": "1968-12-01",
            "latitude": 43.21667,
            "name": "MORTON 1 NW, WY US",
            "datacoverage": 0.9998,
            "id": "COOP:486470",
            "elevationUnit": "METERS",
            "longitude": -108.78333
        },
        {
            "elevation": 2072.6,
            "mindate": "1966-03-01",
            "maxdate": "2015-11-01",
            "latitude": 41.26587,
            "name": "MOUNTAIN VIEW, WY US",
            "datacoverage": 0.9882,
            "id": "COOP:486555",
            "elevationUnit": "METERS",
            "longitude": -110.33747
        },
        {
            "elevation": 1904.4,
            "mindate": "1949-11-01",
            "maxdate": "2008-01-01",
            "latitude": 42.3627,
            "name": "MUDDY GAP, WY US",
            "datacoverage": 0.9184,
            "id": "COOP:486595",
            "elevationUnit": "METERS",
            "longitude": -107.4444
        },
        {
            "elevation": 2053.1,
            "mindate": "1953-05-01",
            "maxdate": "2014-01-01",
            "latitude": 41.3185,
            "name": "MUD SPRINGS, WY US",
            "datacoverage": 0.0159,
            "id": "COOP:486597",
            "elevationUnit": "METERS",
            "longitude": -108.91764
        },
        {
            "elevation": 1257,
            "mindate": "1948-09-01",
            "maxdate": "1984-03-01",
            "latitude": 43.35,
            "name": "MULE CREEK, WY US",
            "datacoverage": 0.9422,
            "id": "COOP:486600",
            "elevationUnit": "METERS",
            "longitude": -104.11667
        },
        {
            "elevation": 1155.2,
            "mindate": "1996-12-01",
            "maxdate": "2010-10-01",
            "latitude": 43.3836,
            "name": "MULE CREEK JCT, WY US",
            "datacoverage": 0.9362,
            "id": "COOP:486603",
            "elevationUnit": "METERS",
            "longitude": -104.2302
        },
        {
            "elevation": 1345.7,
            "mindate": "1931-01-01",
            "maxdate": "2015-11-01",
            "latitude": 43.8497,
            "name": "NEWCASTLE, WY US",
            "datacoverage": 0.9912,
            "id": "COOP:486660",
            "elevationUnit": "METERS",
            "longitude": -104.1886
        },
        {
            "elevation": 1260,
            "mindate": "1948-10-01",
            "maxdate": "1958-06-01",
            "latitude": 43.83333,
            "name": "NEWCASTLE 14 W, WY US",
            "datacoverage": 0.9661,
            "id": "COOP:486662",
            "elevationUnit": "METERS",
            "longitude": -104.48333
        },
        {
            "elevation": 1207.9,
            "mindate": "1948-09-01",
            "maxdate": "1958-06-01",
            "latitude": 43.66667,
            "name": "NEWCASTLE 15 SSE, WY US",
            "datacoverage": 0.9835,
            "id": "COOP:486664",
            "elevationUnit": "METERS",
            "longitude": -104.13333
        },
        {
            "elevation": 1485,
            "mindate": "1931-01-01",
            "maxdate": "1960-12-01",
            "latitude": 43.81667,
            "name": "NINE MILE CREEK, WY US",
            "datacoverage": 0.9972,
            "id": "COOP:486680",
            "elevationUnit": "METERS",
            "longitude": -106.48333
        },
        {
            "elevation": 2240.6,
            "mindate": "1934-09-01",
            "maxdate": "2015-11-01",
            "latitude": 44.45684,
            "name": "OLD FAITHFUL, WY US",
            "datacoverage": 0.5169,
            "id": "COOP:486845",
            "elevationUnit": "METERS",
            "longitude": -110.83269
        },
        {
            "elevation": 1295.4,
            "mindate": "1989-12-01",
            "maxdate": "2015-11-01",
            "latitude": 42.2058,
            "name": "OLD FORT LARAMIE, WY US",
            "datacoverage": 0.9776,
            "id": "COOP:486852",
            "elevationUnit": "METERS",
            "longitude": -104.5561
        },
        {
            "elevation": 1994.6,
            "mindate": "1948-08-01",
            "maxdate": "2014-01-01",
            "latitude": 42.53933,
            "name": "OREGON TRAIL CROSSING, WY US",
            "datacoverage": 0.8952,
            "id": "COOP:486875",
            "elevationUnit": "METERS",
            "longitude": -108.18719
        },
        {
            "elevation": 1316.7,
            "mindate": "1948-09-01",
            "maxdate": "2014-01-01",
            "latitude": 43.9781,
            "name": "OSAGE, WY US",
            "datacoverage": 0.7917,
            "id": "COOP:486935",
            "elevationUnit": "METERS",
            "longitude": -104.4194
        },
        {
            "mindate": "1948-10-01",
            "maxdate": "1949-09-01",
            "latitude": 43.95,
            "name": "OSAGE 8 WSW, WY US",
            "datacoverage": 1,
            "id": "COOP:486937",
            "longitude": -104.55
        },
        {
            "mindate": "1948-09-01",
            "maxdate": "1949-12-01",
            "latitude": 44.1,
            "name": "OSAGE 9 NNE, WY US",
            "datacoverage": 0.875,
            "id": "COOP:486939",
            "longitude": -104.35
        },
        {
            "elevation": 1478.9,
            "mindate": "1950-05-01",
            "maxdate": "1958-06-01",
            "latitude": 44.13333,
            "name": "OSAGE 10 NNE, WY US",
            "datacoverage": 1,
            "id": "COOP:486941",
            "elevationUnit": "METERS",
            "longitude": -104.38333
        },
        {
            "elevation": 1257,
            "mindate": "1951-05-01",
            "maxdate": "1958-06-01",
            "latitude": 44.58333,
            "name": "OSHOTO, WY US",
            "datacoverage": 0.8255,
            "id": "COOP:486952",
            "elevationUnit": "METERS",
            "longitude": -104.93333
        },
        {
            "elevation": 1219.5,
            "mindate": "1969-01-01",
            "maxdate": "1981-10-01",
            "latitude": 44.78333,
            "name": "OSHOTO 15 NW, WY US",
            "datacoverage": 0.9871,
            "id": "COOP:486960",
            "elevationUnit": "METERS",
            "longitude": -105.08333
        },