{
    "metadata": {
        "resultset": {
            "offset": 1,
            "count": 1248,
            "limit": 1000
        }
    },
    "results": [
        {
            "elevation": 1948.6,
            "mindate": "1931-01-01",
            "maxdate": "2015-11-01",
            "latitude": 40.99,
            "name": "MANILA, UT US",
            "datacoverage": 0.7174,
            "id": "COOP:425377",
            "elevationUnit": "METERS",
            "longitude": -109.7258
        },
        {
            "elevation": 1904.4,
            "mindate": "1957-06-01",
            "maxdate": "2015-11-01",
            "latitude": 42.73303,
            "name": "AFTON, WY US",
            "datacoverage": 0.9416,
            "id": "COOP:480027",
            "elevationUnit": "METERS",
            "longitude": -110.92168
        },
        {
            "elevation": 1629.2,
            "mindate": "1941-02-01",
            "maxdate": "2009-06-01",
            "latitude": 41.4,
            "name": "ALBIN, WY US",
            "datacoverage": 0.994,
            "id": "COOP:480080",
            "elevationUnit": "METERS",
            "longitude": -104.1016
        },
        {
            "elevation": 1630.7,
            "mindate": "2010-11-01",
            "maxdate": "2012-12-01",
            "latitude": 41.4197,
            "name": "ALBIN NUMBER 2, WY US",
            "datacoverage": 0.9992,
            "id": "COOP:480082",
            "elevationUnit": "METERS",
            "longitude": -104.1011
        },
        {
            "elevation": 2094,
            "mindate": "1962-04-01",
            "maxdate": "1987-01-01",
            "latitude": 42.73333,
            "name": "ALCOVA 17 NW, WY US",
            "datacoverage": 0.8891,
            "id": "COOP:480091",
            "elevationUnit": "METERS",
            "longitude": -107.01667
        },
        {
            "elevation": 1962.9,
            "mindate": "1931-01-01",
            "maxdate": "2015-11-01",
            "latitude": 43.7727,
            "name": "ALTA 1 NNW, WY US",
            "datacoverage": 0.9951,
            "id": "COOP:480140",
            "elevationUnit": "METERS",
            "longitude": -111.0338
        },
        {
            "elevation": 1338.1,
            "mindate": "1946-08-01",
            "maxdate": "2001-11-01",
            "latitude": 44.65222,
            "name": "ALVA 5 ESE, WY US",
            "datacoverage": 0.7394,
            "id": "COOP:480200",
            "elevationUnit": "METERS",
            "longitude": -104.34917
        },
        {
            "elevation": 1219.2,
            "mindate": "1987-02-01",
            "maxdate": "1996-10-01",
            "latitude": 44.7,
            "name": "ALVA, WY US",
            "datacoverage": 1,
            "id": "COOP:480206",
            "elevationUnit": "METERS",
            "longitude": -104.43333
        },
        {
            "elevation": 1969.9,
            "mindate": "1961-04-01",
            "maxdate": "1979-12-01",
            "latitude": 43.66667,
            "name": "ANCHOR DAM, WY US",
            "datacoverage": 0.9955,
            "id": "COOP:480228",
            "elevationUnit": "METERS",
            "longitude": -108.83333
        },
        {
            "elevation": 1577.6,
            "mindate": "1966-09-01",
            "maxdate": "1982-08-01",
            "latitude": 43.43333,
            "name": "ANTELOPE SPRINGS, WY US",
            "datacoverage": 0.9531,
            "id": "COOP:480237",
            "elevationUnit": "METERS",
            "longitude": -106.58333
        },
        {
            "elevation": 1831.8,
            "mindate": "1931-01-01",
            "maxdate": "2005-09-01",
            "latitude": 41.15167,
            "name": "ARCHER, WY US",
            "datacoverage": 0.9989,
            "id": "COOP:480270",
            "elevationUnit": "METERS",
            "longitude": -104.6575
        },
        {
            "elevation": 1135.1,
            "mindate": "1977-11-01",
            "maxdate": "1978-06-01",
            "latitude": 44.63333,
            "name": "ARVADA 2 SE, WY US",
            "datacoverage": 0.876,
            "id": "COOP:480377",
            "elevationUnit": "METERS",
            "longitude": -106.11667
        },
        {
            "elevation": 1122,
            "mindate": "1936-04-01",
            "maxdate": "1977-02-01",
            "latitude": 44.7,
            "name": "ARVADA 3 N, WY US",
            "datacoverage": 0.9288,
            "id": "COOP:480380",
            "elevationUnit": "METERS",
            "longitude": -106.1
        },
        {
            "elevation": 2383.8,
            "mindate": "2012-01-01",
            "maxdate": "2015-11-01",
            "latitude": 42.50071,
            "name": "ATLANTIC CITY, WY US",
            "datacoverage": 1,
            "id": "COOP:480432",
            "elevationUnit": "METERS",
            "longitude": -108.73387
        },
        {
            "elevation": 2499.4,
            "mindate": "1963-05-01",
            "maxdate": "1984-12-01",
            "latitude": 42.53333,
            "name": "ATLANTIC CITY ORE MINE, WY US",
            "datacoverage": 0.9113,
            "id": "COOP:480443",
            "elevationUnit": "METERS",
            "longitude": -108.76667
        },
        {
            "elevation": 1926,
            "mindate": "1979-05-01",
            "maxdate": "2015-11-01",
            "latitude": 41.0383,
            "name": "BAGGS, WY US",
            "datacoverage": 0.9863,
            "id": "COOP:480484",
            "elevationUnit": "METERS",
            "longitude": -107.6577
        },
        {
            "elevation": 1170.4,
            "mindate": "1931-01-01",
            "maxdate": "2015-11-01",
            "latitude": 44.37985,
            "name": "BASIN, WY US",
            "datacoverage": 0.9902,
            "id": "COOP:480540",
            "elevationUnit": "METERS",
            "longitude": -108.03495
        },
        {
            "elevation": 1841.6,
            "mindate": "1969-05-01",
            "maxdate": "2015-11-01",
            "latitude": 42.62336,
            "name": "BATES CREEK NUMBER 2, WY US",
            "datacoverage": 0.9964,
            "id": "COOP:480552",
            "elevationUnit": "METERS",
            "longitude": -106.35659
        },
        {
            "elevation": 1960.5,
            "mindate": "1931-01-01",
            "maxdate": "2015-11-01",
            "latitude": 44.14976,
            "name": "BECHLER RIVER RANGER STATION, WY US",
            "datacoverage": 0.2816,
            "id": "COOP:480585",
            "elevationUnit": "METERS",
            "longitude": -111.04599
        },
        {
            "elevation": 1937,
            "mindate": "1975-06-01",
            "maxdate": "2015-11-01",
            "latitude": 42.87311,
            "name": "BEDFORD 3 SE, WY US",
            "datacoverage": 0.9815,
            "id": "COOP:480603",
            "elevationUnit": "METERS",
            "longitude": -110.90691
        },
        {
            "elevation": 1830,
            "mindate": "1965-10-01",
            "maxdate": "1970-03-01",
            "latitude": 44.35,
            "name": "BELKNAP RANCH, WY US",
            "datacoverage": 1,
            "id": "COOP:480614",
            "elevationUnit": "METERS",
            "longitude": -109.35
        },
        {
            "elevation": 1282.6,
            "mindate": "1949-11-01",
            "maxdate": "2015-11-01",
            "latitude": 44.6828,
            "name": "BIG HORN, WY US",
            "datacoverage": 0.2812,
            "id": "COOP:480680",
            "elevationUnit": "METERS",
            "longitude": -107.0089
        },
        {
            "elevation": 2083.3,
            "mindate": "1938-01-01",
            "maxdate": "2015-11-01",
            "latitude": 42.5414,
            "name": "BIG PINEY, WY US",
            "datacoverage": 0.7551,
            "id": "COOP:480695",
            "elevationUnit": "METERS",
            "longitude": -110.1252
        },
        {
            "elevation": 2079.3,
            "mindate": "1992-11-01",
            "maxdate": "2014-01-01",
            "latitude": 42.5364,
            "name": "BIG PINEY UP AND L, WY US",
            "datacoverage": 0.0094,
            "id": "COOP:480697",
            "elevationUnit": "METERS",
            "longitude": -110.11271
        },
        {
            "elevation": 1437.1,
            "mindate": "1948-09-01",
            "maxdate": "1978-10-01",
            "latitude": 43.25,
            "name": "BILL, WY US",
            "datacoverage": 0.8895,
            "id": "COOP:480725",
            "elevationUnit": "METERS",
            "longitude": -105.26667
        },
        {
            "elevation": 1516.4,
            "mindate": "1962-03-01",
            "maxdate": "2012-12-01",
            "latitude": 44.1241,
            "name": "BILLY CREEK, WY US",
            "datacoverage": 0.9999,
            "id": "COOP:480740",
            "elevationUnit": "METERS",
            "longitude": -106.7319
        },
        {
            "elevation": 2048.9,
            "mindate": "1962-09-01",
            "maxdate": "2015-11-01",
            "latitude": 41.58959,
            "name": "BITTER CREEK 4 NE, WY US",
            "datacoverage": 0.9218,
            "id": "COOP:480761",
            "elevationUnit": "METERS",
            "longitude": -108.50939
        },
        {
            "elevation": 1717.5,
            "mindate": "1963-10-01",
            "maxdate": "2015-11-01",
            "latitude": 43.65606,
            "name": "BLACK MOUNTAIN, WY US",
            "datacoverage": 0.9856,
            "id": "COOP:480778",
            "elevationUnit": "METERS",
            "longitude": -107.73741
        },
        {
            "elevation": 2040,
            "mindate": "1937-11-01",
            "maxdate": "2015-11-01",
            "latitude": 43.2095,
            "name": "BONDURANT, WY US",
            "datacoverage": 0.8784,
            "id": "COOP:480865",
            "elevationUnit": "METERS",
            "longitude": -110.40323
        },
        {
            "elevation": 1849.8,
            "mindate": "1902-01-01",
            "maxdate": "1993-09-01",
            "latitude": 42.21278,
            "name": "BORDER 3 N, WY US",
            "datacoverage": 0.9918,
            "id": "COOP:480915",
            "elevationUnit": "METERS",
            "longitude": -111.04556
        },
        {
            "elevation": 2115.3,
            "mindate": "1989-09-01",
            "maxdate": "2015-11-01",
            "latitude": 42.71554,
            "name": "BOULDER REARING STATION, WY US",
            "datacoverage": 1,
            "id": "COOP:480951",
            "elevationUnit": "METERS",
            "longitude": -109.68956
        },
        {
            "elevation": 1485.9,
            "mindate": "1946-09-01",
            "maxdate": "2015-11-01",
            "latitude": 43.40536,
            "name": "BOYSEN DAM, WY US",
            "datacoverage": 0.9868,
            "id": "COOP:481000",
            "elevationUnit": "METERS",
            "longitude": -108.16338
        },
        {
            "elevation": 1853.2,
            "mindate": "2002-03-01",
            "maxdate": "2015-11-01",
            "latitude": 41.2468,
            "name": "BUCKBOARD MARINA, WY US",
            "datacoverage": 0.9938,
            "id": "COOP:481131",
            "elevationUnit": "METERS",
            "longitude": -109.5966
        },
        {
            "elevation": 1414,
            "mindate": "1931-01-01",
            "maxdate": "2015-11-01",
            "latitude": 44.35447,
            "name": "BUFFALO, WY US",
            "datacoverage": 0.8901,
            "id": "COOP:481165",
            "elevationUnit": "METERS",
            "longitude": -106.69937
        },
        {
            "elevation": 1673.4,
            "mindate": "2002-04-01",
            "maxdate": "2015-11-01",
            "latitude": 44.33641,
            "name": "BUFFALO 5 WSW, WY US",
            "datacoverage": 0.9817,
            "id": "COOP:481167",
            "elevationUnit": "METERS",
            "longitude": -106.7887
        },
        {
            "elevation": 2535,
            "mindate": "1962-06-01",
            "maxdate": "1973-04-01",
            "latitude": 44.21667,
            "name": "BUFFALO 15 SW, WY US",
            "datacoverage": 1,
            "id": "COOP:481171",
            "elevationUnit": "METERS",
            "longitude": -106.91667
        },
        {
            "elevation": 1572.8,
            "mindate": "1931-01-01",
            "maxdate": "2015-11-01",
            "latitude": 44.50747,
            "name": "BUFFALO BILL DAM, WY US",
            "datacoverage": 0.9882,
            "id": "COOP:481175",
            "elevationUnit": "METERS",
            "longitude": -109.16745
        },
        {
            "elevation": 2456.7,
            "mindate": "1960-09-01",
            "maxdate": "2015-11-01",
            "latitude": 44.7741,
            "name": "BURGESS JUNCTION, WY US",
            "datacoverage": 0.9895,
            "id": "COOP:481220",
            "elevationUnit": "METERS",
            "longitude": -107.5216
        },
        {
            "elevation": 1866.9,
            "mindate": "1951-12-01",
            "maxdate": "2015-11-01",
            "latitude": 43.36556,
            "name": "BURRIS, WY US",
            "datacoverage": 0.7995,
            "id": "COOP:481284",
            "elevationUnit": "METERS",
            "longitude": -109.27545
        },
        {
            "elevation": 1657.2,
            "mindate": "1941-07-01",
            "maxdate": "2006-09-01",
            "latitude": 41.0844,
            "name": "CARPENTER 3 N, WY US",
            "datacoverage": 0.9502,
            "id": "COOP:481547",
            "elevationUnit": "METERS",
            "longitude": -104.3788
        },
        {
            "elevation": 1585.9,
            "mindate": "1931-01-01",
            "maxdate": "1981-05-01",
            "latitude": 42.85,
            "name": "CASPER 2 E, WY US",
            "datacoverage": 0.8992,
            "id": "COOP:481565",
            "elevationUnit": "METERS",
            "longitude": -106.26667
        },
        {
            "elevation": 1553.6,
            "mindate": "2001-01-01",
            "maxdate": "2015-11-01",
            "latitude": 42.86149,
            "name": "CASPER WASTE WATER TREATMENT PLANT, WY US",
            "datacoverage": 0.9891,
            "id": "COOP:481569",
            "elevationUnit": "METERS",
            "longitude": -106.29239
        },
        {
            "elevation": 1620.9,
            "mindate": "1948-01-01",
            "maxdate": "2015-11-01",
            "latitude": 42.89779,
            "name": "CASPER NATRONA CO AIRPORT, WY US",
            "datacoverage": 0.9853,
            "id": "COOP:481570",
            "elevationUnit": "METERS",
            "longitude": -106.47371
        },
        {
            "elevation": 1567.6,
            "mindate": "2002-05-01",
            "maxdate": "2015-11-01",
            "latitude": 42.85186,
            "name": "CASPER 1 SW, WY US",
            "datacoverage": 0.9999,
            "id": "COOP:481572",
            "elevationUnit": "METERS",
            "longitude": -106.28434
        },
        {
            "elevation": 2490.2,
            "mindate": "1931-01-01",
            "maxdate": "2007-08-01",
            "latitude": 41.3136,
            "name": "CENTENNIAL 1 NE, WY US",
            "datacoverage": 0.8402,
            "id": "COOP:481610",
            "elevationUnit": "METERS",
            "longitude": -106.1291
        },
        {
            "elevation": 1863.2,
            "mindate": "1948-08-01",
            "maxdate": "2015-11-01",
            "latitude": 41.15778,
            "name": "CHEYENNE WSFO AIRPORT, WY US",
            "datacoverage": 1,
            "id": "COOP:481675",
            "elevationUnit": "METERS",
            "longitude": -104.80694
        },
        {
            "elevation": 1865.1,
            "mindate": "2003-04-01",
            "maxdate": "2015-11-01",
            "latitude": 41.15166,
            "name": "CHEYENNE WEATHER FORECAST OFFICE, WY US",
            "datacoverage": 0.9867,
            "id": "COOP:481676",
            "elevationUnit": "METERS",
            "longitude": -104.80622
        },
        {
            "elevation": 1852,
            "mindate": "2011-01-01",
            "maxdate": "2015-11-01",
            "latitude": 41.19473,
            "name": "CHEYENNE 7 NE, WY US",
            "datacoverage": 1,
            "id": "COOP:481687",
            "elevationUnit": "METERS",
            "longitude": -104.71194
        },
        {
            "elevation": 1616.7,
            "mindate": "1931-01-01",
            "maxdate": "2015-11-01",
            "latitude": 41.7594,
            "name": "CHUGWATER, WY US",
            "datacoverage": 0.9941,
            "id": "COOP:481730",
            "elevationUnit": "METERS",
            "longitude": -104.8222
        },
        {
            "elevation": 2157.7,
            "mindate": "1955-11-01",
            "maxdate": "2015-11-01",
            "latitude": 41.39748,
            "name": "CHURCH BUTTES GAS PLANT, WY US",
            "datacoverage": 0.9793,
            "id": "COOP:481736",
            "elevationUnit": "METERS",
            "longitude": -110.08837
        },
        {
            "elevation": 1254.9,
            "mindate": "1961-02-01",
            "maxdate": "2015-11-01",
            "latitude": 44.93651,
            "name": "CLARK 3 NE, WY US",
            "datacoverage": 0.9758,
            "id": "COOP:481775",
            "elevationUnit": "METERS",
            "longitude": -109.13736
        },
        {
            "elevation": 1217.7,
            "mindate": "1938-02-01",
            "maxdate": "2015-11-01",
            "latitude": 44.578,
            "name": "CLEARMONT 5 SW, WY US",
            "datacoverage": 0.9026,
            "id": "COOP:481816",
            "elevationUnit": "METERS",
            "longitude": -106.4472
        },
        {
            "elevation": 1609.3,
            "mindate": "1931-01-01",
            "maxdate": "2015-11-01",
            "latitude": 44.5021,
            "name": "CODY, WY US",
            "datacoverage": 0.9725,
            "id": "COOP:481840",
            "elevationUnit": "METERS",
            "longitude": -109.1112
        },
        {
            "elevation": 1599.6,
            "mindate": "1949-08-01",
            "maxdate": "2015-11-01",
            "latitude": 44.4138,
            "name": "CODY 12 SE, WY US",
            "datacoverage": 0.8995,
            "id": "COOP:481850",
            "elevationUnit": "METERS",
            "longitude": -108.90055
        },
        {
            "elevation": 1780,
            "mindate": "1958-09-01",
            "maxdate": "2009-01-01",
            "latitude": 44.3366,
            "name": "CODY 21 SW, WY US",
            "datacoverage": 0.8776,
            "id": "COOP:481855",
            "elevationUnit": "METERS",
            "longitude": -109.3913
        },
        {
            "elevation": 1060.7,
            "mindate": "1931-01-01",
            "maxdate": "2012-12-01",
            "latitude": 44.8711,
            "name": "COLONY, WY US",
            "datacoverage": 0.9807,
            "id": "COOP:481905",
            "elevationUnit": "METERS",
            "longitude": -104.1533
        },
        {
            "elevation": 1504.5,
            "mindate": "2011-01-01",
            "maxdate": "2015-11-01",
            "latitude": 42.79611,
            "name": "CONVERSE CO AIRPORT ASOS, WY US",
            "datacoverage": 1,
            "id": "COOP:481980",
            "elevationUnit": "METERS",
            "longitude": -105.38028
        },
        {
            "elevation": 2239.4,
            "mindate": "1979-06-01",
            "maxdate": "2013-12-01",
            "latitude": 42.9588,
            "name": "CORA, WY US",
            "datacoverage": 0.865,
            "id": "COOP:482054",
            "elevationUnit": "METERS",
            "longitude": -109.9958
        },
        {
            "elevation": 1983.9,
            "mindate": "1938-02-01",
            "maxdate": "2015-11-01",
            "latitude": 44.8675,
            "name": "CRANDALL CREEK, WY US",
            "datacoverage": 0.6221,
            "id": "COOP:482135",
            "elevationUnit": "METERS",
            "longitude": -109.6436
        },
        {
            "elevation": 2147,
            "mindate": "1948-08-01",
            "maxdate": "1984-03-01",
            "latitude": 41.73333,
            "name": "CRESTON, WY US",
            "datacoverage": 0.016,
            "id": "COOP:482175",
            "elevationUnit": "METERS",
            "longitude": -107.73333
        },
        {
            "elevation": 2237.5,
            "mindate": "1989-07-01",
            "maxdate": "2015-11-01",
            "latitude": 42.92815,
            "name": "DANIEL FISH HATCHERY, WY US",
            "datacoverage": 1,
            "id": "COOP:482242",
            "elevationUnit": "METERS",
            "longitude": -110.12729
        },
        {
            "elevation": 2496.3,
            "mindate": "1974-12-01",
            "maxdate": "2015-11-01",
            "latitude": 43.41269,
            "name": "DARWIN RANCH, WY US",
            "datacoverage": 0.9817,
            "id": "COOP:482375",
            "elevationUnit": "METERS",
            "longitude": -110.16331
        },
        {
            "elevation": 1194.8,
            "mindate": "1951-04-01",
            "maxdate": "2015-11-01",
            "latitude": 44.8767,
            "name": "DAYTON, WY US",
            "datacoverage": 0.4381,
            "id": "COOP:482399",
            "elevationUnit": "METERS",
            "longitude": -107.2631
        },
        {
            "elevation": 1353.3,
            "mindate": "1962-04-01",
            "maxdate": "1992-10-01",
            "latitude": 44.18333,
            "name": "DEAD HORSE CREEK, WY US",
            "datacoverage": 0.8882,
            "id": "COOP:482410",
            "elevationUnit": "METERS",
            "longitude": -105.9
        },
        {
            "elevation": 1251.2,
            "mindate": "1931-01-01",
            "maxdate": "2015-11-01",
            "latitude": 44.89201,
            "name": "DEAVER, WY US",
            "datacoverage": 0.9598,
            "id": "COOP:482415",
            "elevationUnit": "METERS",
            "longitude": -108.59291
        },
        {
            "elevation": 1177.1,
            "mindate": "1959-01-01",
            "maxdate": "2015-11-01",
            "latitude": 44.5833,
            "name": "DEVILS TOWER NUMBER 2, WY US",
            "datacoverage": 0.9898,
            "id": "COOP:482466",
            "elevationUnit": "METERS",
            "longitude": -104.7147
        },
        {
            "elevation": 1313.7,
            "mindate": "1941-07-01",
            "maxdate": "2015-11-01",
            "latitude": 44.0991,
            "name": "DILLINGER, WY US",
            "datacoverage": 0.9888,
            "id": "COOP:482580",
            "elevationUnit": "METERS",
            "longitude": -105.1175
        },
        {
            "elevation": 1700.2,
            "mindate": "1931-01-01",
            "maxdate": "2015-11-01",
            "latitude": 43.23348,
            "name": "DIVERSION DAM, WY US",
            "datacoverage": 0.9578,
            "id": "COOP:482595",
            "elevationUnit": "METERS",
            "longitude": -108.91332
        },
        {
            "elevation": 1940.1,
            "mindate": "1931-01-01",
            "maxdate": "1978-06-01",
            "latitude": 41.03333,
            "name": "DIXON, WY US",
            "datacoverage": 0.986,
            "id": "COOP:482610",
            "elevationUnit": "METERS",
            "longitude": -107.53333
        },
        {
            "elevation": 1865.4,
            "mindate": "1942-07-01",
            "maxdate": "2005-12-01",
            "latitude": 42.1794,
            "name": "DOUBLE FOUR RANCH, WY US",
            "datacoverage": 0.9802,
            "id": "COOP:482680",
            "elevationUnit": "METERS",
            "longitude": -105.4016
        },
        {
            "elevation": 1484.4,
            "mindate": "1931-01-01",
            "maxdate": "2015-11-01",
            "latitude": 42.7467,
            "name": "DOUGLAS 1 SE, WY US",
            "datacoverage": 0.5299,
            "id": "COOP:482685",
            "elevationUnit": "METERS",
            "longitude": -105.3603
        },
        {
            "elevation": 1462.7,
            "mindate": "2010-03-01",
            "maxdate": "2011-11-01",
            "latitude": 42.74417,
            "name": "DOUGLAS 1 SSW, WY US",
            "datacoverage": 0.0137,
            "id": "COOP:482688",
            "elevationUnit": "METERS",
            "longitude": -105.39139
        },
        {
            "elevation": 1464.6,
            "mindate": "1962-08-01",
            "maxdate": "2010-01-01",
            "latitude": 42.7444,
            "name": "DOUGLAS, WY US",
            "datacoverage": 0.9768,
            "id": "COOP:482693",
            "elevationUnit": "METERS",
            "longitude": -105.3897
        },
        {
            "elevation": 1502.7,
            "mindate": "1957-09-01",
            "maxdate": "2014-01-01",
            "latitude": 42.9533,
            "name": "DOUGLAS 17 NE, WY US",
            "datacoverage": 0.0184,
            "id": "COOP:482696",
            "elevationUnit": "METERS",
            "longitude": -105.165
        },
        {
            "elevation": 1838.9,
            "mindate": "1971-12-01",
            "maxdate": "1975-01-01",
            "latitude": 42.58333,
            "name": "DOUGLAS 20 SW, WY US",
            "datacoverage": 0.8674,
            "id": "COOP:482700",
            "elevationUnit": "METERS",
            "longitude": -105.71667
        },
        {
            "elevation": 2119.9,
            "mindate": "1931-01-01",
            "maxdate": "2015-11-01",
            "latitude": 43.53976,
            "name": "DUBOIS, WY US",
            "datacoverage": 0.95,
            "id": "COOP:482715",
            "elevationUnit": "METERS",
            "longitude": -109.65522
        },
        {
            "elevation": 1345.7,
            "mindate": "1931-03-01",
            "maxdate": "2015-11-01",
            "latitude": 43.4117,
            "name": "DULL CENTER 1 SE, WY US",
            "datacoverage": 0.9931,
            "id": "COOP:482725",
            "elevationUnit": "METERS",
            "longitude": -104.9614
        },
        {
            "elevation": 1219.2,
            "mindate": "1949-11-01",
            "maxdate": "2006-12-01",
            "latitude": 44.48278,
            "name": "ECHETA 2 NW, WY US",
            "datacoverage": 0.7755,
            "id": "COOP:482881",
            "elevationUnit": "METERS",
            "longitude": -105.89917
        },
        {
            "elevation": 2214.4,
            "mindate": "1931-01-01",
            "maxdate": "2012-12-01",
            "latitude": 41.6877,
            "name": "ELK MOUNTAIN, WY US",
            "datacoverage": 0.9675,
            "id": "COOP:482995",
            "elevationUnit": "METERS",
            "longitude": -106.4136
        },
        {
            "elevation": 1355.8,
            "mindate": "1949-08-01",
            "maxdate": "2015-11-01",
            "latitude": 44.4971,
            "name": "EMBLEM, WY US",
            "datacoverage": 0.9711,
            "id": "COOP:483031",
            "elevationUnit": "METERS",
            "longitude": -108.39057
        },
        {
            "elevation": 2250.9,
            "mindate": "1931-01-01",
            "maxdate": "1998-10-01",
            "latitude": 41.18333,
            "name": "ENCAMPMENT 10 ESE, WY US",
            "datacoverage": 0.9988,
            "id": "COOP:483045",
            "elevationUnit": "METERS",
            "longitude": -106.61667
        },
        {
            "elevation": 2222,
            "mindate": "1948-08-01",
            "maxdate": "2014-01-01",
            "latitude": 41.2058,
            "name": "ENCAMPMENT, WY US",
            "datacoverage": 0.0238,
            "id": "COOP:483050",
            "elevationUnit": "METERS",
            "longitude": -106.7883
        },
        {
            "elevation": 2080.3,
            "mindate": "1898-05-01",
            "maxdate": "2015-11-01",
            "latitude": 41.265,
            "name": "EVANSTON 1 E, WY US",
            "datacoverage": 0.9653,
            "id": "COOP:483100",
            "elevationUnit": "METERS",
            "longitude": -110.9508
        },
        {
            "elevation": 2017.8,
            "mindate": "1931-01-01",
            "maxdate": "2015-11-01",
            "latitude": 42.13976,
            "name": "FARSON 2 NNE, WY US",
            "datacoverage": 0.842,
            "id": "COOP:483170",
            "elevationUnit": "METERS",
            "longitude": -109.43088
        },
        {
            "elevation": 1976.6,
            "mindate": "1963-07-01",
            "maxdate": "2015-11-01",
            "latitude": 41.98604,
            "name": "FONTENELLE DAM, WY US",
            "datacoverage": 0.9841,
            "id": "COOP:483396",
            "elevationUnit": "METERS",
            "longitude": -110.06113
        },
        {
            "elevation": 1452.1,
            "mindate": "1931-01-01",
            "maxdate": "1979-04-01",
            "latitude": 42.38333,
            "name": "FORT LARAMIE 11 NNW, WY US",
            "datacoverage": 0.9897,
            "id": "COOP:483490",
            "elevationUnit": "METERS",
            "longitude": -104.53333
        },
        {
            "elevation": 1692.9,
            "mindate": "1931-01-01",
            "maxdate": "1979-12-01",
            "latitude": 42.98333,
            "name": "FORT WASHAKIE 1 SE, WY US",
            "datacoverage": 0.9983,
            "id": "COOP:483570",
            "elevationUnit": "METERS",
            "longitude": -108.86667
        },
        {
            "elevation": 2068.1,
            "mindate": "1990-08-01",
            "maxdate": "2015-11-01",
            "latitude": 41.83684,
            "name": "FOSSIL BUTTE, WY US",
            "datacoverage": 0.9967,
            "id": "COOP:483582",
            "elevationUnit": "METERS",
            "longitude": -110.77045
        },
        {
            "elevation": 2763.6,
            "mindate": "1931-01-01",
            "maxdate": "1979-06-01",
            "latitude": 41.08333,
            "name": "FOXPARK, WY US",
            "datacoverage": 0.9228,
            "id": "COOP:483630",
            "elevationUnit": "METERS",
            "longitude": -106.15
        },
        {
            "elevation": 1972.1,
            "mindate": "1962-09-01",
            "maxdate": "2007-04-01",
            "latitude": 42.8394,
            "name": "GAS HILLS 4 E, WY US",
            "datacoverage": 0.9367,
            "id": "COOP:483801",
            "elevationUnit": "METERS",
            "longitude": -107.5133
        },
        {
            "elevation": 1414.3,
            "mindate": "1931-01-01",
            "maxdate": "2015-11-01",
            "latitude": 44.2666,
            "name": "GILLETTE 4 SE, WY US",
            "datacoverage": 0.9853,
            "id": "COOP:483855",
            "elevationUnit": "METERS",
            "longitude": -105.4489
        },
        {
            "elevation": 1495,
            "mindate": "1949-08-01",
            "maxdate": "1986-06-01",
            "latitude": 44.08333,
            "name": "GILLETTE 18 SW, WY US",
            "datacoverage": 0.9954,
            "id": "COOP:483865",
            "elevationUnit": "METERS",
            "longitude": -105.71667
        },
        {
            "elevation": 1449,
            "mindate": "1964-04-01",
            "maxdate": "1978-04-01",
            "latitude": 42.45,
            "name": "GLENDO 4 SW, WY US",
            "datacoverage": 0.9942,
            "id": "COOP:483930",
            "elevationUnit": "METERS",
            "longitude": -105.08333
        },
        {
            "elevation": 1444.4,
            "mindate": "2006-07-01",
            "maxdate": "2015-11-01",
            "latitude": 42.5283,
            "name": "GLENDO 6 NE, WY US",
            "datacoverage": 0.9467,
            "id": "COOP:483936",
            "elevationUnit": "METERS",
            "longitude": -104.9152
        },
        {
            "elevation": 1508.2,
            "mindate": "1941-07-01",
            "maxdate": "2008-01-01",
            "latitude": 42.8266,
            "name": "GLENROCK 5 ESE, WY US",
            "datacoverage": 0.9636,
            "id": "COOP:483950",
            "elevationUnit": "METERS",
            "longitude": -105.7877
        },
        {
            "elevation": 1961.1,
            "mindate": "1949-11-01",
            "maxdate": "1987-06-01",
            "latitude": 42.66667,
            "name": "GLENROCK 14 SSE, WY US",
            "datacoverage": 0.9978,
            "id": "COOP:483960",
            "elevationUnit": "METERS",
            "longitude": -105.81667
        },
        {
            "elevation": 1700.5,
            "mindate": "1949-07-01",
            "maxdate": "1990-03-01",
            "latitude": 43.95,
            "name": "GRASS CREEK, WY US",
            "datacoverage": 0.9162,
            "id": "COOP:484036",
            "elevationUnit": "METERS",
            "longitude": -108.65
        },
        {
            "elevation": 1877.6,
            "mindate": "1931-01-01",
            "maxdate": "2015-11-01",
            "latitude": 41.51671,
            "name": "GREEN RIVER, WY US",
            "datacoverage": 0.9451,
            "id": "COOP:484065",
            "elevationUnit": "METERS",
            "longitude": -109.47017
        },
        {
            "elevation": 1154.3,
            "mindate": "1951-06-01",
            "maxdate": "2015-11-01",
            "latitude": 44.48934,
            "name": "GREYBULL, WY US",
            "datacoverage": 0.9289,
            "id": "COOP:484080",
            "elevationUnit": "METERS",
            "longitude": -108.05359
        },
        {
            "elevation": 1327.4,
            "mindate": "1962-06-01",
            "maxdate": "2014-01-01",
            "latitude": 42.2905,
            "name": "GUERNSEY DAM NUMBER 2, WY US",
            "datacoverage": 1,
            "id": "COOP:484126",
            "elevationUnit": "METERS",
            "longitude": -104.7625
        },
        {
            "elevation": 1709.9,
            "mindate": "1950-08-01",
            "maxdate": "2015-11-01",
            "latitude": 43.7731,
            "name": "HAMILTON DOME, WY US",
            "datacoverage": 0.0446,
            "id": "COOP:484205",
            "elevationUnit": "METERS",
            "longitude": -108.5727
        },
        {
            "elevation": 1582.2,
            "mindate": "2009-08-01",
            "maxdate": "2010-08-01",
            "latitude": 42.42556,
            "name": "HARTVILLE 7 NNE, WY US",
            "datacoverage": 0.9992,
            "id": "COOP:484243",
            "elevationUnit": "METERS",
            "longitude": -104.69917
        },
        {
            "elevation": 1335,
            "mindate": "1967-08-01",
            "maxdate": "1983-11-01",
            "latitude": 42.93333,
            "name": "HAT CREEK 5 E, WY US",
            "datacoverage": 0.9489,
            "id": "COOP:484303",
            "elevationUnit": "METERS",
            "longitude": -104.31667
        },
        {
            "elevation": 1318,
            "mindate": "1950-08-01",
            "maxdate": "1984-02-01",
            "latitude": 43.13333,
            "name": "HAT CREEK 14 N, WY US",
            "datacoverage": 0.0307,
            "id": "COOP:484310",
            "elevationUnit": "METERS",
            "longitude": -104.36667
        },
        {
            "elevation": 1460,
            "mindate": "1942-12-01",
            "maxdate": "2008-06-01",
            "latitude": 44.7052,
            "name": "HEART MOUNTAIN, WY US",
            "datacoverage": 0.9327,
            "id": "COOP:484411",
            "elevationUnit": "METERS",
            "longitude": -108.9558
        },
        {
            "elevation": 2073.9,
            "mindate": "1931-01-01",
            "maxdate": "1979-03-01",
            "latitude": 41.15,
            "name": "HECLA, WY US",
            "datacoverage": 1,
            "id": "COOP:484440",
            "elevationUnit": "METERS",
            "longitude": -105.18333
        },
        {
            "elevation": 2039.1,
            "mindate": "1979-05-01",
            "maxdate": "2015-11-01",
            "latitude": 41.15,
            "name": "HECLA 1 E, WY US",
            "datacoverage": 0.9863,
            "id": "COOP:484442",
            "elevationUnit": "METERS",
            "longitude": -105.1667
        },
        {
            "elevation": 1925.1,
            "mindate": "1955-12-01",
            "maxdate": "1978-02-01",
            "latitude": 41.45,
            "name": "HORSE CREEK 2 NW, WY US",
            "datacoverage": 0.9889,
            "id": "COOP:484700",
            "elevationUnit": "METERS",
            "longitude": -105.23333
        },
        {
            "elevation": 1966.9,
            "mindate": "1978-01-01",
            "maxdate": "1978-03-01",
            "latitude": 41.45,
            "name": "HORSE CREEK 5 NE, WY US",
            "datacoverage": 1,
            "id": "COOP:484705",
            "elevationUnit": "METERS",
            "longitude": -105.1
        },
        {
            "elevation": 2379,
            "mindate": "1968-08-01",
            "maxdate": "1983-05-01",
            "latitude": 43.66667,
            "name": "HORSE CREEK RANGER STATION, WY US",
            "datacoverage": 0.0039,
            "id": "COOP:484710",
            "elevationUnit": "METERS",
            "longitude": -109.63333
        },
        {
            "elevation": 1145.4,
            "mindate": "1941-07-01",
            "maxdate": "2015-11-01",
            "latitude": 44.6855,
            "name": "HULETT, WY US",
            "datacoverage": 0.7715,
            "id": "COOP:484760",
            "elevationUnit": "METERS",
            "longitude": -104.6027
        },
        {
            "elevation": 1174.4,
            "mindate": "2007-04-01",
            "maxdate": "2015-11-01",
            "latitude": 44.7812,
            "name": "IML AIR SCIENCE, WY US",
            "datacoverage": 0.9998,
            "id": "COOP:484799",
            "elevationUnit": "METERS",
            "longitude": -106.9644
        },
        {
            "elevation": 1892.8,
            "mindate": "1931-01-01",
            "maxdate": "2015-11-01",
            "latitude": 43.48629,
            "name": "JACKSON, WY US",
            "datacoverage": 0.9667,
            "id": "COOP:484910",
            "elevationUnit": "METERS",
            "longitude": -110.76153
        },
        {
            "elevation": 1406,
            "mindate": "1949-12-01",
            "maxdate": "1975-12-01",
            "latitude": 42.46667,
            "name": "JAY EM, WY US",
            "datacoverage": 0.9393,
            "id": "COOP:484920",
            "elevationUnit": "METERS",
            "longitude": -104.36667
        },
        {
            "elevation": 1926,
            "mindate": "1964-04-01",
            "maxdate": "2015-11-01",
            "latitude": 42.4942,
            "name": "JEFFREY CITY, WY US",
            "datacoverage": 0.7613,
            "id": "COOP:484925",
            "elevationUnit": "METERS",
            "longitude": -107.82908
        },
        {
            "elevation": 2310.4,
            "mindate": "1948-08-01",
            "maxdate": "2014-01-01",
            "latitude": 41.0599,
            "name": "JELM 2 S, WY US",
            "datacoverage": 0.0241,
            "id": "COOP:484930",
            "elevationUnit": "METERS",
            "longitude": -106.0263
        },
        {
            "elevation": 1420.4,
            "mindate": "1940-07-01",
            "maxdate": "2015-11-01",
            "latitude": 43.7144,
            "name": "KAYCEE, WY US",
            "datacoverage": 0.9945,
            "id": "COOP:485055",
            "elevationUnit": "METERS",
            "longitude": -106.6375
        },
        {
            "elevation": 1609.3,
            "mindate": "1953-05-01",
            "maxdate": "1987-02-01",
            "latitude": 42.76667,
            "name": "KEELINE 3 W, WY US",
            "datacoverage": 0.9976,
            "id": "COOP:485085",
            "elevationUnit": "METERS",
            "longitude": -104.78333
        },
        {
            "elevation": 1551.4,
            "mindate": "1987-03-01",
            "maxdate": "2005-07-01",
            "latitude": 42.5155,
            "name": "KEELINE 7 SW, WY US",
            "datacoverage": 0.9862,
            "id": "COOP:485088",
            "elevationUnit": "METERS",
            "longitude": -104.8719
        },
        {
            "elevation": 2114.4,
            "mindate": "1933-06-01",
            "maxdate": "2015-11-01",
            "latitude": 41.81814,
            "name": "KEMMERER 2 N, WY US",
            "datacoverage": 0.9788,
            "id": "COOP:485105",
            "elevationUnit": "METERS",
            "longitude": -110.53328
        },
        {
            "elevation": 2332.9,
            "mindate": "1931-01-01",
            "maxdate": "1976-07-01",
            "latitude": 43.16667,
            "name": "KENDALL, WY US",
            "datacoverage": 0.9799,
            "id": "COOP:485115",
            "elevationUnit": "METERS",
            "longitude": -109.98333
        },
        {
            "elevation": 2799.9,
            "mindate": "1969-01-01",
            "maxdate": "1975-09-01",
            "latitude": 43.9,
            "name": "KIRWIN, WY US",
            "datacoverage": 0.0062,
            "id": "COOP:485186",
            "elevationUnit": "METERS",
            "longitude": -109.28333
        },
        {
            "elevation": 2011.1,
            "mindate": "1958-06-01",
            "maxdate": "2011-12-01",
            "latitude": 42.2644,
            "name": "LA BARGE, WY US",
            "datacoverage": 0.8491,
            "id": "COOP:485252",
            "elevationUnit": "METERS",
            "longitude": -110.195
        },
        {
            "elevation": 1399,
            "mindate": "1931-07-01",
            "maxdate": "2010-03-01",
            "latitude": 41.6377,
            "name": "LA GRANGE, WY US",
            "datacoverage": 0.9428,
            "id": "COOP:485260",
            "elevationUnit": "METERS",
            "longitude": -104.1669
        },
        {
            "elevation": 2405.5,
            "mindate": "1931-01-01",
            "maxdate": "2015-11-01",
            "latitude": 44.56211,
            "name": "LAKE YELLOWSTONE, WY US",
            "datacoverage": 0.9578,
            "id": "COOP:485345",
            "elevationUnit": "METERS",
            "longitude": -110.3986
        },
        {
            "elevation": 2004.1,
            "mindate": "1931-01-01",
            "maxdate": "2015-11-01",
            "latitude": 44.89553,
            "name": "LAMAR RANGER STATION, WY US",
            "datacoverage": 0.6045,
            "id": "COOP:485355",
            "elevationUnit": "METERS",
            "longitude": -110.23416
        },
        {
            "elevation": 1344.8,
            "mindate": "1950-08-01",
            "maxdate": "2014-01-01",
            "latitude": 43.0388,
            "name": "LANCE CREEK 1 W, WY US",
            "datacoverage": 0.0257,
            "id": "COOP:485371",
            "elevationUnit": "METERS",
            "longitude": -104.6633
        },
        {
            "elevation": 1323.1,
            "mindate": "1962-04-01",
            "maxdate": "1984-03-01",
            "latitude": 43.05,
            "name": "LANCE CREEK 3 WNW, WY US",
            "datacoverage": 0.981,
            "id": "COOP:485372",
            "elevationUnit": "METERS",
            "longitude": -104.7
        },
        {
            "elevation": 1281.4,
            "mindate": "2005-10-01",
            "maxdate": "2015-11-01",
            "latitude": 43.1827,
            "name": "LANCE CREEK 8 N, WY US",
            "datacoverage": 0.9755,
            "id": "COOP:485374",
            "elevationUnit": "METERS",
            "longitude": -104.6036
        },
        {
            "elevation": 1255.8,
            "mindate": "1948-09-01",
            "maxdate": "1985-08-01",
            "latitude": 43.3,
            "name": "LANCE CREEK 18 N, WY US",
            "datacoverage": 0.7478,
            "id": "COOP:485377",
            "elevationUnit": "METERS",
            "longitude": -104.66667
        },
        {
            "elevation": 1704.4,
            "mindate": "1948-08-01",
            "maxdate": "2015-11-01",
            "latitude": 42.81538,
            "name": "LANDER AIRPORT, WY US",
            "datacoverage": 0.9925,
            "id": "COOP:485390",
            "elevationUnit": "METERS",
            "longitude": -108.72611
        },
        {
            "elevation": 1621.5,
            "mindate": "1999-09-01",
            "maxdate": "2015-11-01",
            "latitude": 42.84496,
            "name": "LANDER 1 N, WY US",
            "datacoverage": 0.9847,
            "id": "COOP:485392",
            "elevationUnit": "METERS",
            "longitude": -108.73721
        },
        {
            "elevation": 2186.9,
            "mindate": "1962-01-01",
            "maxdate": "1976-02-01",
            "latitude": 41.31667,
            "name": "LARAMIE 2, WY US",
            "datacoverage": 0.9767,
            "id": "COOP:485411",
            "elevationUnit": "METERS",
            "longitude": -105.58333
        },
        {
            "elevation": 2214.7,
            "mindate": "1940-11-01",
            "maxdate": "2015-11-01",
            "latitude": 41.3167,
            "name": "LARAMIE AIRPORT, WY US",
            "datacoverage": 0.9346,
            "id": "COOP:485415",
            "elevationUnit": "METERS",
            "longitude": -105.6833
        },
        {
            "elevation": 2182.1,
            "mindate": "2011-01-01",
            "maxdate": "2014-01-01",
            "latitude": 41.2975,
            "name": "LARAMIE 2 WSW SITE 2, WY US",
            "datacoverage": 0.9998,
            "id": "COOP:485416",
            "elevationUnit": "METERS",
            "longitude": -105.6241
        },
        {
            "elevation": 2252.5,
            "mindate": "2009-03-01",
            "maxdate": "2015-11-01",
            "latitude": 41.2847,
            "name": "LARAMIE 4 SE, WY US",
            "datacoverage": 0.9998,
            "id": "COOP:485417",
            "elevationUnit": "METERS",
            "longitude": -105.5319
        },
        {
            "elevation": 2186.9,
            "mindate": "1948-08-01",
            "maxdate": "2010-06-01",
            "latitude": 41.3041,
            "name": "LARAMIE 2 WSW, WY US",
            "datacoverage": 0.0161,
            "id": "COOP:485420",
            "elevationUnit": "METERS",
            "longitude": -105.6408
        },
        {
            "elevation": 2176.3,
            "mindate": "1966-05-01",
            "maxdate": "2015-11-01",
            "latitude": 41.34002,
            "name": "LARAMIE 2 NW, WY US",
            "datacoverage": 0.9378,
            "id": "COOP:485435",
            "elevationUnit": "METERS",
            "longitude": -105.60647
        },
        {
            "elevation": 1495,
            "mindate": "1941-08-01",
            "maxdate": "1978-05-01",
            "latitude": 43.76667,
            "name": "LAWVER 10 SW, WY US",
            "datacoverage": 0.8281,
            "id": "COOP:485467",
            "elevationUnit": "METERS",
            "longitude": -105.38333
        },
        {
            "elevation": 1268,
            "mindate": "1964-09-01",
            "maxdate": "2015-11-01",
            "latitude": 44.85,
            "name": "LEITER 9 N, WY US",
            "datacoverage": 0.9919,
            "id": "COOP:485506",
            "elevationUnit": "METERS",
            "longitude": -106.2888
        },
        {
            "elevation": 1839.5,
            "mindate": "1931-01-01",
            "maxdate": "2015-11-01",
            "latitude": 42.1952,
            "name": "LEO 6 SW, WY US",
            "datacoverage": 0.9882,
            "id": "COOP:485525",
            "elevationUnit": "METERS",
            "longitude": -106.8555
        },
        {
            "elevation": 1513,
            "mindate": "1961-09-01",
            "maxdate": "1975-02-01",
            "latitude": 43.55,
            "name": "LINCH 10 ESE, WY US",
            "datacoverage": 0.8275,
            "id": "COOP:485581",
            "elevationUnit": "METERS",
            "longitude": -106.01667
        },
        {
            "elevation": 1267.4,
            "mindate": "1952-04-01",
            "maxdate": "2015-11-01",
            "latitude": 42.1298,
            "name": "LINGLE 2 WSW, WY US",
            "datacoverage": 0.5759,
            "id": "COOP:485612",
            "elevationUnit": "METERS",
            "longitude": -104.3899
        },
        {
            "elevation": 2301.8,
            "mindate": "1993-11-01",
            "maxdate": "2010-08-01",
            "latitude": 41.0547,
            "name": "LONETREE NUMBER 1, WY US",
            "datacoverage": 0.9902,
            "id": "COOP:485703",
            "elevationUnit": "METERS",
            "longitude": -110.1541
        },
        {
            "elevation": 1650.5,
            "mindate": "1961-11-01",
            "maxdate": "1982-09-01",
            "latitude": 43.28333,
            "name": "LOST CABIN, WY US",
            "datacoverage": 0.9483,
            "id": "COOP:485734",
            "elevationUnit": "METERS",
            "longitude": -107.63333
        },
        {
            "elevation": 1172.6,
            "mindate": "1931-01-01",
            "maxdate": "2015-11-01",
            "latitude": 44.83772,
            "name": "LOVELL, WY US",
            "datacoverage": 0.9902,
            "id": "COOP:485770",
            "elevationUnit": "METERS",
            "longitude": -108.404
        },
        {
            "elevation": 1551.4,
            "mindate": "1931-01-01",
            "maxdate": "2007-11-01",
            "latitude": 42.7505,
            "name": "LUSK 2 SW, WY US",
            "datacoverage": 0.9112,
            "id": "COOP:485830",
            "elevationUnit": "METERS",
            "longitude": -104.4811
        },
        {
            "elevation": 1260.7,
            "mindate": "2003-04-01",
            "maxdate": "2015-11-01",
            "latitude": 42.9366,
            "name": "LUSK 25 NE, WY US",
            "datacoverage": 0.9473,
            "id": "COOP:485833",
            "elevationUnit": "METERS",
            "longitude": -104.0669
        },
        {
            "elevation": 2022.3,
            "mindate": "1947-12-01",
            "maxdate": "2015-11-01",
            "latitude": 41.897,
            "name": "MEDICINE BOW, WY US",
            "datacoverage": 0.8836,
            "id": "COOP:486120",
            "elevationUnit": "METERS",
            "longitude": -106.206
        },
        {
            "elevation": 2005.9,
            "mindate": "2006-12-01",
            "maxdate": "2014-01-01",
            "latitude": 41.8998,
            "name": "MEDICINE BOW F AND P, WY US",
            "datacoverage": 0.0092,
            "id": "COOP:486132",
            "elevationUnit": "METERS",
            "longitude": -106.2059
        },
        {
            "elevation": 1777.9,
            "mindate": "1948-08-01",
            "maxdate": "1976-12-01",
            "latitude": 44.15,
            "name": "MEETEETSE 1 ESE, WY US",
            "datacoverage": 0.033,
            "id": "COOP:486140",
            "elevationUnit": "METERS",
            "longitude": -108.85
        },
        {
            "elevation": 1751.1,
            "mindate": "1976-10-01",
            "maxdate": "1982-02-01",
            "latitude": 44.15,
            "name": "MEETEETSE 2, WY US",
            "datacoverage": 0.0078,
            "id": "COOP:486145",
            "elevationUnit": "METERS",
            "longitude": -108.88333
        },
        {
            "elevation": 2346.4,
            "mindate": "1963-10-01",
            "maxdate": "1988-06-01",
            "latitude": 42.95,
            "name": "MERNA, WY US",
            "datacoverage": 1,
            "id": "COOP:486165",
            "elevationUnit": "METERS",
            "longitude": -110.36667
        },
        {
            "elevation": 1481.3,
            "mindate": "1931-01-01",
            "maxdate": "2015-11-01",
            "latitude": 43.41316,
            "name": "MIDWEST, WY US",
            "datacoverage": 0.9539,
            "id": "COOP:486195",
            "elevationUnit": "METERS",
            "longitude": -106.27727
        },
        {
            "elevation": 1318.3,
            "mindate": "1933-07-01",
            "maxdate": "2014-01-01",
            "latitude": 44.2169,
            "name": "MOORCROFT 3 S, WY US",
            "datacoverage": 0.7681,
            "id": "COOP:486395",
            "elevationUnit": "METERS",
            "longitude": -104.9291
        },
        {
            "elevation": 1964.1,
            "mindate": "1958-12-01",
            "maxdate": "2015-11-01",
            "latitude": 43.65358,
            "name": "MOOSE, WY US",
            "datacoverage": 0.9839,
            "id": "COOP:486428",
            "elevationUnit": "METERS",
            "longitude": -110.71681
        },
        {
            "elevation": 2074.2,
            "mindate": "1931-01-01",
            "maxdate": "2015-11-01",
            "latitude": 43.85664,
            "name": "MORAN 5 WNW, WY US",
            "datacoverage": 0.9873,
            "id": "COOP:486440",
            "elevationUnit": "METERS",
            "longitude": -110.58876
        },
        {
            "elevation": 1250.9,
            "mindate": "1941-08-01",
            "maxdate": "1978-12-01",
            "latitude": 43.51667,
            "name": "MORRISEY, WY US",
            "datacoverage": 0.9911,
            "id": "COOP:486450",
            "elevationUnit": "METERS",
            "longitude": -104.33333
        },
        {
            "elevation": 2072.6,
            "mindate": "1966-03-01",
            "maxdate": "2015-11-01",
            "latitude": 41.26587,
            "name": "MOUNTAIN VIEW, WY US",
            "datacoverage": 0.9882,
            "id": "COOP:486555",
            "elevationUnit": "METERS",
            "longitude": -110.33747
        },
        {
            "elevation": 1904.4,
            "mindate": "1949-11-01",
            "maxdate": "2008-01-01",
            "latitude": 42.3627,
            "name": "MUDDY GAP, WY US",
            "datacoverage": 0.9184,
            "id": "COOP:486595",
            "elevationUnit": "METERS",
            "longitude": -107.4444
        },
        {
            "elevation": 2053.1,
            "mindate": "1953-05-01",
            "maxdate": "2014-01-01",
            "latitude": 41.3185,
            "name": "MUD SPRINGS, WY US",
            "datacoverage": 0.0159,
            "id": "COOP:486597",
            "elevationUnit": "METERS",
            "longitude": -108.91764
        },
        {
            "elevation": 1257,
            "mindate": "1949-12-01",
            "maxdate": "1984-03-01",
            "latitude": 43.35,
            "name": "MULE CREEK, WY US",
            "datacoverage": 0.0256,
            "id": "COOP:486600",
            "elevationUnit": "METERS",
            "longitude": -104.11667
        },
        {
            "elevation": 1155.2,
            "mindate": "1996-12-01",
            "maxdate": "2010-10-01",
            "latitude": 43.3836,
            "name": "MULE CREEK JCT, WY US",
            "datacoverage": 0.9362,
            "id": "COOP:486603",
            "elevationUnit": "METERS",
            "longitude": -104.2302
        },
        {
            "elevation": 1345.7,
            "mindate": "1931-01-01",
            "maxdate": "2015-11-01",
            "latitude": 43.8497,
            "name": "NEWCASTLE, WY US",
            "datacoverage": 0.9912,
            "id": "COOP:486660",
            "elevationUnit": "METERS",
            "longitude": -104.1886
        },
        {
            "elevation": 2240.6,
            "mindate": "1934-09-01",
            "maxdate": "2015-11-01",
            "latitude": 44.45684,
            "name": "OLD FAITHFUL, WY US",
            "datacoverage": 0.5169,
            "id": "COOP:486845",
            "elevationUnit": "METERS",
            "longitude": -110.83269
        },
        {
            "elevation": 1295.4,
            "mindate": "1989-12-01",
            "maxdate": "2015-11-01",
            "latitude": 42.2058,
            "name": "OLD FORT LARAMIE, WY US",
            "datacoverage": 0.9776,
            "id": "COOP:486852",
            "elevationUnit": "METERS",
            "longitude": -104.5561
        },
        {
            "elevation": 1994.6,
            "mindate": "1948-08-01",
            "maxdate": "2014-01-01",
            "latitude": 42.53933,
            "name": "OREGON TRAIL CROSSING, WY US",
            "datacoverage": 0.0129,
            "id": "COOP:486875",
            "elevationUnit": "METERS",
            "longitude": -108.18719
        },
        {
            "elevation": 1316.7,
            "mindate": "1950-03-01",
            "maxdate": "2014-01-01",
            "latitude": 43.9781,
            "name": "OSAGE, WY US",
            "datacoverage": 0.0228,
            "id": "COOP:486935",
            "elevationUnit": "METERS",
            "longitude": -104.4194
        },
        {
            "elevation": 1219.5,
            "mindate": "1969-01-01",
            "maxdate": "1981-10-01",
            "latitude": 44.78333,
            "name": "OSHOTO 15 NW, WY US",
            "datacoverage": 0.9871,
            "id": "COOP:486960",
            "elevationUnit": "METERS",
            "longitude": -105.08333
        },
        {
            "elevation": 2039.7,
            "mindate": "2005-09-01",
            "maxdate": "2015-11-01",
            "latitude": 44.50269,
            "name": "PAHASKA, WY US",
            "datacoverage": 0.7644,
            "id": "COOP:487031",
            "elevationUnit": "METERS",
            "longitude": -109.96418
        },
        {
            "elevation": 1352.1,
            "mindate": "1949-11-01",
            "maxdate": "1983-11-01",
            "latitude": 44.98333,
            "name": "PARKMAN 5 WNW, WY US",
            "datacoverage": 0.9732,
            "id": "COOP:487079",
            "elevationUnit": "METERS",
            "longitude": -107.43333
        },
        {
            "elevation": 1805.3,
            "mindate": "1931-01-01",
            "maxdate": "2015-11-01",
            "latitude": 42.47165,
            "name": "PATHFINDER DAM, WY US",
            "datacoverage": 0.792,
            "id": "COOP:487105",
            "elevationUnit": "METERS",
            "longitude": -106.85268
        },
        {
            "elevation": 1670.3,
            "mindate": "1931-01-01",
            "maxdate": "2015-11-01",
            "latitude": 43.24592,
            "name": "PAVILLION, WY US",
            "datacoverage": 0.9814,
            "id": "COOP:487115",
            "elevationUnit": "METERS",
            "longitude": -108.69417
        },
        {
            "elevation": 1518.5,
            "mindate": "1946-06-01",
            "maxdate": "2015-11-01",
            "latitude": 41.6263,
            "name": "PHILLIPS, WY US",
            "datacoverage": 0.988,
            "id": "COOP:487200",
            "elevationUnit": "METERS",
            "longitude": -104.4936
        },
        {
            "elevation": 1546.6,
            "mindate": "1931-01-01",
            "maxdate": "1988-04-01",
            "latitude": 41.18333,
            "name": "PINE BLUFFS, WY US",
            "datacoverage": 0.8951,
            "id": "COOP:487235",
            "elevationUnit": "METERS",
            "longitude": -104.06667
        },
        {
            "elevation": 1541.7,
            "mindate": "2011-10-01",
            "maxdate": "2015-11-01",
            "latitude": 41.1799,
            "name": "PINE BLUFFS 1 ESE, WY US",
            "datacoverage": 1,
            "id": "COOP:487236",
            "elevationUnit": "METERS",
            "longitude": -104.0573
        },
        {
            "elevation": 1578.9,
            "mindate": "1948-08-01",
            "maxdate": "2010-01-01",
            "latitude": 41.1722,
            "name": "PINE BLUFFS 5 W, WY US",
            "datacoverage": 0.4014,
            "id": "COOP:487240",
            "elevationUnit": "METERS",
            "longitude": -104.1583
        },
        {
            "elevation": 1624.6,
            "mindate": "1995-04-01",
            "maxdate": "2000-12-01",
            "latitude": 41.3,
            "name": "PINE BLUFFS 10 NW, WY US",
            "datacoverage": 0.8688,
            "id": "COOP:487248",
            "elevationUnit": "METERS",
            "longitude": -104.18333
        },
        {
            "elevation": 2197.6,
            "mindate": "1931-01-01",
            "maxdate": "2015-11-01",
            "latitude": 42.87443,
            "name": "PINEDALE, WY US",
            "datacoverage": 0.8715,
            "id": "COOP:487260",
            "elevationUnit": "METERS",
            "longitude": -109.85809
        },
        {
            "elevation": 1557.8,
            "mindate": "1949-12-01",
            "maxdate": "1984-04-01",
            "latitude": 43.71667,
            "name": "PINE TREE 9 NE, WY US",
            "datacoverage": 0.0262,
            "id": "COOP:487270",
            "elevationUnit": "METERS",
            "longitude": -105.63333
        },
        {
            "elevation": 1744.1,
            "mindate": "1948-01-01",
            "maxdate": "2015-11-01",
            "latitude": 43.03518,
            "name": "POWDER RIVER SCHOOL, WY US",
            "datacoverage": 0.1031,
            "id": "COOP:487375",
            "elevationUnit": "METERS",
            "longitude": -106.98947
        },
        {
            "elevation": 1737.4,
            "mindate": "1964-09-01",
            "maxdate": "2009-04-01",
            "latitude": 43.035,
            "name": "POWDER RIVER NUMBER 2, WY US",
            "datacoverage": 0.9199,
            "id": "COOP:487376",
            "elevationUnit": "METERS",
            "longitude": -106.98833
        },
        {
            "elevation": 1335.9,
            "mindate": "1931-01-01",
            "maxdate": "1981-03-01",
            "latitude": 44.75,
            "name": "POWELL, WY US",
            "datacoverage": 1,
            "id": "COOP:487380",
            "elevationUnit": "METERS",
            "longitude": -108.76667
        },
        {
            "elevation": 1332.6,
            "mindate": "1966-08-01",
            "maxdate": "2015-11-01",
            "latitude": 44.77638,
            "name": "POWELL FIELD STATION, WY US",
            "datacoverage": 0.9952,
            "id": "COOP:487388",
            "elevationUnit": "METERS",
            "longitude": -108.75904
        },
        {
            "elevation": 1225.3,
            "mindate": "1951-04-01",
            "maxdate": "2015-11-01",
            "latitude": 44.17859,
            "name": "RAIRDEN 2 WSW, WY US",
            "datacoverage": 0.9884,
            "id": "COOP:487473",
            "elevationUnit": "METERS",
            "longitude": -107.93813
        },
        {
            "elevation": 2058.9,
            "mindate": "2008-09-01",
            "maxdate": "2010-10-01",
            "latitude": 41.79833,
            "name": "RAWLINS 1 NE, WY US",
            "datacoverage": 1,
            "id": "COOP:487528",
            "elevationUnit": "METERS",
            "longitude": -107.22944
        },
        {
            "elevation": 2105.6,
            "mindate": "2011-01-01",
            "maxdate": "2015-11-01",
            "latitude": 41.8036,
            "name": "RAWLINS 1 N, WY US",
            "datacoverage": 1,
            "id": "COOP:487529",
            "elevationUnit": "METERS",
            "longitude": -107.2411
        },
        {
            "elevation": 2053.1,
            "mindate": "1951-03-01",
            "maxdate": "2015-11-01",
            "latitude": 41.8,
            "name": "RAWLINS AIRPORT, WY US",
            "datacoverage": 0.8674,
            "id": "COOP:487533",
            "elevationUnit": "METERS",
            "longitude": -107.2
        },
        {
            "elevation": 1264.9,
            "mindate": "1948-08-01",
            "maxdate": "2011-07-01",
            "latitude": 44.7408,
            "name": "RECLUSE, WY US",
            "datacoverage": 0.0235,
            "id": "COOP:487545",
            "elevationUnit": "METERS",
            "longitude": -105.7261
        },
        {
            "elevation": 1143,
            "mindate": "1966-04-01",
            "maxdate": "2014-01-01",
            "latitude": 44.9086,
            "name": "RECLUSE 11 NNW, WY US",
            "datacoverage": 0.7975,
            "id": "COOP:487548",
            "elevationUnit": "METERS",
            "longitude": -105.7364
        },
        {
            "elevation": 1185.7,
            "mindate": "1941-10-01",
            "maxdate": "2015-11-01",
            "latitude": 43.245,
            "name": "REDBIRD, WY US",
            "datacoverage": 0.9865,
            "id": "COOP:487555",
            "elevationUnit": "METERS",
            "longitude": -104.288
        },
        {
            "elevation": 1548.7,
            "mindate": "1963-05-01",
            "maxdate": "1983-11-01",
            "latitude": 43.68333,
            "name": "RENO, WY US",
            "datacoverage": 0.8744,
            "id": "COOP:487683",
            "elevationUnit": "METERS",
            "longitude": -105.51667
        },
        {
            "elevation": 1510.3,
            "mindate": "1931-01-01",
            "maxdate": "2015-11-01",
            "latitude": 43.03068,
            "name": "RIVERTON, WY US",
            "datacoverage": 0.9902,
            "id": "COOP:487760",
            "elevationUnit": "METERS",
            "longitude": -108.37432
        },
        {
            "elevation": 1292,
            "mindate": "1931-01-01",
            "maxdate": "2002-03-01",
            "latitude": 43.64487,
            "name": "ROCHELLE 7 ENE, WY US",
            "datacoverage": 0.9907,
            "id": "COOP:487810",
            "elevationUnit": "METERS",
            "longitude": -104.8414
        },
        {
            "elevation": 2026.3,
            "mindate": "2006-12-01",
            "maxdate": "2015-11-01",
            "latitude": 41.9167,
            "name": "ROCK RIVER 13 NNW, WY US",
            "datacoverage": 0.889,
            "id": "COOP:487836",
            "elevationUnit": "METERS",
            "longitude": -106.0369
        },
        {
            "elevation": 1943.1,
            "mindate": "1946-01-01",
            "maxdate": "1979-06-01",
            "latitude": 41.58333,
            "name": "ROCK SPRINGS, WY US",
            "datacoverage": 0.9702,
            "id": "COOP:487840",
            "elevationUnit": "METERS",
            "longitude": -109.21667
        },
        {
            "elevation": 2055,
            "mindate": "1948-01-01",
            "maxdate": "2015-11-01",
            "latitude": 41.59466,
            "name": "ROCK SPRINGS AIRPORT, WY US",
            "datacoverage": 0.9743,
            "id": "COOP:487845",
            "elevationUnit": "METERS",
            "longitude": -109.05296
        },
        {
            "elevation": 1911.1,
            "mindate": "2003-01-01",
            "maxdate": "2015-11-01",
            "latitude": 41.57779,
            "name": "ROCK SPRINGS FIRE DEPARTMENT, WY US",
            "datacoverage": 0.9808,
            "id": "COOP:487847",
            "elevationUnit": "METERS",
            "longitude": -109.23955
        },
        {
            "elevation": 1191.8,
            "mindate": "1931-01-01",
            "maxdate": "2010-08-01",
            "latitude": 44.9916,
            "name": "ROCKYPOINT 7 NNE, WY US",
            "datacoverage": 0.4634,
            "id": "COOP:487885",
            "elevationUnit": "METERS",
            "longitude": -105.0472
        },
        {
            "elevation": 1892.8,
            "mindate": "1923-01-01",
            "maxdate": "2001-07-01",
            "latitude": 41.86667,
            "name": "SAGE 4 NNW, WY US",
            "datacoverage": 0.8972,
            "id": "COOP:487955",
            "elevationUnit": "METERS",
            "longitude": -111
        },
        {
            "elevation": 1818.1,
            "mindate": "1947-06-01",
            "maxdate": "1977-01-01",
            "latitude": 42.76667,
            "name": "SAND DRAW, WY US",
            "datacoverage": 0.9464,
            "id": "COOP:487980",
            "elevationUnit": "METERS",
            "longitude": -108.18333
        },
        {
            "elevation": 2069.6,
            "mindate": "1931-01-01",
            "maxdate": "2007-11-01",
            "latitude": 41.45278,
            "name": "SARATOGA, WY US",
            "datacoverage": 0.9729,
            "id": "COOP:487990",
            "elevationUnit": "METERS",
            "longitude": -106.80528
        },
        {
            "elevation": 2072.9,
            "mindate": "1948-08-01",
            "maxdate": "2015-11-01",
            "latitude": 41.5047,
            "name": "SARATOGA 4 N, WY US",
            "datacoverage": 0.1089,
            "id": "COOP:487995",
            "elevationUnit": "METERS",
            "longitude": -106.7888
        },
        {
            "elevation": 2084.2,
            "mindate": "1937-07-01",
            "maxdate": "2014-01-01",
            "latitude": 42.1569,
            "name": "SEMINOE DAM, WY US",
            "datacoverage": 0.8469,
            "id": "COOP:488070",
            "elevationUnit": "METERS",
            "longitude": -106.9153
        },
        {
            "elevation": 1293,
            "mindate": "1958-10-01",
            "maxdate": "2015-11-01",
            "latitude": 44.53514,
            "name": "SHELL, WY US",
            "datacoverage": 0.8513,
            "id": "COOP:488124",
            "elevationUnit": "METERS",
            "longitude": -107.7774
        },
        {
            "elevation": 1202.4,
            "mindate": "1948-08-01",
            "maxdate": "2015-11-01",
            "latitude": 44.7694,
            "name": "SHERIDAN AIRPORT, WY US",
            "datacoverage": 1,
            "id": "COOP:488155",
            "elevationUnit": "METERS",
            "longitude": -106.9688
        },
        {
            "elevation": 1202.4,
            "mindate": "1999-03-01",
            "maxdate": "2008-10-01",
            "latitude": 44.76,
            "name": "SHERIDAN GIRLS SCHOOL, WY US",
            "datacoverage": 0.8788,
            "id": "COOP:488157",
            "elevationUnit": "METERS",
            "longitude": -106.9694
        },
        {
            "elevation": 1143,
            "mindate": "1931-01-01",
            "maxdate": "2015-11-01",
            "latitude": 44.8405,
            "name": "SHERIDAN FIELD STATION, WY US",
            "datacoverage": 0.9941,
            "id": "COOP:488160",
            "elevationUnit": "METERS",
            "longitude": -106.8383
        },
        {
            "elevation": 2151,
            "mindate": "1961-06-01",
            "maxdate": "2015-11-01",
            "latitude": 42.3703,
            "name": "SHIRLEY BASIN, WY US",
            "datacoverage": 0.9913,
            "id": "COOP:488192",
            "elevationUnit": "METERS",
            "longitude": -106.1049
        },
        {
            "elevation": 1474.3,
            "mindate": "1931-04-01",
            "maxdate": "2015-11-01",
            "latitude": 43.23716,
            "name": "SHOSHONI, WY US",
            "datacoverage": 0.8573,
            "id": "COOP:488209",
            "elevationUnit": "METERS",
            "longitude": -108.10964
        },
        {
            "elevation": 2097.6,
            "mindate": "1931-01-01",
            "maxdate": "2015-11-01",
            "latitude": 44.13632,
            "name": "SNAKE RIVER, WY US",
            "datacoverage": 0.842,
            "id": "COOP:488315",
            "elevationUnit": "METERS",
            "longitude": -110.66631
        },
        {
            "elevation": 2389.6,
            "mindate": "1931-01-01",
            "maxdate": "2011-12-01",
            "latitude": 42.46667,
            "name": "SOUTH PASS CITY, WY US",
            "datacoverage": 0.7922,
            "id": "COOP:488385",
            "elevationUnit": "METERS",
            "longitude": -108.8
        },
        {
            "elevation": 2465.8,
            "mindate": "1988-05-01",
            "maxdate": "1990-10-01",
            "latitude": 42.48333,
            "name": "SOUTH PASS CITY 2 NW, WY US",
            "datacoverage": 0.999,
            "id": "COOP:488410",
            "elevationUnit": "METERS",
            "longitude": -108.81667
        },
        {
            "elevation": 2499.4,
            "mindate": "1986-07-01",
            "maxdate": "1988-04-01",
            "latitude": 42.53333,
            "name": "SOUTH PASS, WY US",
            "datacoverage": 0.9994,
            "id": "COOP:488423",
            "elevationUnit": "METERS",
            "longitude": -108.76667
        },
        {
            "elevation": 1158.8,
            "mindate": "1932-01-01",
            "maxdate": "1974-06-01",
            "latitude": 43.43333,
            "name": "SPENCER 10 NE, WY US",
            "datacoverage": 0.9491,
            "id": "COOP:488475",
            "elevationUnit": "METERS",
            "longitude": -104.16667
        },
        {
            "elevation": 1575.2,
            "mindate": "1950-04-01",
            "maxdate": "2015-11-01",
            "latitude": 44.5767,
            "name": "STORY, WY US",
            "datacoverage": 0.3977,
            "id": "COOP:488626",
            "elevationUnit": "METERS",
            "longitude": -106.9062
        },
        {
            "elevation": 1431,
            "mindate": "1931-01-01",
            "maxdate": "2015-11-01",
            "latitude": 44.4121,
            "name": "SUNDANCE, WY US",
            "datacoverage": 0.9637,
            "id": "COOP:488705",
            "elevationUnit": "METERS",
            "longitude": -104.3567
        },
        {
            "elevation": 1966,
            "mindate": "2000-02-01",
            "maxdate": "2007-05-01",
            "latitude": 44.7644,
            "name": "SUNLIGHT BASIN, WY US",
            "datacoverage": 1,
            "id": "COOP:488722",
            "elevationUnit": "METERS",
            "longitude": -109.45
        },
        {
            "elevation": 1897.1,
            "mindate": "1963-07-01",
            "maxdate": "2015-11-01",
            "latitude": 44.07597,
            "name": "SUNSHINE 3 NE, WY US",
            "datacoverage": 0.9809,
            "id": "COOP:488758",
            "elevationUnit": "METERS",
            "longitude": -108.95481
        },
        {
            "elevation": 1855,
            "mindate": "1964-05-01",
            "maxdate": "2015-11-01",
            "latitude": 41.76444,
            "name": "SYBILLE RESEARCH UNI, WY US",
            "datacoverage": 0.9935,
            "id": "COOP:488808",
            "elevationUnit": "METERS",
            "longitude": -105.375
        },
        {
            "elevation": 1711.8,
            "mindate": "1941-07-01",
            "maxdate": "1981-02-01",
            "latitude": 41.35,
            "name": "TENNYSON, WY US",
            "datacoverage": 0.9706,
            "id": "COOP:488845",
            "elevationUnit": "METERS",
            "longitude": -104.38333
        },
        {
            "elevation": 1447.2,
            "mindate": "1964-05-01",
            "maxdate": "2015-11-01",
            "latitude": 44.06479,
            "name": "TENSLEEP 4 NE, WY US",
            "datacoverage": 0.9903,
            "id": "COOP:488852",
            "elevationUnit": "METERS",
            "longitude": -107.38198
        },
        {
            "elevation": 1426.5,
            "mindate": "1955-12-01",
            "maxdate": "2015-11-01",
            "latitude": 43.81106,
            "name": "TENSLEEP 16 SSE, WY US",
            "datacoverage": 0.9778,
            "id": "COOP:488858",
            "elevationUnit": "METERS",
            "longitude": -107.36527
        },
        {
            "elevation": 1463,
            "mindate": "2003-03-01",
            "maxdate": "2003-07-01",
            "latitude": 43.78194,
            "name": "TENSLEEP 18 SSE, WY US",
            "datacoverage": 0.9947,
            "id": "COOP:488859",
            "elevationUnit": "METERS",
            "longitude": -107.31528
        },
        {
            "elevation": 1866.9,
            "mindate": "1967-09-01",
            "maxdate": "1973-02-01",
            "latitude": 42.91667,
            "name": "THAYNE 2 E, WY US",
            "datacoverage": 0.9701,
            "id": "COOP:488870",
            "elevationUnit": "METERS",
            "longitude": -110.96667
        },
        {
            "elevation": 1317,
            "mindate": "1931-01-01",
            "maxdate": "2015-11-01",
            "latitude": 43.64832,
            "name": "THERMOPOLIS, WY US",
            "datacoverage": 0.6673,
            "id": "COOP:488875",
            "elevationUnit": "METERS",
            "longitude": -108.20367
        },
        {
            "elevation": 1341.1,
            "mindate": "1965-03-01",
            "maxdate": "1990-05-01",
            "latitude": 43.65,
            "name": "THERMOPOLIS 2, WY US",
            "datacoverage": 0.9967,
            "id": "COOP:488880",
            "elevationUnit": "METERS",
            "longitude": -108.21667
        },
        {
            "elevation": 1305.2,
            "mindate": "1991-12-01",
            "maxdate": "2015-11-01",
            "latitude": 43.75327,
            "name": "THERMOPOLIS 9 NE, WY US",
            "datacoverage": 0.9792,
            "id": "COOP:488884",
            "elevationUnit": "METERS",
            "longitude": -108.14303
        },
        {
            "elevation": 1679.4,
            "mindate": "1951-05-01",
            "maxdate": "2013-07-29",
            "latitude": 43.723,
            "name": "THERMOPOLIS 25 WNW, WY US",
            "datacoverage": 0.8834,
            "id": "COOP:488888",
            "elevationUnit": "METERS",
            "longitude": -108.6963
        },
        {
            "elevation": 1249.1,
            "mindate": "1931-01-01",
            "maxdate": "2008-03-30",
            "latitude": 42.0802,
            "name": "TORRINGTON EXPERIMENTAL FARM, WY US",
            "datacoverage": 0.9935,
            "id": "COOP:488995",
            "elevationUnit": "METERS",
            "longitude": -104.2236
        },
        {
            "elevation": 1279.9,
            "mindate": "2012-01-01",
            "maxdate": "2015-11-01",
            "latitude": 42.0613,
            "name": "TORRINGTON MUNICIPAL AIRPORT, WY US",
            "datacoverage": 1,
            "id": "COOP:488996",
            "elevationUnit": "METERS",
            "longitude": -104.1584
        },
        {
            "elevation": 1481.3,
            "mindate": "1994-10-01",
            "maxdate": "2015-11-01",
            "latitude": 42.488,
            "name": "TORRINGTON 29 N, WY US",
            "datacoverage": 0.9843,
            "id": "COOP:488997",
            "elevationUnit": "METERS",
            "longitude": -104.1563
        },
        {
            "elevation": 1246.9,
            "mindate": "1948-08-01",
            "maxdate": "1979-08-01",
            "latitude": 42.05,
            "name": "TORRINGTON 1 S, WY US",
            "datacoverage": 0.031,
            "id": "COOP:489000",
            "elevationUnit": "METERS",
            "longitude": -104.18333
        },
        {
            "elevation": 1912.6,
            "mindate": "1931-01-01",
            "maxdate": "2015-11-01",
            "latitude": 44.91653,
            "name": "TOWER FALLS, WY US",
            "datacoverage": 0.9667,
            "id": "COOP:489025",
            "elevationUnit": "METERS",
            "longitude": -110.42033
        },
        {
            "elevation": 1316.7,
            "mindate": "1948-09-01",
            "maxdate": "2015-11-01",
            "latitude": 44.0928,
            "name": "UPTON, WY US",
            "datacoverage": 0.9951,
            "id": "COOP:489205",
            "elevationUnit": "METERS",
            "longitude": -104.6114
        },
        {
            "elevation": 1456.9,
            "mindate": "1948-10-01",
            "maxdate": "2001-12-01",
            "latitude": 43.92694,
            "name": "UPTON 13 SW, WY US",
            "datacoverage": 1,
            "id": "COOP:489207",
            "elevationUnit": "METERS",
            "longitude": -104.74556
        },
        {
            "elevation": 1594.1,
            "mindate": "2005-08-01",
            "maxdate": "2012-12-01",
            "latitude": 44.1619,
            "name": "UPTON 14 ENE, WY US",
            "datacoverage": 0.9884,
            "id": "COOP:489208",
            "elevationUnit": "METERS",
            "longitude": -104.3541
        },
        {
            "elevation": 1356.4,
            "mindate": "2004-09-01",
            "maxdate": "2005-12-01",
            "latitude": 43.9305,
            "name": "UPTON 19 SW, WY US",
            "datacoverage": 0.5,
            "id": "COOP:489212",
            "elevationUnit": "METERS",
            "longitude": -104.9289
        },
        {
            "elevation": 2054.4,
            "mindate": "1931-01-01",
            "maxdate": "2015-11-01",
            "latitude": 41.67166,
            "name": "WAMSUTTER, WY US",
            "datacoverage": 0.7606,
            "id": "COOP:489459",
            "elevationUnit": "METERS",
            "longitude": -107.97841
        },
        {
            "elevation": 1694.1,
            "mindate": "1989-06-01",
            "maxdate": "2015-11-01",
            "latitude": 44.45944,
            "name": "WAPITI 1 WSW, WY US",
            "datacoverage": 0.9686,
            "id": "COOP:489467",
            "elevationUnit": "METERS",
            "longitude": -109.4164
        },
        {
            "elevation": 2067.8,
            "mindate": "1977-08-01",
            "maxdate": "1984-12-01",
            "latitude": 44.41667,
            "name": "WAPITI 5 WNW, WY US",
            "datacoverage": 0.7076,
            "id": "COOP:489475",
            "elevationUnit": "METERS",
            "longitude": -109.58333
        },
        {
            "elevation": 1749.6,
            "mindate": "1987-06-01",
            "maxdate": "1988-06-01",
            "latitude": 44.46667,
            "name": "WAPITI 4 W, WY US",
            "datacoverage": 0.9992,
            "id": "COOP:489479",
            "elevationUnit": "METERS",
            "longitude": -109.5
        },
        {
            "elevation": 1139.3,
            "mindate": "1951-05-01",
            "maxdate": "2015-11-01",
            "latitude": 44.64021,
            "name": "WESTON 1 E, WY US",
            "datacoverage": 0.9354,
            "id": "COOP:489580",
            "elevationUnit": "METERS",
            "longitude": -105.30095
        },
        {
            "elevation": 1308.8,
            "mindate": "1949-05-01",
            "maxdate": "1991-09-01",
            "latitude": 42.2494,
            "name": "WHALEN DAM USBR, WY US",
            "datacoverage": 0.9941,
            "id": "COOP:489604",
            "elevationUnit": "METERS",
            "longitude": -104.628
        },
        {
            "elevation": 1413.7,
            "mindate": "1931-01-01",
            "maxdate": "2015-11-01",
            "latitude": 42.1106,
            "name": "WHEATLAND 4 N, WY US",
            "datacoverage": 0.9902,
            "id": "COOP:489615",
            "elevationUnit": "METERS",
            "longitude": -104.9492
        },
        {
            "elevation": 1452.1,
            "mindate": "1967-03-01",
            "maxdate": "1970-07-01",
            "latitude": 42.05,
            "name": "WHEATLAND 2, WY US",
            "datacoverage": 0.0146,
            "id": "COOP:489621",
            "elevationUnit": "METERS",
            "longitude": -104.95
        },
        {
            "elevation": 1236.9,
            "mindate": "1931-01-01",
            "maxdate": "2015-11-01",
            "latitude": 44.01134,
            "name": "WORLAND, WY US",
            "datacoverage": 0.9912,
            "id": "COOP:489770",
            "elevationUnit": "METERS",
            "longitude": -107.96838
        },
        {
            "elevation": 1271.6,
            "mindate": "1960-04-01",
            "maxdate": "2015-11-01",
            "latitude": 43.96583,
            "name": "WORLAND MUNICIPAL AIRPORT, WY US",
            "datacoverage": 1,
            "id": "COOP:489785",
            "elevationUnit": "METERS",
            "longitude": -107.95083
        },
        {
            "elevation": 1527.4,
            "mindate": "1982-07-01",
            "maxdate": "1984-10-01",
            "latitude": 43.7,
            "name": "WRIGHT, WY US",
            "datacoverage": 0.6671,
            "id": "COOP:489800",
            "elevationUnit": "METERS",
            "longitude": -105.41667
        },
        {
            "elevation": 1530.1,
            "mindate": "1991-07-01",
            "maxdate": "2015-11-01",
            "latitude": 43.7472,
            "name": "WRIGHT 12 W, WY US",
            "datacoverage": 0.9897,
            "id": "COOP:489805",
            "elevationUnit": "METERS",
            "longitude": -105.733
        },
        {
            "elevation": 2417.1,
            "mindate": "2003-01-01",
            "maxdate": "2003-04-01",
            "latitude": 44.7375,
            "name": "YELLOWSTONE NATIONAL PARK CYN R S, WY US",
            "datacoverage": 1,
            "id": "COOP:489900",
            "elevationUnit": "METERS",
            "longitude": -110.49694
        },
        {
            "elevation": 2119.6,
            "mindate": "2000-11-01",
            "maxdate": "2015-11-01",
            "latitude": 44.48874,
            "name": "YELLOWSTONE NATIONAL PARK EAST ENT, WY US",
            "datacoverage": 0.9284,
            "id": "COOP:489902",
            "elevationUnit": "METERS",
            "longitude": -110.0038
        },
        {
            "elevation": 1888.2,
            "mindate": "1889-01-01",
            "maxdate": "2015-11-01",
            "latitude": 44.97668,
            "name": "YELLOWSTONE PARK MAMMOTH, WY US",
            "datacoverage": 0.9804,
            "id": "COOP:489905",
            "elevationUnit": "METERS",
            "longitude": -110.6964
        },
        {
            "elevation": 1319.8,
            "mindate": "1931-01-01",
            "maxdate": "2010-09-01",
            "latitude": 41.913,
            "name": "YODER 2 WSW, WY US",
            "datacoverage": 0.9687,
            "id": "COOP:489925",
            "elevationUnit": "METERS",
            "longitude": -104.388
        },
        {
            "elevation": 2201,
            "mindate": "2004-04-01",
            "maxdate": "2020-01-29",
            "latitude": 41.3139,
            "name": "LARAMIE .73 ENE, WY US",
            "datacoverage": 0.6944,
            "id": "GHCND:US1WYAB0001",
            "elevationUnit": "METERS",
            "longitude": -105.5774
        },
        {
            "elevation": 2518,
            "mindate": "2004-11-01",
            "maxdate": "2019-10-11",
            "latitude": 41.3161,
            "name": "CENTENNIAL 1.2 NNE, WY US",
            "datacoverage": 0.6033,
            "id": "GHCND:US1WYAB0002",
            "elevationUnit": "METERS",
            "longitude": -106.1368
        },
        {
            "elevation": 2254,
            "mindate": "2002-10-01",
            "maxdate": "2008-06-22",
            "latitude": 41.391,
            "name": "LARAMIE 6.3 NNE, WY US",
            "datacoverage": 1,
            "id": "GHCND:US1WYAB0003",
            "elevationUnit": "METERS",
            "longitude": -105.5353
        },
        {
            "elevation": 2197.9,
            "mindate": "2004-05-01",
            "maxdate": "2020-05-17",
            "latitude": 41.2965,
            "name": "LARAMIE 1.3 SE, WY US",
            "datacoverage": 1,
            "id": "GHCND:US1WYAB0005",
            "elevationUnit": "METERS",
            "longitude": -105.5748
        },
        {
            "elevation": 2215.9,
            "mindate": "2004-08-01",
            "maxdate": "2006-03-31",
            "latitude": 41.3166,
            "name": "LARAMIE AIRPORT, WY US",
            "datacoverage": 0.9512,
            "id": "GHCND:US1WYAB0007",
            "elevationUnit": "METERS",
            "longitude": -105.6666
        },
        {
            "elevation": 2186,
            "mindate": "2004-07-01",
            "maxdate": "2015-11-16",
            "latitude": 41.3221,
            "name": "LARAMIE 0.8 NNE, WY US",
            "datacoverage": 0.9854,
            "id": "GHCND:US1WYAB0008",
            "elevationUnit": "METERS",
            "longitude": -105.5837
        },
        {
            "elevation": 2179,
            "mindate": "2004-01-01",
            "maxdate": "2006-02-20",
            "latitude": 41.3137,
            "name": "LARAMIE 0.5 WNW, WY US",
            "datacoverage": 1,
            "id": "GHCND:US1WYAB0009",
            "elevationUnit": "METERS",
            "longitude": -105.601
        },
        {
            "elevation": 2203.1,
            "mindate": "2006-07-01",
            "maxdate": "2007-10-23",
            "latitude": 41.3283,
            "name": "LARAMIE 1.4 NNE, WY US",
            "datacoverage": 0.9356,
            "id": "GHCND:US1WYAB0024",
            "elevationUnit": "METERS",
            "longitude": -105.56878
        },
        {
            "elevation": 2512.2,
            "mindate": "2006-11-01",
            "maxdate": "2007-05-17",
            "latitude": 41.1306,
            "name": "LARAMIE 15.5 SE, WY US",
            "datacoverage": 1,
            "id": "GHCND:US1WYAB0026",
            "elevationUnit": "METERS",
            "longitude": -105.404
        },
        {
            "elevation": 2183,
            "mindate": "2007-03-01",
            "maxdate": "2007-11-30",
            "latitude": 41.2949,
            "name": "LARAMIE 2.5 WSW, WY US",
            "datacoverage": 0.8855,
            "id": "GHCND:US1WYAB0028",
            "elevationUnit": "METERS",
            "longitude": -105.6263
        },
        {
            "elevation": 2190.9,
            "mindate": "2007-07-01",
            "maxdate": "2007-11-21",
            "latitude": 41.309615,
            "name": "LARAMIE 0.2 SE, WY US",
            "datacoverage": 0.998,
            "id": "GHCND:US1WYAB0029",
            "elevationUnit": "METERS",
            "longitude": -105.587039
        },
        {
            "elevation": 2246.1,
            "mindate": "2007-08-01",
            "maxdate": "2020-05-15",
            "latitude": 41.293034,
            "name": "LARAMIE 2.7 ESE, WY US",
            "datacoverage": 0.721,
            "id": "GHCND:US1WYAB0030",
            "elevationUnit": "METERS",
            "longitude": -105.537713
        },
        {
            "elevation": 2193,
            "mindate": "2007-06-01",
            "maxdate": "2016-05-27",
            "latitude": 41.326349,
            "name": "LARAMIE 1.3 NE, WY US",
            "datacoverage": 0.8087,
            "id": "GHCND:US1WYAB0032",
            "elevationUnit": "METERS",
            "longitude": -105.56739
        },
        {
            "elevation": 2453,
            "mindate": "2008-10-01",
            "maxdate": "2013-03-23",
            "latitude": 41.187161,
            "name": "LARAMIE 27.3 WSW, WY US",
            "datacoverage": 1,
            "id": "GHCND:US1WYAB0033",
            "elevationUnit": "METERS",
            "longitude": -106.072508
        },
        {
            "elevation": 2234.2,
            "mindate": "2008-11-01",
            "maxdate": "2012-06-03",
            "latitude": 41.32157,
            "name": "LARAMIE 2.2 ENE, WY US",
            "datacoverage": 1,
            "id": "GHCND:US1WYAB0034",
            "elevationUnit": "METERS",
            "longitude": -105.542821
        },
        {
            "elevation": 2188.8,
            "mindate": "2009-09-01",
            "maxdate": "2014-11-10",
            "latitude": 41.307403,
            "name": "LARAMIE 0.2 S, WY US",
            "datacoverage": 0.905,
            "id": "GHCND:US1WYAB0035",
            "elevationUnit": "METERS",
            "longitude": -105.582129
        },
        {
            "elevation": 2211.3,
            "mindate": "2012-07-01",
            "maxdate": "2017-01-28",
            "latitude": 41.439165,
            "name": "LARAMIE 17.1 WNW, WY US",
            "datacoverage": 1,
            "id": "GHCND:US1WYAB0040",
            "elevationUnit": "METERS",
            "longitude": -105.866128
        },
        {
            "elevation": 2284.2,
            "mindate": "2013-03-01",
            "maxdate": "2016-05-28",
            "latitude": 41.109,
            "name": "JELM 0.2 SE, WY US",
            "datacoverage": 0.8117,
            "id": "GHCND:US1WYAB0041",
            "elevationUnit": "METERS",
            "longitude": -106.01038667
        },
        {
            "elevation": 2228.4,
            "mindate": "2013-03-01",
            "maxdate": "2017-05-17",
            "latitude": 41.1852,
            "name": "LARAMIE 8.7 S, WY US",
            "datacoverage": 0.9998,
            "id": "GHCND:US1WYAB0042",
            "elevationUnit": "METERS",
            "longitude": -105.5935
        },
        {
            "elevation": 2191.2,
            "mindate": "2013-01-01",
            "maxdate": "2015-09-15",
            "latitude": 41.30468,
            "name": "LARAMIE 0.4 SSE, WY US",
            "datacoverage": 0.789,
            "id": "GHCND:US1WYAB0044",
            "elevationUnit": "METERS",
            "longitude": -105.580507
        },
        {
            "elevation": 2201.3,
            "mindate": "2010-10-10",
            "maxdate": "2020-05-17",
            "latitude": 41.33546454,
            "name": "LARAMIE 1.7 N, WY US",
            "datacoverage": 0.9993,
            "id": "GHCND:US1WYAB0045",
            "elevationUnit": "METERS",
            "longitude": -105.58533917
        },
        {
            "elevation": 2187.9,
            "mindate": "2013-03-01",
            "maxdate": "2020-05-15",
            "latitude": 41.3132212311029,
            "name": "LARAMIE 2.4 W, WY US",
            "datacoverage": 0.9993,
            "id": "GHCND:US1WYAB0047",
            "elevationUnit": "METERS",
            "longitude": -105.628408491611
        },
        {
            "elevation": 2189.7,
            "mindate": "2013-04-01",
            "maxdate": "2020-05-15",
            "latitude": 41.322516,
            "name": "LARAMIE 0.8 N, WY US",
            "datacoverage": 0.9998,
            "id": "GHCND:US1WYAB0048",
            "elevationUnit": "METERS",
            "longitude": -105.581205
        },
        {
            "elevation": 2186,
            "mindate": "2013-03-01",
            "maxdate": "2020-05-14",
            "latitude": 41.3308352977037,
            "name": "LARAMIE 1.4 N, WY US",
            "datacoverage": 1,
            "id": "GHCND:US1WYAB0049",
            "elevationUnit": "METERS",
            "longitude": -105.581404790282
        },
        {
            "elevation": 2266.5,
            "mindate": "2013-03-01",
            "maxdate": "2015-03-31",
            "latitude": 41.283458,
            "name": "LARAMIE 3.5 ESE, WY US",
            "datacoverage": 0.9999,
            "id": "GHCND:US1WYAB0050",
            "elevationUnit": "METERS",
            "longitude": -105.527572
        },
        {
            "elevation": 2210.4,
            "mindate": "2013-03-01",
            "maxdate": "2020-05-16",
            "latitude": 41.32961,
            "name": "LARAMIE 1.4 NNE, WY US",
            "datacoverage": 0.9993,
            "id": "GHCND:US1WYAB0052",
            "elevationUnit": "METERS",
            "longitude": -105.56981
        },
        {
            "elevation": 2195.5,
            "mindate": "2013-03-01",
            "maxdate": "2016-01-31",
            "latitude": 41.3037074357271,
            "name": "LARAMIE 0.7 SE, WY US",
            "datacoverage": 1,
            "id": "GHCND:US1WYAB0053",
            "elevationUnit": "METERS",
            "longitude": -105.573220029473
        },
        {
            "elevation": 2189.1,
            "mindate": "2013-03-01",
            "maxdate": "2013-09-12",
            "latitude": 41.31556,
            "name": "LARAMIE 0.3 NNW, WY US",
            "datacoverage": 1,
            "id": "GHCND:US1WYAB0059",
            "elevationUnit": "METERS",
            "longitude": -105.58503
        },
        {
            "elevation": 2190.6,
            "mindate": "2010-07-01",
            "maxdate": "2016-04-02",
            "latitude": 41.3082933425903,
            "name": "LARAMIE 0.2 S, WY US",
            "datacoverage": 0.8528,
            "id": "GHCND:US1WYAB0062",
            "elevationUnit": "METERS",
            "longitude": -105.583292394876
        },
        {
            "elevation": 2187.5,
            "mindate": "2013-03-01",
            "maxdate": "2018-10-05",
            "latitude": 41.314512,
            "name": "LARAMIE 2.2 W, WY US",
            "datacoverage": 0.9993,
            "id": "GHCND:US1WYAB0065",
            "elevationUnit": "METERS",
            "longitude": -105.625917
        },
        {
            "elevation": 2182.7,
            "mindate": "2013-04-01",
            "maxdate": "2020-05-15",
            "latitude": 41.4216,
            "name": "LARAMIE 7.7 N, WY US",
            "datacoverage": 0.972,
            "id": "GHCND:US1WYAB0067",
            "elevationUnit": "METERS",
            "longitude": -105.60445
        },
        {
            "elevation": 2253.1,
            "mindate": "2013-04-01",
            "maxdate": "2017-07-27",
            "latitude": 41.297837421298,
            "name": "LARAMIE 2.7 ESE, WY US",
            "datacoverage": 0.9998,
            "id": "GHCND:US1WYAB0071",
            "elevationUnit": "METERS",
            "longitude": -105.533517971635
        },